city,latitude,longitude,tp_winter,tp_spring,tp_summer,tp_autumn,sf_winter,sf_spring,sf_summer,sf_autumn,si10_winter,si10_spring,si10_summer,si10_autumn,t2m_winter,t2m_spring,t2m_summer,t2m_autumn,max_t2m_winter,max_t2m_spring,max_t2m_summer,max_t2m_autumn,min_t2m_winter,min_t2m_spring,min_t2m_summer,min_t2m_autumn
Aachen,50.776642,6.08342,0.0034377568,0.0023805168,0.0024641077,0.0023256696,0.0002489713,6.3523716e-05,1.3345485e-08,4.4492317e-05,4.9601064,3.8800464,3.3960469,4.105701,278.19113,284.09143,293.12555,285.6992,281.00153,288.76895,298.66486,289.8026,275.4299,279.33807,287.5827,281.86444
Aberdeen,57.143688,-2.09814,0.0028282728,0.0021837994,0.0019470304,0.003155093,0.0001267533,3.9685947e-05,3.238546e-09,4.239751e-06,6.9403286,5.621184,4.4888406,5.8080072,278.99817,281.45862,288.06137,284.0626,281.10455,284.2588,291.2502,286.4159,276.71545,278.54837,284.6884,281.63132
Aix-en-Provence,43.528301,5.44973,0.0016399429,0.001423215,0.00076758076,0.0031605233,1.7677028e-05,1.2663534e-06,1.1739358e-08,4.7477697e-06,3.3258302,3.3216941,2.8275504,2.9507394,281.34164,287.0311,297.68073,289.74423,285.0092,291.563,302.8154,293.89966,278.2222,282.48065,292.22565,286.04318
Alcalá de Henares,40.482052,-3.35996,0.0013571384,0.0010429159,0.00055855594,0.0015757617,0.00014111552,4.3166452e-05,6.0287286e-09,6.889815e-05,2.3185613,2.5414715,2.4232821,2.2408576,280.6945,287.27197,299.456,289.65225,286.3053,294.19122,307.71454,296.10992,275.76703,280.22916,290.7018,283.72324
Alicante,38.345169,-0.48149,0.0008216469,0.0009162476,0.00027656014,0.0017385294,6.0531984e-06,2.556927e-06,2.7046094e-09,1.1159357e-06,2.7913551,2.66505,2.3907666,2.5397587,284.71082,290.07666,300.53918,293.4125,290.75092,296.55792,307.03714,299.36746,279.64035,283.7971,294.12338,288.26178
Almería,36.838139,-2.45974,0.00084017287,0.00055435597,0.00022749478,0.0010373956,0.00014432956,2.0494712e-05,7.184165e-10,6.3697203e-06,1.9558606,2.081948,1.9801912,1.9363854,283.17,288.7142,299.31595,291.92596,289.0996,294.7309,305.52173,297.75992,278.4088,282.59238,292.7177,286.846
Amersfoort,52.154999,5.3875,0.0032308877,0.0021642088,0.002475924,0.0025695045,0.00010969429,2.2549899e-05,5.5362674e-09,1.7839295e-05,5.0543575,4.1263,3.525383,4.082111,278.78244,284.01147,292.16345,285.46976,281.4634,288.58673,297.31808,289.386,276.08047,279.2558,286.6972,281.7558
Amiens,49.900002,2.3,0.0032634316,0.0021486403,0.0023489415,0.0024559316,0.00013694006,2.0934933e-05,1.508587e-08,1.8892299e-05,4.822024,4.0173855,3.4444337,3.9450576,279.49417,284.65692,293.29086,286.56842,281.92667,288.68747,298.05426,290.14615,277.05548,280.52417,288.35236,283.12787
Amsterdam,52.374031,4.88969,0.0035322746,0.0022981723,0.0028204585,0.0032768096,0.00012307112,2.266529e-05,9.43947e-09,1.1704435e-05,6.493846,5.2408724,4.424274,5.2872877,278.9464,283.653,291.46875,285.93304,281.0305,287.0534,295.07513,288.80035,276.78137,280.07513,287.40982,283.10843
Angers,47.466671,-0.55,0.002895282,0.0021545687,0.0015035155,0.0021290132,3.6907622e-05,5.935368e-06,6.5150196e-09,2.1679912e-06,4.2559104,3.8062584,3.1634054,3.4738965,280.27206,285.39435,294.6325,287.37012,283.34772,290.1387,300.4671,292.07477,277.2043,280.57507,288.70346,282.91675
Antwerpen,51.219891,4.40346,0.002876628,0.0019628764,0.0021907808,0.002296035,0.000111021945,2.3642739e-05,1.0921818e-08,2.4627898e-05,4.9170704,3.9976127,3.482005,4.020711,279.3126,284.60098,293.30493,286.15283,282.0485,289.07968,298.4251,290.09024,276.56747,280.00922,288.06573,282.41193
Apeldoorn,52.209999,5.96944,0.0033942447,0.0022668566,0.002687356,0.002588026,0.00012159366,1.8399402e-05,6.738991e-09,1.4335531e-05,4.925548,4.069094,3.4861922,4.015603,278.86105,283.96024,291.90784,285.4323,281.42325,288.4162,296.96786,289.2149,276.26596,279.30182,286.51062,281.83862
Arezzo,43.461391,11.87691,0.0020213616,0.0017791791,0.0012283184,0.0031804189,0.00033414524,5.518413e-05,3.2665255e-09,4.7622016e-05,2.2793882,2.2449105,1.8477275,2.0757885,278.36475,284.7474,296.3039,287.645,281.28503,289.1137,301.71356,291.62167,275.6868,280.4883,290.9087,284.15515
Arnhem,51.98,5.91111,0.003268893,0.0021759395,0.0024958185,0.0024608707,0.00012574179,2.2480268e-05,9.046042e-09,1.1849333e-05,4.8001637,3.930851,3.4252098,3.9474053,278.92215,284.1329,292.42603,285.57925,281.52463,288.68863,297.69705,289.4955,276.30267,279.41537,286.94598,281.88962
Athens,37.97945,23.716221,0.002041445,0.0007873294,0.00017637119,0.0013445362,3.3416043e-05,2.0335933e-06,6.467575e-11,7.2916595e-07,2.7820835,2.3482323,2.5766277,2.4388366,283.34872,289.47418,301.4022,293.57123,286.95926,294.63318,307.18588,298.5791,279.9143,284.483,295.35815,289.0582
Augsburg,48.366669,10.88333,0.0018886026,0.0022543992,0.00297304,0.002437953,0.00048791294,0.00015008348,2.1883686e-08,7.40121e-05,3.4209554,2.9609582,2.4710462,2.7336788,275.89355,283.877,294.30914,284.96475,278.8036,289.1087,300.42407,289.50787,273.11203,278.85382,288.474,281.03125
Avignon,43.948341,4.80892,0.0017162858,0.0015110106,0.0009521937,0.0035192631,8.831916e-05,1.1259881e-05,1.03055005e-08,2.7230242e-05,3.3932695,3.3545685,3.127458,3.0706213,280.62473,286.8692,297.898,289.13272,284.4378,291.99915,303.92303,293.6298,277.4156,281.8631,291.8124,285.2021
Barcelona,41.38879,2.15899,0.0012466614,0.0015081493,0.0011537608,0.0030330222,1.4393974e-05,1.8299184e-05,1.6882078e-09,5.562636e-06,2.2304194,2.2191343,2.0292234,1.8840567,282.758,287.64703,298.2249,290.9255,287.43152,292.70572,303.37173,295.51395,278.9668,282.79617,293.23557,287.03546
Bari,41.117729,16.851179,0.0019590824,0.001272546,0.00066697964,0.0022470362,2.6838186e-05,6.0328093e-06,3.4953547e-09,1.0986694e-07,3.8734941,3.3377595,2.8366287,3.1177144,283.05612,288.74814,300.3625,292.7088,286.61154,293.5829,305.99512,297.41797,279.73468,284.07596,294.53516,288.5963
Basel,47.558399,7.57327,0.0036700775,0.0031378176,0.002902551,0.0032587268,0.00072651653,0.00022481708,6.8623804e-06,0.00012984886,2.4581666,2.2089424,1.8396364,1.9873714,276.66452,284.15976,294.05112,285.33588,279.2123,289.0559,300.07013,289.47006,274.3263,279.5071,288.21103,281.7978
Bath,51.377949,-2.35907,0.0034355044,0.002725695,0.0019204399,0.0029637467,0.0001886161,2.9306748e-05,5.756905e-09,7.854627e-06,5.0147166,4.410524,3.682326,4.113612,279.1932,283.05273,291.2459,285.19592,281.92828,287.16348,295.96173,288.56873,276.33643,278.88687,286.3884,281.76834
Belfast,54.583328,-5.93333,0.0037512851,0.003214831,0.0024134594,0.0035678782,0.00015376705,2.9869861e-05,8.2520435e-09,1.9179366e-05,5.90118,4.920237,3.9532123,4.9476843,279.0798,281.95987,288.98947,284.22675,281.6959,285.51443,293.05948,287.2107,276.44812,278.37125,284.84848,281.21228
Belgrade,44.804008,20.46513,0.0013407434,0.0019656906,0.0019760458,0.0017458719,0.00024860093,4.7028898e-05,1.23357085e-08,4.9890758e-05,2.8244066,2.750888,2.4498804,2.8530812,277.63776,287.46625,299.37054,289.18134,280.89532,292.76755,305.6773,294.24176,274.4168,282.22943,292.99265,284.7183
Bergamo,45.697979,9.66895,0.0020251167,0.0022972976,0.0025643634,0.003841117,0.0002449104,7.3736155e-05,6.6026623e-06,2.2139648e-05,1.5103866,1.7012894,1.486872,1.453324,277.9308,286.95844,298.01132,287.9948,281.3903,292.10867,303.67007,292.2777,275.0767,281.9868,292.56964,284.25543
Bergen,60.39299,5.32415,0.0113863945,0.006458494,0.0055662133,0.009639693,0.003937365,0.0016194906,2.9172492e-07,0.0007359969,3.423632,2.8542533,2.5525813,3.107362,276.78268,280.19855,288.3915,282.59503,278.25458,283.037,291.47256,284.76117,274.94406,276.81146,284.68802,280.22858
Berlin,52.524368,13.41053,0.0019289409,0.0017617844,0.0021618698,0.0018595748,0.00025730275,3.9205428e-05,1.1776878e-08,4.4586628e-05,4.1038895,3.3912392,3.23696,3.5609736,277.72083,284.60843,294.04636,285.59213,280.16156,289.2041,299.44635,289.3299,275.2246,279.82928,288.5166,282.11002
Bern,46.94809,7.44744,0.0040976545,0.0037892708,0.0036463463,0.0036960565,0.0015995819,0.00083135103,2.9759442e-05,0.0004471236,2.0133836,1.8231335,1.5471938,1.6838858,275.48138,282.63568,292.64728,284.0848,278.0002,287.24213,298.37198,287.97702,273.09708,278.19507,287.03268,280.7293
Besançon,47.248779,6.01815,0.0035716367,0.0032649036,0.002705633,0.0034051058,0.00039674586,0.00010715848,3.582253e-06,9.274708e-05,3.3995132,2.945496,2.4703526,2.8392143,277.5456,284.65527,294.6556,285.95718,280.38797,289.63974,300.7599,290.3696,274.85315,279.81378,288.6355,282.07382
Bielefeld,52.033329,8.53333,0.0032629138,0.0022872533,0.002683985,0.0025747784,0.0002665676,4.608355e-05,1.33323255e-08,3.4451637e-05,4.444711,3.586906,3.271504,3.7933834,277.82126,283.76724,292.65567,285.2009,280.10236,288.1253,297.85474,288.85187,275.52756,279.24554,287.4285,281.86017
Bilbao,43.262711,-2.92528,0.0034622871,0.003035205,0.0015018398,0.0032436922,6.840041e-05,1.7823331e-05,1.4629863e-09,2.0101452e-05,3.2323039,2.771199,2.1847713,2.6363072,281.78854,285.63937,294.2356,288.9077,285.932,290.87616,300.38336,294.1359,277.8793,280.40222,288.3472,284.16656
Birmingham,52.481419,-1.89983,0.002748888,0.002312821,0.002250617,0.0025341883,0.00018168981,3.397141e-05,1.31919835e-08,8.426932e-06,5.0534167,4.390576,3.7165885,4.1794534,278.91327,282.9433,291.0209,284.91858,281.72665,287.15707,296.1599,288.47015,276.0404,278.71777,285.84293,281.3841
Blackpool,53.816669,-3.05,0.004445042,0.002981302,0.0027614823,0.004390811,0.00026299933,5.5086908e-05,1.4539211e-08,4.953307e-05,5.8678617,4.838389,4.155384,4.868428,278.74915,282.24585,289.87045,284.51636,281.27487,285.87213,294.00607,287.4873,276.1311,278.47037,285.47833,281.42007
Bochum,51.481651,7.21648,0.0038695133,0.0026178542,0.0028273035,0.0027833688,0.00028119652,6.78154e-05,1.4031366e-08,3.272853e-05,4.638266,3.7159934,3.306184,3.9088478,278.63577,284.51248,293.40237,286.02158,280.92462,288.73163,298.43628,289.55988,276.36414,280.17172,288.37958,282.7736
Bologna,44.493809,11.33875,0.0020629102,0.0017463232,0.0015822907,0.0025014933,0.00031397757,4.501787e-05,6.740585e-09,5.723342e-05,2.0918124,2.2604187,2.0030522,2.0324936,278.57465,287.30777,299.00494,289.1133,281.824,292.18515,304.50302,293.3079,275.7881,282.66483,293.6707,285.4959
Bonn,50.734379,7.09548,0.0028802007,0.0021851778,0.0023032997,0.0021087297,0.00021787704,5.4839118e-05,1.2291244e-08,2.4006793e-05,4.418647,3.5169468,3.070105,3.6947122,278.25067,284.49335,293.68988,285.917,280.69513,289.0015,299.1094,289.78162,275.85626,279.9216,288.32825,282.3948
Bordeaux,44.840439,-0.5805,0.0030168092,0.002479261,0.0015888741,0.0025755567,6.435372e-06,4.461698e-06,5.141571e-09,4.310933e-06,3.3340132,3.1396832,2.6015482,2.8254886,281.3848,286.68134,296.0562,289.03488,285.1645,291.86786,302.02792,294.1728,277.9159,281.65802,290.12662,284.51358
Bournemouth,50.720482,-1.8795,0.0035249812,0.0025442916,0.0015869889,0.0028743602,7.4567586e-05,7.847242e-06,9.318475e-10,2.0711364e-06,5.7654552,4.8483763,4.068488,4.7777367,279.95966,283.3853,291.39246,285.85785,282.7891,287.29996,295.9877,289.32037,276.95468,279.34857,286.63324,282.27838
Bradford,53.793911,-1.75206,0.0038189485,0.0026474933,0.0026028254,0.0033668228,0.00066497555,0.00018563124,1.4070075e-08,7.45356e-05,5.3014145,4.52292,3.8681035,4.3631864,278.31857,282.07028,289.98776,284.32312,280.74347,285.76007,294.47214,287.3127,275.866,278.39874,285.37082,281.33423
Braga,41.55032,-8.42005,0.005664873,0.0027019219,0.0010807086,0.004207643,8.0506425e-06,5.189285e-06,3.1472716e-09,3.181028e-07,2.9482572,3.0261426,2.7641454,2.6181173,282.88977,286.54758,294.2432,289.1737,287.3785,291.8474,300.24518,294.34967,279.02982,281.51544,288.48633,284.90118
Bratislava,48.148159,17.106741,0.001468495,0.0018188622,0.0018680723,0.0018143024,0.0002902319,5.4786047e-05,2.299692e-08,3.023662e-05,3.481836,3.380317,3.1697817,3.1972277,277.00314,285.8558,296.6166,286.86536,279.52502,290.82526,302.41315,291.22867,274.50436,280.76938,290.67392,282.9345
Braunschweig,52.265942,10.52673,0.002365494,0.0020372435,0.0024699161,0.0022323416,0.0002516377,5.1401137e-05,1.6312192e-08,3.6191617e-05,4.233316,3.4162261,3.2432907,3.6334388,277.99667,283.71426,292.84787,285.2346,280.4176,288.01062,297.78375,288.8574,275.55484,279.2542,287.85864,281.9234
Braşov,45.648609,25.606131,0.0017254751,0.0024359596,0.0029349301,0.0016696872,0.0011714046,0.00041573757,1.0546389e-08,0.0002884829,1.879457,1.8534117,1.670216,1.7031815,273.1657,282.79874,293.5174,284.38202,277.37308,288.83627,300.1927,290.5202,269.2122,276.75775,286.83597,278.98532
Breda,51.586559,4.77596,0.0029405132,0.002007809,0.002297291,0.0024743378,0.00011215376,2.6983937e-05,1.0737208e-08,1.705105e-05,4.9554768,4.0318823,3.5197377,4.0478907,279.15652,284.3322,292.92755,285.89435,281.92212,288.90756,298.1231,289.86838,276.37338,279.61285,287.55768,282.1024
Bremen,53.075161,8.80777,0.002991976,0.0021101325,0.0026165098,0.0023680306,0.00020053731,3.520965e-05,1.5930299e-08,3.7641745e-05,4.3431454,3.6384702,3.3953526,3.7579308,278.2197,283.75214,292.5441,285.3512,280.58307,288.11414,297.76752,289.0278,275.8034,279.24875,287.27344,281.95367
Brescia,45.52478,10.22727,0.0022364384,0.002477961,0.0025743155,0.0036675066,0.00052983337,0.00021522578,4.7525855e-06,0.00017925765,1.4588978,1.51739,1.3698275,1.4076872,276.4824,285.52985,296.807,286.78265,280.03198,290.40222,302.08762,290.85773,273.37424,280.6562,291.62454,283.1435
Brest,48.400002,-4.48333,0.0042421888,0.0028042553,0.001526892,0.0034234766,4.29082e-05,1.4095103e-06,5.286253e-09,5.5956702e-06,6.462894,5.5125256,4.3195796,5.0884433,281.49695,284.01263,291.23438,287.11798,283.88757,287.22974,294.96884,290.07236,278.92944,280.68268,287.52728,284.20892
Brighton,50.828381,-0.13947,0.0028933408,0.0020119282,0.0016415941,0.002647478,0.0001488809,2.1467973e-05,3.1857268e-09,7.169877e-06,5.337376,4.5485163,3.7890759,4.366372,279.7009,283.51736,291.63312,285.95953,282.3349,287.35922,295.99277,289.35208,276.94885,279.54657,287.06326,282.52362
Bristol,51.455231,-2.59665,0.0034355044,0.002725695,0.0019204399,0.0029637467,0.0001886161,2.9306748e-05,5.756905e-09,7.854627e-06,5.0147166,4.410524,3.682326,4.113612,279.1932,283.05273,291.2459,285.19592,281.92828,287.16348,295.96173,288.56873,276.33643,278.88687,286.3884,281.76834
Brno,49.195221,16.60796,0.0014162187,0.0016508406,0.0020487497,0.0017184846,0.00043980722,0.00013044328,1.0181796e-08,4.7646008e-05,3.3750727,3.2529724,2.9298923,3.0747857,275.85892,284.33466,294.8395,285.56177,278.16492,289.25046,300.6749,289.81787,273.5272,279.19824,288.80457,281.65884
Brugge,51.20892,3.22424,0.0031311198,0.0020078532,0.0025515084,0.0027698728,0.00010976666,2.188304e-05,1.1800028e-08,9.166976e-06,5.7623386,4.725119,4.0534377,4.7847643,279.19153,284.0749,292.43906,286.45096,281.47482,287.67087,296.4334,289.61856,276.89142,280.40518,288.19727,283.37674
Brussels,50.850449,4.34878,0.0029112564,0.002057269,0.0022064103,0.0021960656,0.000117230185,2.9285342e-05,1.0813382e-08,2.847522e-05,4.981271,4.011964,3.4799685,4.07457,279.1599,284.60593,293.3396,286.17145,281.8854,289.06326,298.5428,290.0834,276.44278,280.03192,288.01498,282.4466
Bucharest,44.432251,26.10626,0.0020601032,0.0018157935,0.0022080163,0.0015157086,0.0007068671,8.561985e-05,2.1507017e-08,7.7554265e-05,2.7541914,2.664203,2.2355278,2.4555209,276.1854,287.03485,299.00256,288.50055,279.83142,293.39072,306.14505,294.61478,272.69626,280.6527,291.83063,282.8765
Budapest,47.498009,19.039909,0.0012533101,0.0016414218,0.0016801665,0.0016163768,0.00024096206,3.8668855e-05,1.3010367e-08,5.3628617e-05,2.9070535,2.7656543,2.704198,2.736723,276.2427,285.72855,296.82056,286.86627,279.7619,291.6031,303.6096,292.4976,272.67548,279.65137,289.5604,281.7303
Burgos,42.349998,-3.7,0.0019003481,0.0018118027,0.00096328824,0.0017973032,0.00028079728,0.00011457419,8.5213166e-08,8.6126485e-05,3.2368479,3.0160706,2.6150877,2.8350437,278.35544,283.53784,293.79166,286.4075,282.67056,289.48523,301.73874,292.35114,274.32492,277.77322,286.41763,281.08636
Bydgoszcz,53.123501,18.00762,0.001865454,0.0014721928,0.0023221893,0.0015694968,0.00054462324,8.8743276e-05,1.6203604e-08,8.6421394e-05,3.9079,3.2920754,3.1555982,3.531585,276.61972,283.6597,293.2949,284.93762,278.73746,288.09885,298.22894,288.59875,274.35648,278.83786,287.92795,281.3523
Cagliari,39.207378,9.13462,0.0025356913,0.00163149,0.00019650564,0.0021910889,1.4221785e-05,3.8919916e-07,1.8352075e-10,1.1559166e-08,3.329364,3.1460075,2.6732068,2.8342495,284.4387,288.5008,299.36124,293.43506,288.2007,292.94965,304.52878,297.71198,281.14517,284.39847,294.39227,289.7146
Cambridge,52.200001,0.11667,0.002094155,0.0016890984,0.0017355627,0.0019924447,0.00015279466,1.4586151e-05,8.617095e-09,7.008051e-06,5.3401966,4.5406213,3.7957215,4.397854,279.041,283.37048,291.3491,285.30804,281.91257,287.7597,296.53787,289.0166,276.11658,278.96866,286.11212,281.67368
Cardiff,51.48,-3.18,0.004190735,0.0030494092,0.002177536,0.003600624,0.00025625454,5.2209798e-05,4.8481423e-09,2.0756843e-05,5.1299424,4.4737043,3.7591767,4.212019,279.2577,282.89276,290.93134,285.16,281.94614,286.88394,295.50427,288.46085,276.45102,278.8558,286.1988,281.79376
Cartagena,37.605122,-0.98623,0.0008360879,0.00047636608,0.00023072478,0.0011297518,3.6632215e-07,2.2743855e-07,1.3852155e-09,7.7987494e-08,3.9941802,4.0480814,3.6854222,3.888326,286.31595,290.22488,299.29517,294.37515,289.98166,293.82233,302.62805,297.74774,283.3403,286.58978,295.86276,291.45032
Catania,37.502129,15.08719,0.0020979496,0.0009375998,0.00020472868,0.0019847834,5.679602e-05,7.3018427e-06,8.5153007e-10,5.5232987e-09,2.4040313,2.1828697,1.640527,1.7201369,284.73816,288.89307,300.37772,294.182,287.39502,292.25598,304.3306,297.3415,282.3496,285.71686,296.38202,291.47028
Chemnitz,50.833328,12.91667,0.0022231778,0.0022825787,0.0031151779,0.0023871183,0.0006017259,0.00015359068,2.5263109e-08,9.5745185e-05,4.125473,3.2284534,2.9427006,3.4207606,276.57825,283.89804,293.82748,285.02127,279.04636,288.7532,299.4837,289.10956,274.1375,278.97992,288.1174,281.25296
Chişinău,47.005562,28.8575,0.0013891099,0.0016045037,0.0017296413,0.0016471408,0.0006293557,0.0001360285,1.23602035e-08,0.00013905423,3.2175276,3.0732343,2.8129404,3.026444,275.12048,285.4467,297.70953,286.9322,277.56104,290.2497,303.1275,291.3732,272.48642,280.5034,291.94913,282.66788
Clermont-Ferrand,45.779659,3.08628,0.002286316,0.0022787491,0.0024041142,0.0028710843,0.00029525513,0.0001145876,5.0468437e-08,7.913612e-05,3.2371535,2.9524312,2.2989812,2.783073,277.10867,283.14038,293.4925,285.24542,281.06122,288.82883,300.16125,290.35272,273.48932,277.56882,286.80798,280.67563
Cluj-Napoca,46.76667,23.6,0.001620813,0.0021509812,0.0025071478,0.0019947118,0.00072860834,0.00022288415,1.3652898e-08,0.00016424668,1.9866024,2.1059043,1.9022686,1.8958242,273.50977,283.5639,294.1358,284.93008,277.1492,289.19122,300.47357,290.6682,269.81342,277.76367,287.50946,279.87268
Coimbra,40.205639,-8.41955,0.0035486193,0.0015237348,0.00070729444,0.0025872728,9.75704e-07,1.5175773e-07,2.9285636e-09,1.176555e-08,3.218131,3.3410962,3.185825,2.8913076,284.8645,288.55194,296.52655,291.298,289.52167,294.37094,303.40778,296.9787,280.95712,283.24042,290.39587,286.84247
Como,45.809978,9.08744,0.0028378598,0.00411433,0.0041832137,0.005728766,0.0014192137,0.0009841409,3.3408265e-05,0.0005950479,1.3946038,1.3857125,1.2466471,1.2285745,275.2902,282.40475,293.49677,284.32657,278.49057,286.71613,298.5253,288.04593,272.42194,278.10992,288.48068,281.01392
Constanţa,44.183331,28.65,0.0011820615,0.0010940946,0.0013139194,0.0016503079,0.00025918108,5.660399e-05,5.9411294e-09,3.3386208e-05,4.3634825,3.6400933,3.180107,3.6210182,277.61777,286.46985,298.2304,289.07135,280.7368,291.05606,303.32553,293.47925,274.5263,281.95435,293.0986,285.02878
Copenhagen,55.675941,12.56553,0.0021184958,0.0016684581,0.0023962916,0.0022034608,0.00026873325,5.756731e-05,8.301844e-09,3.3669516e-05,5.4370847,4.679948,4.2970266,4.9255905,276.9846,282.5871,291.8709,284.6842,279.02084,286.08936,295.85028,287.44824,274.70105,278.79926,287.26886,281.8415
Cork,51.897968,-8.47061,0.0045640967,0.0034337007,0.0023238345,0.004009424,0.0001414845,7.657232e-06,7.2087816e-09,1.021888e-06,5.1824613,4.5743413,3.6799045,4.3802347,279.907,282.51968,289.69794,284.92215,282.50162,286.0779,293.53076,287.92682,277.31216,279.0146,285.7702,281.95312
Coventry,52.406559,-1.51217,0.0024782573,0.0021114314,0.0020690334,0.0022870991,0.00018491683,2.8882587e-05,1.3028095e-08,1.1568667e-05,5.2821355,4.554717,3.8645585,4.381957,278.9578,283.09866,291.21448,285.0582,281.83173,287.39832,296.4547,288.66794,276.05075,278.8288,285.95966,281.4775
Córdoba,37.883331,-4.76667,0.0016676027,0.00086586893,0.00029375945,0.001491369,7.267567e-07,6.4946434e-08,1.3348599e-09,1.5206044e-07,2.4890702,2.4959805,2.3807569,2.272078,283.18738,290.26105,301.60687,292.57285,289.40234,298.1328,310.3942,299.57925,277.9047,282.39032,292.46973,286.14755
Debrecen,47.533329,21.633329,0.0012654071,0.0016290864,0.0017051566,0.0016231167,0.00019447389,2.0505442e-05,6.5646306e-09,4.5463e-05,2.7630053,2.7035336,2.4924073,2.5582662,276.13974,286.2232,297.21045,287.35864,279.36438,291.8396,303.6402,292.71597,272.89957,280.55383,290.53513,282.58832
Derby,52.922771,-1.47663,0.002814109,0.002256337,0.0022366703,0.0026366706,0.00033368415,8.2062026e-05,1.2821998e-08,2.426977e-05,5.342386,4.602364,3.9258404,4.4368525,278.66412,282.65628,290.69983,284.70825,281.31033,286.67334,295.60773,288.01526,275.9956,278.6931,285.75797,281.44443
Dijon,47.316669,5.01667,0.0028097352,0.0025438073,0.002210352,0.0024782624,0.00016320647,3.3403696e-05,1.7135346e-08,4.3220138e-05,3.6419113,3.264899,2.7851465,3.1374764,278.19827,285.14185,295.334,286.33673,281.21454,290.16983,301.41434,290.7524,275.22348,280.07532,289.24753,282.33597
Donostia / San Sebastián,43.312832,-1.97499,0.004535077,0.0036494113,0.0019990264,0.0041893283,3.9752325e-05,1.389307e-05,2.1143652e-08,1.2790197e-05,4.966202,4.123772,3.331086,4.1505556,283.77933,286.8089,295.28024,290.56598,286.5635,290.1219,298.90305,293.78546,281.20978,283.57263,291.79803,287.64597
Dortmund,51.514938,7.466,0.0040279333,0.0026585513,0.002824408,0.0028632912,0.00038104103,8.83476e-05,1.2748086e-08,4.762599e-05,4.626747,3.6911244,3.2899852,3.8998837,278.22025,284.19586,293.12872,285.6578,280.51468,288.43225,298.18622,289.20245,275.9331,279.82883,288.07526,282.41132
Dresden,51.050892,13.73832,0.0023701878,0.0023710055,0.0032343525,0.0023596925,0.00069534965,0.00018559599,2.0392708e-08,0.00010036182,3.8582084,3.0992274,2.8333015,3.2073598,276.49246,284.05527,294.09528,285.17545,278.9836,288.98062,299.7212,289.22787,274.00348,278.97467,288.31262,281.37625
Dublin,53.333061,-6.24889,0.0034094395,0.0029775738,0.002092389,0.003382837,0.00016616582,1.8662837e-05,7.712538e-09,3.4508423e-06,5.3081403,4.565484,3.7375407,4.4974213,279.59567,282.46497,289.7956,284.80615,282.27585,286.09515,294.0611,287.9273,277.0132,278.97186,285.5384,281.73227
Duisburg,51.432468,6.76516,0.0032173449,0.002227701,0.0024508329,0.0023472297,0.00016883489,2.9572937e-05,1.1554526e-08,1.21136645e-05,4.545897,3.6712677,3.2626412,3.8188949,279.06912,284.7536,293.62433,286.26895,281.46536,289.1242,298.8388,289.97852,276.70554,280.30597,288.4571,282.84747
Düsseldorf,51.221722,6.77616,0.0033053244,0.0023076774,0.002552765,0.0023523578,0.00017685519,3.368839e-05,1.2356743e-08,1.3101671e-05,4.534921,3.6447093,3.2284572,3.8106983,279.114,285.0369,294.02075,286.54303,281.49393,289.40848,299.27078,290.26996,276.77582,280.6087,288.8686,283.12524
Eastbourne,50.768711,0.28453,0.003315352,0.0020187309,0.0017393089,0.002962709,0.00015430701,1.9958197e-05,5.7466205e-11,9.794179e-06,5.6003633,4.7195034,3.946301,4.567462,280.46664,283.81268,291.79572,286.69116,282.6721,286.9883,295.23648,289.45523,278.1445,280.49518,288.11978,283.85083
Edinburgh,55.952061,-3.19648,0.0029249862,0.002321133,0.0020491786,0.0030448432,0.00044698,0.00010619516,8.814016e-09,7.63489e-05,5.2816024,4.5173063,3.7234447,4.3222175,277.93915,281.46014,288.87704,283.5913,280.53256,285.2063,293.36996,286.69763,275.2511,277.6637,284.2694,280.4803
Eindhoven,51.44083,5.47778,0.003000159,0.0020209106,0.0022723102,0.0022221503,0.00011040108,2.632869e-05,1.0081008e-08,1.9330379e-05,4.736082,3.8207805,3.367003,3.8848126,278.99182,284.40128,292.9767,285.78778,281.83078,289.15228,298.52634,289.9544,276.15686,279.50626,287.32037,281.8592
Elche,38.26218,-0.70107,0.0004881399,0.0005139912,0.00021023215,0.0010721807,1.9854963e-06,1.8056314e-06,2.0533795e-09,2.2367358e-08,2.7082922,2.6417136,2.4490266,2.43804,285.8818,291.12585,301.21042,294.45978,292.22397,297.78986,307.594,300.48175,280.61697,284.72745,294.99286,289.23444
Erfurt,50.978699,11.03283,0.0021724515,0.0021301224,0.0024255873,0.0023337095,0.0004491753,9.972829e-05,1.6982678e-08,6.343996e-05,4.0041137,3.2340236,2.9113507,3.368817,276.5181,283.19693,292.84784,284.55444,278.9602,287.7505,298.06073,288.43512,274.11334,278.5091,287.53595,281.0083
Espoo,60.2052,24.652201,0.0029030943,0.0015744462,0.002709033,0.0027285882,0.0016655099,0.00037014048,6.5081394e-08,0.0003454179,4.321123,3.5521083,3.282779,3.8517518,272.80472,279.57947,291.40265,281.2495,274.79495,283.974,296.21127,284.2767,270.51373,274.62314,285.69012,278.023
Essen,51.45657,7.01228,0.0035434288,0.0024227775,0.0026390685,0.0025652992,0.0002250157,4.869417e-05,1.2792947e-08,2.2421098e-05,4.592082,3.6936307,3.2844124,3.8638706,278.85248,284.63306,293.51337,286.14526,281.19504,288.92798,298.63754,289.76923,276.53485,280.23886,288.41833,282.8105
Ferrara,44.826778,11.62071,0.0017699103,0.0015716335,0.0017010976,0.0023852093,0.00015584052,5.2476687e-05,1.661933e-08,2.4927407e-05,2.0194337,2.1645343,1.9199921,1.9835794,278.599,288.28033,299.8332,289.49554,282.2519,293.47607,305.5281,293.99884,275.52972,283.3111,294.36157,285.62006
Firenze,43.76667,11.25,0.002540362,0.0019390176,0.0013573964,0.0032930498,0.00029246768,3.569971e-05,2.1745223e-09,3.0519248e-05,2.1361563,2.0556674,1.672733,1.8889757,279.6754,286.5738,297.87433,289.0851,283.01535,291.46677,303.82275,293.51114,276.61316,281.69754,291.81543,285.10245
Frankfurt am Main,50.11552,8.68417,0.002333622,0.0021001243,0.0022733533,0.0022333867,0.00021176081,5.3959444e-05,1.2694569e-08,1.734518e-05,3.5955706,3.0386472,2.6715837,2.985797,277.4025,284.7741,294.49384,285.68216,280.12405,289.84448,300.34445,289.87878,274.80786,279.6624,288.7011,281.91486
Freiburg,47.995899,7.85222,0.0036188697,0.0031292513,0.0029718953,0.0033870887,0.0006857192,0.00019992069,1.7978222e-06,7.894083e-05,2.7959418,2.4197538,2.044495,2.2314086,276.54434,283.63174,293.90317,284.9915,279.11145,288.28436,299.6259,288.93796,274.13773,279.1286,288.27988,281.58633
Gdańsk,54.352051,18.64637,0.002521833,0.0016062602,0.0026758122,0.0021810248,0.00065701216,0.00016046068,1.01663415e-08,9.2466624e-05,5.358061,4.29914,4.0567083,4.718608,275.89175,282.81268,292.13263,284.27194,277.99295,286.5033,296.17252,287.4056,273.59912,278.56064,287.358,281.12772
Gdynia,54.51889,18.531879,0.002521833,0.0016062602,0.0026758122,0.0021810248,0.00065701216,0.00016046068,1.01663415e-08,9.2466624e-05,5.358061,4.29914,4.0567083,4.718608,275.89175,282.81268,292.13263,284.27194,277.99295,286.5033,296.17252,287.4056,273.59912,278.56064,287.358,281.12772
Gelsenkirchen,51.5075,7.12283,0.0035434288,0.0024227775,0.0026390685,0.0025652992,0.0002250157,4.869417e-05,1.2792947e-08,2.2421098e-05,4.592082,3.6936307,3.2844124,3.8638706,278.85248,284.63306,293.51337,286.14526,281.19504,288.92798,298.63754,289.76923,276.53485,280.23886,288.41833,282.8105
Gent,51.049999,3.71667,0.0028329745,0.0018590773,0.0023077296,0.0024130808,0.00014260622,2.3657205e-05,9.149012e-09,1.7867618e-05,4.9611683,4.082591,3.483102,4.0770154,278.83252,284.2832,292.8393,286.17487,281.3416,288.4768,297.60294,289.75757,276.35934,280.02948,287.85977,282.74097
Gijón,43.535728,-5.66152,0.0036104806,0.00318653,0.00158984,0.003959433,0.0003250272,0.00012430173,6.60438e-07,3.159699e-05,2.8005145,2.6420896,2.1998348,2.3816314,281.87466,285.35376,294.01987,288.48883,286.0823,290.34686,299.68875,293.4501,277.96597,280.25778,288.35452,283.89078
Glasgow,55.86515,-4.25763,0.005989729,0.004009409,0.0027996013,0.005632949,0.0010218676,0.00028672343,7.719769e-09,8.954511e-05,4.4680867,3.963091,3.2387397,3.6827388,277.14624,280.71448,288.12042,282.8045,279.32123,284.253,292.31424,285.50055,274.8426,277.04147,283.6522,280.03345
Granada,37.188171,-3.60667,0.0015208188,0.00074962736,0.00023402697,0.0012981616,0.000115889176,2.3178507e-05,6.1652183e-10,8.862258e-06,1.6279708,1.7286885,1.5776793,1.609095,281.89865,288.0167,299.31372,290.87225,287.7677,294.49176,306.4235,297.10913,276.9233,281.01306,291.1371,285.11035
Graz,47.066669,15.45,0.0017069906,0.002455672,0.0036612195,0.0026804775,0.0009355793,0.0003490821,3.3154222e-06,0.00017100917,1.8471638,2.0361738,1.6408478,1.6336138,274.91946,283.77542,294.27866,284.94446,278.1893,289.21124,300.13913,289.81012,271.95767,278.4759,288.43692,280.72183
Grenoble,45.166672,5.71667,0.003131921,0.0027830845,0.0021553582,0.003534405,0.0012328939,0.00045008244,1.3176948e-06,0.00032100693,1.658025,1.7224928,1.7319553,1.6116682,276.21088,282.28876,293.35516,284.58478,279.26334,286.78995,298.8017,288.38983,273.32385,277.56262,287.4417,281.0387
Groningen,53.21917,6.56667,0.0032758808,0.0020868082,0.0027684362,0.0029119777,0.00021943402,2.4055185e-05,2.9311436e-09,5.0030494e-06,5.363078,4.5404058,4.0263824,4.535016,278.40045,283.3637,291.50174,285.21893,280.9211,287.59448,296.37265,289.00223,275.81677,278.9359,286.2811,281.66922
Göteborg,57.707161,11.96679,0.0035898613,0.0024611633,0.0030401563,0.0034201976,0.0006854931,0.00017872159,8.66889e-09,4.9542323e-05,4.4099193,3.7956345,3.4445775,4.1370525,276.1151,281.48053,291.18173,283.49365,278.02557,285.0307,295.1087,286.17828,273.91025,277.64612,286.62946,280.70993
Haarlem,52.38084,4.63683,0.0034891313,0.0021653888,0.0027601128,0.0035209141,0.000112997666,1.8775203e-05,5.5788654e-09,6.2578592e-06,7.2900286,5.7885523,4.886592,6.0206313,279.42215,283.58087,291.3474,286.3731,281.332,286.561,294.5438,288.9623,277.42566,280.41934,287.7271,283.78503
Hagen,51.360809,7.47168,0.0040279333,0.0026585513,0.002824408,0.0028632912,0.00038104103,8.83476e-05,1.2748086e-08,4.762599e-05,4.626747,3.6911244,3.2899852,3.8998837,278.22025,284.19586,293.12872,285.6578,280.51468,288.43225,298.18622,289.20245,275.9331,279.82883,288.07526,282.41132
Hamburg,53.575321,10.01534,0.003008107,0.002220429,0.0026953479,0.0024869125,0.00028524015,6.2776686e-05,1.2679253e-08,4.1817675e-05,4.40375,3.726165,3.5426757,3.8562691,278.0782,283.39734,292.45737,285.21844,280.34436,287.47372,297.268,288.6498,275.72342,279.16168,287.48407,282.01843
Hannover,52.370522,9.73322,0.0028497586,0.00210974,0.0024483535,0.0022399675,0.00024654882,5.715223e-05,1.3290692e-08,4.4085344e-05,4.2504497,3.4987931,3.2826195,3.6479697,277.942,283.65363,292.5776,285.16208,280.38013,288.0906,297.88736,288.9167,275.45517,279.03583,287.21103,281.7224
Harrogate,53.99078,-1.5373,0.0029194644,0.0021321294,0.0021874625,0.0027098241,0.00045225432,9.730571e-05,8.09763e-09,5.9851114e-05,5.315533,4.5222616,3.7672513,4.321223,278.14685,281.99423,289.7579,284.17838,280.73453,285.80026,294.32895,287.35895,275.52698,278.15524,284.99127,280.9895
Heidelberg,49.407681,8.69079,0.0022250183,0.002195298,0.0023644033,0.0023148705,0.00022197212,5.3668646e-05,1.245647e-08,2.0232383e-05,3.5373077,2.9585488,2.5838063,2.8936925,277.69446,285.26022,295.31537,286.14105,280.6006,290.48807,301.32727,290.53702,274.93167,280.0286,289.40472,282.24875
Helsinki,60.169521,24.93545,0.0028805472,0.0015127923,0.0024374898,0.0029392526,0.0015140243,0.00029725063,2.8539535e-08,0.00028079477,5.759672,4.4515657,4.200087,5.264117,273.54187,278.81,291.24762,282.2666,274.96036,281.74222,294.31253,284.36703,271.93616,275.51556,287.6778,280.02176
Hoofddorp,52.302502,4.68889,0.0034891313,0.0021653888,0.0027601128,0.0035209141,0.000112997666,1.8775203e-05,5.5788654e-09,6.2578592e-06,7.2900286,5.7885523,4.886592,6.0206313,279.42215,283.58087,291.3474,286.3731,281.332,286.561,294.5438,288.9623,277.42566,280.41934,287.7271,283.78503
Hull,53.744598,-0.33525,0.0020673806,0.0017171884,0.0018519623,0.0021561505,0.0001613851,2.2140037e-05,4.30824e-09,4.211979e-06,5.6951365,4.8890557,4.115597,4.8000336,278.8709,282.8282,290.74112,285.0497,281.5056,286.6791,295.4746,288.3371,276.23273,279.02887,285.94818,281.8316
Innsbruck,47.262661,11.39454,0.0031306602,0.003252831,0.005276574,0.004184623,0.0026834847,0.0017425406,0.00012446442,0.0009587937,1.3574135,1.282775,1.07478,1.2076547,271.83728,278.15717,289.43646,281.0071,274.74158,282.0164,294.1684,284.54755,268.83304,274.3111,284.91266,277.9316
Jerez de la Frontera,36.686451,-6.13606,0.0024446042,0.00080006756,0.00016387693,0.001924843,1.4835929e-07,1.9822847e-08,1.3630294e-10,1.17198226e-07,3.5461118,3.5469322,3.424874,3.354562,286.3964,291.28223,299.76,294.2447,291.624,297.34656,305.94543,299.69867,281.86035,285.33627,293.59213,289.4792
Kaliningrad,54.70649,20.51095,0.0028426154,0.001674621,0.0029955849,0.0027911975,0.00063778064,0.00011613434,1.12080745e-08,6.365149e-05,4.362861,3.5713322,3.3907242,3.9459674,275.30615,282.349,292.51752,284.0238,277.1886,286.29764,296.73853,287.14676,273.24158,278.03903,287.84006,280.9237
Karlsruhe,49.004719,8.38583,0.002747926,0.002553465,0.0025247901,0.002732636,0.00034907323,8.5012085e-05,1.3394844e-08,3.9277547e-05,3.4758902,2.8798628,2.4846175,2.7854805,277.46725,284.8192,295.0452,285.91345,280.31982,289.89032,301.00818,290.2871,274.7137,279.75793,289.17746,282.05206
Kassel,51.316669,9.5,0.0030304382,0.0022647302,0.002482723,0.0025343196,0.00038149056,7.535184e-05,9.158605e-09,5.6398258e-05,4.072949,3.3053741,2.9613636,3.472406,276.36682,282.78058,292.16235,284.23904,278.59155,287.07294,297.22678,287.81635,274.16788,278.35797,287.09204,280.9756
Katowice,50.258419,19.02754,0.0024638977,0.002463387,0.002627091,0.0021770475,0.0008394212,0.00020688407,1.6302094e-08,0.00012689245,3.9601183,3.2054977,2.8046582,3.3268847,276.14667,283.94305,293.86185,285.36298,278.66986,289.0685,299.49268,289.85352,273.4411,278.60443,287.8768,281.17743
Kaunas,54.900002,23.9,0.002115667,0.0018323727,0.0025550523,0.0019819434,0.0007227004,0.000147426,1.6392342e-08,0.00010244595,3.915239,3.3290527,3.061727,3.6051407,274.19235,282.3231,292.99338,282.97006,275.9442,286.88397,298.09036,286.43655,272.24536,277.35077,287.35883,279.48404
Kiel,54.321331,10.13489,0.0031099303,0.0022362897,0.0028896413,0.0029246262,0.00024281713,7.483519e-05,9.485918e-09,3.0625757e-05,5.002925,4.305984,4.1222963,4.5064483,277.87674,282.9793,291.71863,285.11435,279.8787,286.4012,295.71274,287.92642,275.7594,279.40457,287.41772,282.4008
Kiev,50.454659,30.5238,0.0014510091,0.0015663409,0.0020635207,0.0019363484,0.0006703998,0.00016680406,1.1271832e-08,0.00024888632,3.8937697,3.4238293,3.133053,3.6235409,274.19095,284.5943,296.4941,284.8619,275.9596,289.0923,301.46564,288.72162,272.2371,279.77316,291.0511,281.06635
Košice,48.713951,21.25808,0.0016381778,0.00223339,0.0025572581,0.0020630793,0.0007744145,0.00013833705,2.9377338e-08,0.00014339718,2.4437497,2.502431,2.2403755,2.1642811,273.82507,283.1926,293.58206,284.45697,276.2509,288.52768,299.67905,289.41345,271.44055,277.7806,287.14267,279.85867
Kraków,50.061432,19.936581,0.0020872906,0.0026776528,0.002942096,0.0022161987,0.00093551236,0.0004080452,1.7424266e-08,0.00017635178,3.3855543,2.8397205,2.5197291,2.832931,274.78073,282.98505,293.12564,284.44037,277.54358,288.2597,299.04987,289.29608,271.84473,277.5116,286.8716,279.91028
Krasnodar,45.044842,38.976028,0.0030444139,0.0023264214,0.0017502423,0.002119271,0.00031891215,9.075519e-05,1.3336782e-08,5.0232484e-05,4.022309,3.3316274,2.8330657,3.3121727,277.97925,286.88922,299.77625,289.5202,281.08044,291.16748,304.47025,293.8502,274.94406,282.45343,294.82678,285.53366
Krefeld,51.339211,6.58615,0.0031520731,0.0021677427,0.002361737,0.002286676,0.00015660304,2.5723182e-05,1.2498097e-08,1.5918651e-05,4.5565906,3.6784968,3.2721527,3.8137996,279.08163,284.68854,293.5452,286.18292,281.56485,289.1845,298.87225,290.02985,276.6177,280.10828,288.24213,282.61517
Köln,50.933331,6.95,0.0033745156,0.002386913,0.0025627099,0.0024282178,0.0002474494,5.921187e-05,1.2812234e-08,2.7605867e-05,4.5098248,3.600881,3.1647735,3.7884803,278.58075,284.6867,293.77234,286.1506,280.9661,289.08054,299.0534,289.89044,276.2393,280.2233,288.55957,282.7365
L'viv,49.838261,24.023239,0.001734143,0.0021186264,0.00261249,0.001902028,0.0006851229,0.00020048504,1.705207e-08,0.00015327682,4.041846,3.4387977,2.9248133,3.5396552,274.3995,283.74323,294.2278,284.75574,276.61154,288.54388,299.61597,289.18948,271.93643,278.65936,288.5234,280.58777
La Spezia,44.110538,9.84339,0.003221619,0.0021557373,0.0013486769,0.0046548853,0.0001296743,4.3936474e-05,2.0368051e-07,6.3860476e-05,2.8865025,2.511581,1.9829859,2.5440812,281.14807,286.36578,296.98343,289.6457,283.68918,289.69147,300.68103,292.6607,278.85837,283.04175,293.17676,286.9062
Lausanne,46.515999,6.63282,0.0051885764,0.0042260895,0.00318629,0.004138189,0.0018606876,0.0008498719,1.9542842e-05,0.00037981296,2.0863552,1.8881159,1.6295372,1.8132788,275.7572,282.72467,292.92282,284.22845,278.22232,287.4954,299.08768,288.35718,273.4413,278.0848,286.81317,280.56934
Le Havre,49.493801,0.10767,0.0034437692,0.0023499122,0.0020979573,0.0027803297,7.222794e-05,1.0995711e-05,1.9315241e-08,8.383034e-06,5.8501573,4.8366737,4.072324,4.889252,280.78677,284.37805,292.5995,287.3407,283.0365,287.54193,296.25287,290.4309,278.5211,281.22656,288.89703,284.40436
Le Mans,48.0,0.2,0.0031612369,0.0023199578,0.0017285967,0.0022134555,5.469022e-05,1.1509685e-05,8.487098e-09,2.1445635e-06,4.1456013,3.6807435,3.10413,3.4022775,279.8237,284.94348,294.1051,286.86472,282.86136,289.72226,299.90494,291.45575,276.78836,280.13327,288.18524,282.49445
Lecce,40.357029,18.17202,0.0019381039,0.0013684176,0.0004983322,0.0027052923,3.3724943e-06,4.285153e-07,4.3560187e-09,5.86098e-08,4.0445504,3.5380447,3.1130328,3.427959,284.1441,289.6114,301.2077,293.76086,287.63736,294.1911,306.48007,298.30182,280.80557,285.19696,295.84512,289.83643
Leeds,53.796478,-1.54785,0.0029227426,0.0022175584,0.0022418555,0.0026599958,0.00044710495,0.00011491483,1.05923075e-08,5.399231e-05,5.253679,4.5014153,3.8387656,4.3435564,278.4989,282.35223,290.27957,284.53174,281.05386,286.18048,294.94193,287.6918,275.93906,278.5499,285.495,281.40326
Leicester,52.638599,-1.13169,0.0022579615,0.0019367794,0.00189145,0.0021065383,0.00017901859,1.8920422e-05,1.1554514e-08,1.3124571e-05,5.424175,4.6424723,3.942222,4.504327,278.85086,283.09253,291.19537,285.0229,281.77,287.5147,296.5876,288.7613,275.8971,278.71118,285.8129,281.34125
Leipzig,51.339619,12.37129,0.0017472531,0.001719278,0.0022711838,0.0018398488,0.00027054586,5.8710797e-05,1.4718395e-08,3.4430785e-05,4.068548,3.2380624,2.992503,3.416987,277.44202,284.57874,294.3457,285.6489,279.93918,289.4399,299.97736,289.7458,274.98935,279.6482,288.69684,281.89307
Leuven,50.879589,4.70093,0.0028601014,0.0020572126,0.002178044,0.0021236392,0.00011043533,2.4112695e-05,1.028386e-08,3.112086e-05,4.935185,3.9558682,3.4353414,4.0338826,278.99408,284.5752,293.37268,286.11005,281.74304,289.1475,298.70526,290.08694,276.25305,279.85736,287.91736,282.3204
Leverkusen,51.0303,6.98432,0.0033745156,0.002386913,0.0025627099,0.0024282178,0.0002474494,5.921187e-05,1.2812234e-08,2.7605867e-05,4.5098248,3.600881,3.1647735,3.7884803,278.58075,284.6867,293.77234,286.1506,280.9661,289.08054,299.0534,289.89044,276.2393,280.2233,288.55957,282.7365
Lille,50.632969,3.05858,0.0029880106,0.0020412481,0.0022778348,0.0024714903,0.000113244074,2.0257086e-05,1.14066925e-08,1.9710442e-05,4.908264,4.07565,3.4263186,4.0090666,278.90775,284.19168,292.52484,286.01923,281.45355,288.4088,297.44205,289.74716,276.39224,279.87994,287.40085,282.4311
Limoges,45.831532,1.2578,0.003397891,0.0028633259,0.0021503079,0.0030686737,6.577917e-05,1.6762624e-05,1.5885671e-08,2.2581435e-05,3.7810295,3.2798316,2.6530583,3.2050908,279.40198,285.1502,295.17548,287.21198,282.94772,290.51535,301.74225,292.42706,276.1017,279.8964,288.58237,282.4693
Lisbon,38.716671,-9.13333,0.002106246,0.00089212274,0.00028278326,0.0020300185,1.5396243e-07,5.40296e-09,6.104568e-10,1.740478e-09,3.6609037,3.9678593,4.1620884,3.5033703,286.2369,289.97882,297.5357,292.75128,290.2625,295.17093,303.56207,297.49228,282.82962,285.37054,292.47235,288.9928
Liverpool,53.41058,-2.97794,0.0033403842,0.0024463031,0.0025059704,0.0033421244,0.00014030933,3.7635964e-05,1.1036038e-08,1.9386935e-05,5.5632863,4.6977873,4.0312743,4.6024213,278.9775,282.50073,290.26352,284.75644,281.5171,286.17468,294.5055,287.81445,276.34192,278.75287,285.87817,281.6479
Livorno,43.542641,10.316,0.0023122588,0.0015511643,0.0010148354,0.0033014026,2.8299459e-05,4.809638e-06,3.065771e-09,4.115656e-06,2.8438692,2.4687283,1.9706564,2.472054,281.6858,287.67865,298.6791,290.6741,285.32904,292.44714,304.2442,295.10382,278.32574,282.8212,292.9096,286.57394
Liège,50.633732,5.56749,0.0034218566,0.002510997,0.0024845824,0.0023661915,0.00029110454,6.836143e-05,1.5697418e-08,5.1247487e-05,5.032121,3.9670882,3.4279397,4.1343164,278.13113,284.00027,292.94196,285.52728,281.24313,288.90002,298.74545,289.95905,275.0852,278.97076,287.02338,281.32922
Ljubljana,46.051079,14.50513,0.0033887206,0.0036882223,0.0038747764,0.0052375845,0.00096090866,0.0003379364,4.547949e-06,0.00015066014,1.9751961,1.9678694,1.5733986,1.7894789,275.44882,283.44754,294.1406,285.19586,278.7772,288.58444,300.2968,289.89645,272.1885,278.4378,288.25815,281.02982
London,51.50853,-0.12574,0.0024357869,0.0018784797,0.0016029403,0.0023378707,0.00017616358,2.4408055e-05,6.062552e-09,1.2988523e-05,5.157184,4.4385056,3.708842,4.2142286,279.13168,283.3713,291.58972,285.4073,282.0306,287.80936,296.78995,289.24533,276.15018,278.89032,286.28812,281.6027
Lublin,51.25,22.566669,0.0020390404,0.0021566288,0.0021584586,0.0018615866,0.0007220571,0.0002354364,8.172877e-09,0.000174382,3.7619445,3.1955361,2.8013473,3.3251927,275.21423,283.63712,293.9253,284.52606,277.47034,288.5412,299.26694,288.58258,272.70047,278.36026,288.1728,280.57233
Lucca,43.843571,10.50585,0.002918447,0.0019349698,0.0014503427,0.0038667768,0.00030688173,6.0384744e-05,4.0205914e-09,0.00010916246,2.0314307,1.8968916,1.55144,1.8106802,278.94525,285.07895,296.21997,287.95782,282.16116,289.35986,301.10638,291.80655,276.0815,280.84845,291.26123,284.51227
Luimneach,52.664719,-8.62306,0.0044670315,0.003364283,0.0022486693,0.0039346786,0.00017434635,1.3246233e-05,1.5148322e-08,9.592251e-07,4.5442896,4.060275,3.3659885,3.888602,279.46042,282.33673,289.57477,284.57062,282.20468,286.13416,293.7446,287.77603,276.73776,278.6624,285.34076,281.4135
Luton,51.879669,-0.41748,0.0021999264,0.0019215634,0.0017054519,0.0021736568,0.0001632766,2.481653e-05,9.644685e-09,5.4839625e-06,5.21512,4.4731607,3.7768855,4.304336,279.01303,283.28647,291.4648,285.26056,281.8957,287.7451,296.7624,289.01654,276.0758,278.84265,286.14966,281.56448
Lyon,45.748459,4.84671,0.0022993614,0.0023831357,0.001999857,0.0031276387,0.00017457789,3.655727e-05,5.900701e-09,4.2773267e-05,2.731834,2.7747388,2.42179,2.5094597,278.48224,285.53668,296.32993,287.14096,281.80304,290.83466,302.7094,291.64932,275.3881,280.27963,289.97812,283.0343
Lübeck,53.868931,10.68729,0.003018137,0.0022800148,0.0028390659,0.0026307232,0.00025440764,7.136617e-05,1.2203669e-08,3.7983344e-05,4.8856273,4.115643,3.9674504,4.3593717,278.2073,283.1891,292.24545,285.4151,280.22263,286.60175,296.22098,288.2734,276.09198,279.60767,288.04526,282.73523
Maastricht,50.848331,5.68889,0.003009849,0.0021834415,0.00234017,0.0021550201,0.00013063205,3.822714e-05,1.1890377e-08,3.0177345e-05,4.801231,3.8091502,3.3338623,3.9378154,278.78827,284.52744,293.285,285.99484,281.66605,289.251,298.87552,290.2082,275.94168,279.67065,287.6291,282.0146
Madrid,40.4165,-3.70256,0.0014756329,0.0010668522,0.00056568254,0.0016862892,0.00019155651,6.0255534e-05,5.9734964e-09,9.256358e-05,2.1636465,2.4140687,2.309638,2.1086464,280.3446,286.84357,299.17438,289.3145,285.7913,293.52887,307.13016,295.51993,275.6136,280.0513,290.78006,283.65582
Magdeburg,52.127731,11.62916,0.0018293223,0.0017282255,0.0021308726,0.0019138858,0.00023486819,4.4729404e-05,9.17903e-09,3.741842e-05,4.012607,3.2908368,3.0945055,3.4428055,277.68713,284.00558,293.4266,285.38562,280.1064,288.3957,298.4273,289.11603,275.2537,279.42297,288.33246,281.96326
Mainz,49.984192,8.2791,0.0021557321,0.0019014183,0.002091844,0.002006185,0.00020016152,5.0753682e-05,1.1664139e-08,1.42311565e-05,3.5775335,3.0412562,2.6770968,2.970426,277.57468,284.76456,294.47098,285.705,280.16876,289.6881,300.21457,289.77963,275.0754,279.779,288.77496,282.0236
Malmö,55.605869,13.00073,0.0023871246,0.0017369041,0.0024359557,0.002357084,0.00037430023,7.03655e-05,9.680646e-09,3.5417637e-05,5.160756,4.4993615,4.1000195,4.671807,276.38846,282.54236,291.88776,284.31717,278.50525,286.35703,296.1197,287.25497,274.00256,278.4414,286.97116,281.29086
Manchester,53.480949,-2.23743,0.0042133783,0.0029003262,0.003021301,0.0039898856,0.000441896,0.00013027,5.6770495e-09,3.3900353e-05,5.0758495,4.4292684,3.734887,4.174293,278.75076,282.5117,290.37805,284.62894,281.1568,286.18927,294.6479,287.5556,276.26657,278.8,285.96893,281.66266
Mannheim,49.496712,8.47955,0.0022250183,0.002195298,0.0023644033,0.0023148705,0.00022197212,5.3668646e-05,1.245647e-08,2.0232383e-05,3.5373077,2.9585488,2.5838063,2.8936925,277.69446,285.26022,295.31537,286.14105,280.6006,290.48807,301.32727,290.53702,274.93167,280.0286,289.40472,282.24875
Marbella,36.51543,-4.88583,0.0028366211,0.0009781806,0.0001758486,0.002024969,1.5308962e-06,2.1361998e-06,8.2055607e-10,8.6571964e-07,3.5495772,3.3932145,3.1121125,3.156115,286.32657,290.72958,299.0562,293.67294,290.81528,295.7708,303.99652,298.00272,282.46887,285.6717,294.02258,289.8214
Marsala,37.796638,12.43518,0.0024271964,0.0012831704,7.056612e-05,0.0022426907,1.6695012e-06,7.760851e-10,0.0,3.7606881e-10,4.565752,4.1350203,3.1851087,3.7037067,286.31247,290.2361,301.0449,295.37518,289.25784,294.12698,305.7397,299.07892,283.37326,286.3622,296.29858,292.0595
Marseille,43.296951,5.38107,0.0016990312,0.0013413935,0.0005937883,0.003036713,7.693738e-06,2.0113767e-07,7.2630755e-09,9.6873954e-08,3.7811027,3.6672635,3.0990155,3.3482182,282.12735,287.65607,298.22232,290.48206,285.8616,292.20435,303.30762,294.72208,278.93048,283.12634,292.8689,286.70468
Messina,38.193272,15.54969,0.0022612214,0.0011331034,0.0002981414,0.0019567981,2.814617e-05,6.837576e-06,1.9283108e-11,1.6063889e-07,2.7594461,2.4605887,2.084275,2.069442,285.07767,289.181,300.58038,294.29388,287.7306,292.54437,304.49222,297.56805,282.6971,286.0374,296.64066,291.57196
Mestre,45.49028,12.2425,0.0019126245,0.002179776,0.0020471015,0.0030093598,0.00011665102,2.7113856e-05,3.9735838e-07,9.215558e-06,2.0972495,2.074176,1.9030077,2.0655537,278.8661,287.53442,298.66913,288.95523,282.44394,292.0668,303.72336,293.2549,275.59766,282.9385,293.6117,285.05054
Metz,49.11911,6.17269,0.0031757907,0.0023702718,0.0022155205,0.0025920568,0.00017061723,3.7232392e-05,1.0378523e-08,2.6168986e-05,4.299911,3.5319352,3.0826123,3.5172906,277.91055,284.43762,294.2276,285.64532,280.84384,289.30048,300.10507,290.01434,275.0162,279.50195,288.29504,281.63153
Milan,45.464272,9.18951,0.0021221414,0.0025008316,0.0025122804,0.0039797924,0.00012659638,3.5965666e-05,4.390128e-06,1.2730408e-05,1.5223007,1.7447278,1.5308695,1.4815786,278.395,287.23535,298.32123,288.2364,282.40842,292.73956,304.36023,292.94916,275.12537,282.05377,292.6596,284.25177
Modena,44.647831,10.92539,0.0023659347,0.0018098538,0.0016992504,0.0029318654,0.00043775133,7.3457304e-05,5.868195e-09,0.00010525515,1.8609029,1.9936998,1.7353554,1.7929657,277.8779,286.22162,297.95108,288.15015,281.0315,290.97787,303.29242,292.1185,275.19766,281.72528,292.80038,284.73114
Montpellier,43.61092,3.87723,0.0018619549,0.0014906233,0.00073457684,0.0037590056,2.1948039e-05,3.0648262e-06,6.20254e-09,2.2924189e-05,4.6983104,4.188981,3.6486924,4.0280275,282.3114,287.91855,298.43985,290.5379,286.01102,292.4966,303.4804,294.56436,279.1803,283.46967,293.37964,286.9878
Moscow,55.75222,37.615559,0.0021239615,0.0014844291,0.002535856,0.002175745,0.0015211914,0.0003033636,1.9568104e-06,0.00037001396,3.96793,3.3046565,2.847984,3.6539128,270.50525,281.7774,293.90427,280.9589,272.41818,286.04526,298.67392,284.07,268.24478,276.7851,288.4666,277.65094
Mulhouse,47.75,7.33333,0.0034354217,0.0028867908,0.0026091505,0.003158162,0.0005149462,0.00014674608,5.6475496e-06,8.3879146e-05,2.6099737,2.312462,1.9340214,2.0991585,276.67957,284.14655,294.0025,285.31824,279.20514,289.03802,299.98212,289.45026,274.4138,279.48022,288.15274,281.7615
Murcia,37.987041,-1.13004,0.00060104695,0.0004773018,0.0002478549,0.0009655567,3.992302e-06,9.2465353e-07,9.711181e-10,7.71105e-08,2.6232843,2.6926425,2.4749846,2.4571576,284.54578,290.05246,300.29364,293.37207,290.8302,296.52008,306.67062,299.38104,279.4197,283.64542,293.92142,288.1822
Málaga,36.720161,-4.42034,0.0017083491,0.0007345526,0.0001787396,0.0015017942,9.0993935e-06,8.478798e-06,6.0870864e-10,3.6857564e-10,2.2200105,2.1430774,1.9209347,1.9753538,285.09833,290.54425,299.85077,293.21228,290.83215,296.81854,305.96112,298.8259,280.291,284.024,293.2264,288.25424
Mülheim (Ruhr),51.433331,6.88333,0.0035434288,0.0024227775,0.0026390685,0.0025652992,0.0002250157,4.869417e-05,1.2792947e-08,2.2421098e-05,4.592082,3.6936307,3.2844124,3.8638706,278.85248,284.63306,293.51337,286.14526,281.19504,288.92798,298.63754,289.76923,276.53485,280.23886,288.41833,282.8105
München,48.137428,11.57549,0.0024989645,0.002985787,0.0044726483,0.0035023887,0.0010808087,0.0004944566,7.331455e-07,0.00019671838,2.683074,2.4217067,2.0226696,2.1643438,275.2542,283.08868,294.0223,284.6931,278.41293,288.09503,299.91943,289.1785,272.20526,278.28876,288.44147,280.88632
Münster,51.96236,7.62571,0.0032956146,0.002304657,0.002534769,0.0023873793,0.00017040665,3.1876232e-05,8.800702e-09,1.9663024e-05,4.520069,3.6889775,3.309794,3.8022532,278.45508,284.12238,292.65424,285.55396,280.81848,288.39346,297.75427,289.17987,276.07233,279.68588,287.48978,282.1953
Namur,50.4669,4.86746,0.0032668523,0.0024106044,0.002363738,0.0022201207,0.0001883272,3.8748687e-05,1.3942968e-08,4.565083e-05,5.0562253,3.9980125,3.4437957,4.1395535,278.4713,284.28195,293.22162,285.83368,281.54666,289.23093,299.0818,290.30508,275.44824,279.19345,287.22498,281.56494
Nantes,47.217251,-1.55336,0.0037393055,0.002437809,0.0015135783,0.0029224302,4.824413e-05,4.402301e-06,9.456302e-09,3.7162778e-08,4.5779247,4.104295,3.413115,3.7499442,280.92892,285.5885,294.80032,287.8306,284.0201,290.03146,300.29065,292.2849,277.82666,281.05084,289.2083,283.5859
Napoli,40.833328,14.25,0.0028123632,0.0020421569,0.0007158919,0.0032245375,6.42777e-05,1.9508592e-05,6.858418e-09,3.663791e-06,2.576851,2.0793734,1.7111702,2.147896,282.9832,288.41074,300.0299,292.41302,286.7631,293.16867,305.37457,297.1538,279.5117,283.60428,294.2206,288.09348
Neuß,51.198071,6.68504,0.0031252878,0.0021902295,0.0023382427,0.0021383385,0.00020080085,4.2448006e-05,1.0971203e-08,2.7826298e-05,4.6590614,3.6969204,3.260851,3.886921,278.598,284.51343,293.582,286.03857,281.1689,289.1174,299.05615,290.00018,276.06097,279.84668,288.16223,282.3801
Newcastle upon Tyne,54.973282,-1.61396,0.0022339085,0.0018727118,0.0018383159,0.0024393513,0.0002720311,5.7121964e-05,2.4799447e-09,4.6667043e-05,5.761688,4.7653375,3.8738155,4.6058836,278.59396,281.96582,289.3163,284.40317,281.02014,285.42365,293.39285,287.36926,276.10428,278.42862,285.02777,281.4001
Nice,43.703129,7.26608,0.003265585,0.0022133538,0.0009968745,0.004765683,0.0004624744,0.000120291705,1.071068e-08,0.000104135295,1.5678093,1.5318414,1.2769029,1.3048573,281.43445,286.41632,296.7426,289.5398,285.08572,289.90582,300.31384,293.04974,278.61905,282.72705,292.49786,286.6242
Nijmegen,51.842499,5.85278,0.003268893,0.0021759395,0.0024958185,0.0024608707,0.00012574179,2.2480268e-05,9.046042e-09,1.1849333e-05,4.8001637,3.930851,3.4252098,3.9474053,278.92215,284.1329,292.42603,285.57925,281.52463,288.68863,297.69705,289.4955,276.30267,279.41537,286.94598,281.88962
Northampton,52.25,-0.88333,0.0022930638,0.001959152,0.0018798942,0.002103303,0.00016745609,1.623505e-05,1.3788908e-08,1.3242085e-05,5.3689694,4.5916553,3.888492,4.446139,278.91922,283.18,291.34402,285.0982,281.8755,287.65836,296.7874,288.87408,275.9325,278.73837,285.9212,281.37265
Norwich,52.627831,1.29834,0.0023203164,0.0015811138,0.0017377768,0.0021147218,9.934018e-05,1.3333187e-05,6.258823e-09,7.006149e-06,6.065212,5.025527,4.1174307,5.0496297,279.26855,283.4087,291.16425,285.68295,281.93094,287.24298,295.7271,289.11322,276.4822,279.47516,286.46344,282.24933
Nottingham,52.953602,-1.15047,0.0022365109,0.0019241903,0.0019252698,0.0021366884,0.00020946447,2.8500866e-05,8.993177e-09,1.858728e-05,5.4360127,4.655559,3.9646385,4.527972,278.70938,282.8625,290.9023,284.8479,281.5154,287.08945,296.08807,288.4161,275.88467,278.69037,285.69482,281.35315
Novi Sad,45.251671,19.836941,0.0012020414,0.0019035289,0.0018436346,0.001660944,0.00022820705,4.7241323e-05,1.3549274e-08,4.6334237e-05,2.831893,2.7649002,2.4883614,2.8263683,277.4419,287.2459,299.03247,288.91025,280.79837,292.72205,305.39957,294.17703,274.1339,281.78958,292.45212,284.24493
Nîmes,43.833328,4.35,0.0018955532,0.0016687328,0.000928004,0.004363821,3.6685815e-05,5.8573123e-06,5.802465e-09,1.3320712e-05,3.4957938,3.3889084,3.136126,3.1288779,281.31598,287.7237,298.78625,289.81696,285.4447,293.26755,305.20685,294.64883,277.8958,282.46237,292.49677,285.65457
Nürnberg,49.454208,11.07752,0.0020761876,0.0021009382,0.0026569187,0.0022968021,0.0004380576,0.000104400984,1.777725e-08,5.8685167e-05,3.5829453,3.043645,2.5992293,2.9493115,275.9248,283.40265,293.7669,284.6014,278.74597,288.57172,299.74252,289.05496,273.29288,278.26953,287.81183,280.67072
Oberhausen,51.47311,6.88074,0.0035434288,0.0024227775,0.0026390685,0.0025652992,0.0002250157,4.869417e-05,1.2792947e-08,2.2421098e-05,4.592082,3.6936307,3.2844124,3.8638706,278.85248,284.63306,293.51337,286.14526,281.19504,288.92798,298.63754,289.76923,276.53485,280.23886,288.41833,282.8105
Odessa,46.47747,30.73262,0.0012896402,0.0012388823,0.0012736699,0.0012730884,0.0003751835,8.902141e-05,2.2604363e-09,2.1960434e-05,4.1287484,3.7794986,3.4414241,3.8825595,275.73965,285.25888,298.27692,287.45105,278.0686,289.09576,302.81232,291.04123,273.23172,281.2888,293.40695,283.907
Olsztyn,53.779949,20.49416,0.002270283,0.0017801303,0.0026528127,0.0020843218,0.0007730764,0.00019645636,1.5205384e-08,0.00014266267,4.139638,3.400119,3.2057388,3.7605546,275.35156,282.792,293.0123,284.02637,277.25903,287.15076,297.89178,287.56128,273.30692,278.0247,287.6857,280.55695
Oradea,47.066669,21.933331,0.0017458919,0.0020411727,0.0020358157,0.0020811644,0.00038603472,5.970978e-05,1.1957638e-08,7.465852e-05,2.4654438,2.398271,2.1888874,2.2553174,275.84677,285.85263,296.82086,287.11115,279.08853,291.3415,303.10815,292.5031,272.57626,280.2462,290.2337,282.32806
Orléans,47.902889,1.90389,0.0025041478,0.0021398258,0.0018712506,0.0021259836,4.8084486e-05,8.617596e-06,1.1866966e-08,8.771959e-06,4.354874,3.7314155,3.1869626,3.5460296,279.58575,285.39606,294.9312,287.1104,282.4838,290.2746,300.9407,291.612,276.6784,280.44385,288.82,282.88898
Oslo,59.912731,10.74609,0.0034528316,0.0027252785,0.00318825,0.0037456187,0.0022803429,0.00070180884,2.2467066e-07,0.00033100107,2.580633,2.4357953,2.3446074,2.5725474,272.59314,279.2307,290.25742,280.70746,274.47607,283.41626,295.09525,283.65005,270.40506,274.7097,284.98196,277.7245
Osnabrück,52.27264,8.0498,0.003312996,0.0022316696,0.002634968,0.0024267968,0.00016951165,2.7550563e-05,8.530238e-09,2.3228236e-05,4.387663,3.6243331,3.3034165,3.7336495,278.34613,283.93658,292.37253,285.36154,280.68182,288.18854,297.51096,288.98837,275.9783,279.5316,287.19305,282.01953
Ostrava,49.834648,18.28204,0.0021921422,0.0024326327,0.0028576762,0.0022492246,0.00081214623,0.00029137646,1.7972322e-08,0.000118598226,3.7156966,3.0801148,2.682931,3.2046342,275.72827,283.61548,293.84555,285.21774,278.17795,288.69366,299.73386,289.75397,273.1833,278.23447,287.54974,280.9719
Oulu,65.01236,25.468161,0.0017215782,0.0014188888,0.0020999783,0.0018041736,0.0013161498,0.0005044206,7.491608e-07,0.00026007748,4.0193706,3.3058612,2.990788,3.6565251,268.81467,277.08096,290.28937,278.91055,271.32227,280.92114,294.3269,281.66852,265.98227,272.45233,285.13715,275.83417
Oviedo,43.360291,-5.84476,0.0033433533,0.0029550612,0.0015526377,0.003487109,0.00021747932,8.9862275e-05,1.4310704e-07,1.747978e-05,2.984912,2.7581382,2.279285,2.4863005,281.5929,284.98004,293.52887,288.11823,285.79007,290.01666,299.33496,293.13034,277.7007,279.85016,287.75113,283.54153
Oxford,51.75222,-1.25596,0.0024215532,0.002187439,0.0016190764,0.0022961223,0.00016109915,5.9830178e-05,6.411283e-09,1.3420182e-05,5.1593976,4.450591,3.7364368,4.223305,279.12952,283.3227,291.6479,285.35776,281.8713,287.62222,296.69043,288.915,276.3127,279.04013,286.5145,281.80475
Padova,45.415192,11.88181,0.0019398081,0.0021524695,0.0023064178,0.0031815344,0.00020492743,7.658681e-05,2.1531127e-07,5.1904637e-05,1.8716067,1.9184406,1.7460371,1.8470829,278.189,287.07843,298.20712,288.37982,281.8837,291.7885,303.378,292.73123,274.85132,282.2918,293.00482,284.40305
Palermo,38.115822,13.35976,0.0030395396,0.0016955767,0.00022132644,0.0023987256,3.5570785e-05,3.942084e-06,1.8100843e-10,8.144396e-08,2.9404516,2.6003842,1.9222,2.186956,285.05246,289.0125,300.14432,294.23544,287.6882,292.44418,304.2653,297.4675,282.5939,285.72687,296.01236,291.50165
Palma,39.569389,2.65024,0.0012914239,0.0012821135,0.0004183726,0.0027197197,7.4073732e-06,3.923781e-06,6.995936e-10,4.5942343e-07,4.688641,4.0106626,3.0938618,4.0056033,285.98123,289.3247,299.21106,294.292,288.4496,292.0598,302.1232,296.8705,283.6325,286.53867,296.39835,291.86374
Pamplona,42.816872,-1.64323,0.0040528392,0.0034381326,0.0018190074,0.0037529643,0.00023430235,9.5917545e-05,6.037931e-07,6.566023e-05,2.8438497,2.692928,2.370679,2.5787444,280.18982,285.13544,295.3107,288.22455,284.37317,290.6205,302.0731,293.41663,276.37332,279.75406,288.8425,283.55768
Paris,48.853409,2.3488,0.002720107,0.0020533171,0.0019273848,0.0020185262,0.00011325728,1.958151e-05,1.36095695e-08,9.017063e-06,4.3765826,3.658115,3.2052906,3.573457,280.12198,285.85614,295.11172,287.3889,282.56613,290.04242,300.18677,291.0501,277.64856,281.54343,289.9105,283.85645
Parma,44.802662,10.32898,0.0020446463,0.0018437996,0.0016762838,0.0029662738,0.0002332949,8.2926694e-05,5.863165e-08,7.4671916e-05,1.686811,1.8692843,1.6363475,1.668671,278.18668,287.968,299.62146,289.08548,281.82535,293.38608,305.55487,293.5646,275.14685,282.84238,294.01233,285.2379
Perpignan,42.697639,2.89541,0.0019213903,0.0019007387,0.0008532957,0.0031896525,4.912501e-05,1.4061438e-05,2.952321e-09,1.9475478e-05,3.0817964,3.0367699,2.751346,2.731117,282.39938,287.96747,299.10278,290.80246,287.2363,293.47443,304.93237,295.79504,278.44055,282.54376,293.12643,286.55157
Perugia,43.112202,12.38878,0.0020179113,0.0019327657,0.0012784807,0.0033403113,0.0002737671,4.613688e-05,6.065437e-09,5.3279364e-05,2.3465707,2.209834,1.8784354,2.1295156,279.8446,286.05566,297.93774,289.12982,283.21378,290.81592,303.67932,293.53058,276.7507,281.43228,292.20306,285.30753
Piraeus,37.947449,23.637079,0.0020390975,0.00078591274,0.00021300672,0.0013133574,4.706752e-05,1.2425013e-05,2.6700595e-10,1.5943027e-06,2.6895003,2.2593486,2.488718,2.3495092,283.22165,289.3587,301.38074,293.43002,286.9536,294.73196,307.48065,298.65634,279.61536,284.1495,295.07465,288.68286
Pisa,43.71553,10.39659,0.0024930125,0.0017079776,0.0011083003,0.003563534,5.4376815e-05,9.293587e-06,1.9188597e-09,6.8917807e-06,2.2077227,2.003202,1.5843388,1.9192564,281.19348,287.37637,298.24176,290.24405,284.98807,292.29742,303.92322,294.82016,277.78134,282.418,292.42264,286.10416
Ploieşti,44.950001,26.01667,0.0018218792,0.0020577544,0.002720086,0.0015437,0.0009619631,0.0002153927,2.4050237e-08,0.0001727952,2.3159277,2.2765038,1.9944111,2.0900788,274.86038,285.1649,296.60834,286.67297,278.79208,291.3225,303.4402,292.75967,271.24948,278.92328,289.656,281.22043
Plovdiv,42.150002,24.75,0.0021318386,0.0019827974,0.0019004798,0.0016351016,0.00096485356,0.00023473497,9.780508e-09,0.00013901212,1.6925876,1.6749208,1.6681659,1.6001241,274.98767,284.5129,296.61206,286.79306,278.95245,290.2884,303.4531,292.83374,271.28857,278.55072,289.33368,281.19955
Plymouth,50.371529,-4.14305,0.0050569605,0.0032779165,0.002236861,0.004109247,7.0775626e-05,1.6280697e-05,5.37798e-09,2.2010388e-05,5.56474,4.787086,3.9779708,4.623398,280.25565,283.0866,290.7309,285.81433,282.79813,286.47897,294.6286,288.69888,277.6101,279.6314,286.75406,282.88556
Plzeň,49.747471,13.37759,0.0014321036,0.0018919263,0.0027502556,0.0017832216,0.0005844522,0.00022539077,1.1285414e-08,9.3288276e-05,3.6026223,3.0615187,2.630852,2.9619038,275.0751,283.0932,293.40698,284.18555,277.57166,288.0619,299.15814,288.35776,272.57938,277.95322,287.50092,280.33368
Porto,41.149609,-8.61099,0.0050866613,0.0023528568,0.000927766,0.0037461587,9.016269e-07,1.657881e-06,2.5175813e-09,2.201517e-08,3.1120367,3.191518,2.9615731,2.7849765,284.0573,287.7316,295.2815,290.36853,288.7419,293.2686,301.50504,295.8064,280.10544,282.60464,289.555,285.99982
Potsdam,52.398861,13.06566,0.0019012481,0.0017134033,0.002098883,0.0018630509,0.00023688037,3.9089955e-05,1.1117153e-08,4.0890453e-05,4.0409617,3.3477619,3.194166,3.5081222,277.88635,284.66547,294.0702,285.68283,280.3378,289.27728,299.45587,289.43585,275.39038,279.90405,288.58255,282.19815
Poznań,52.406921,16.92993,0.0019967498,0.0015785203,0.0022885627,0.0015469317,0.00055472093,9.25451e-05,2.7331007e-08,6.905013e-05,3.7769608,3.2002902,3.0685828,3.3969467,276.89612,284.16437,293.79495,285.20468,279.14166,288.89008,299.1621,289.0694,274.50815,279.06656,288.0516,281.42596
Prague,50.088039,14.42076,0.0014914925,0.0018713772,0.0026855746,0.0016120387,0.00046838817,0.00016255796,1.3950034e-08,7.243666e-05,3.5166428,3.0353944,2.687943,2.9884496,275.58475,283.77127,293.9674,284.83035,278.17398,288.93088,299.93027,289.23514,273.01553,278.41693,287.8952,280.7075
Prato,43.884251,11.09092,0.002710422,0.0019872757,0.0015968526,0.0034509809,0.00041437897,5.931965e-05,3.7666097e-09,9.562808e-05,1.994395,1.9916389,1.6621622,1.8178732,278.5964,285.38483,296.81354,288.0054,281.69193,289.8624,302.05704,291.93933,275.82068,281.00732,291.55487,284.50604
Preston,53.76667,-2.71667,0.003906836,0.0027089533,0.0027952744,0.0039376323,0.00017934915,4.780634e-05,1.249885e-08,1.664016e-05,5.606343,4.721995,4.0149627,4.6283007,278.77203,282.38397,290.19122,284.63394,281.17905,285.91315,294.16913,287.51788,276.26517,278.7365,285.98026,281.65207
Pécs,46.083328,18.23333,0.0013948376,0.0019860023,0.0018523863,0.0020075554,0.00021502346,4.7132628e-05,8.873469e-09,3.7915685e-05,2.8135931,2.6561437,2.4003453,2.5152123,277.03186,286.59705,297.8133,287.77167,280.60352,292.46017,304.55695,293.5672,273.5467,280.62137,290.74615,282.5575
Ravenna,44.4175,12.20111,0.0015300803,0.0014794808,0.0012853339,0.0021865838,0.00014309504,1.1072176e-05,3.2575037e-10,3.5622135e-05,2.7857904,2.7296557,2.4816556,2.6844232,279.95087,288.3839,299.77527,290.43973,283.04684,292.7076,304.5872,294.41574,277.14944,284.01865,294.82553,286.8789
Reading,51.456249,-0.97113,0.0026484048,0.0022080052,0.0016496654,0.0024553984,0.00017582961,4.2480246e-05,3.844772e-09,1.0359984e-05,5.1025157,4.4096365,3.690087,4.172296,279.0244,283.23135,291.48456,285.25806,281.90695,287.65445,296.6697,289.00967,276.0577,278.79492,286.17603,281.51154
Regensburg,49.014999,12.09556,0.0019885832,0.002026522,0.002731609,0.0023054392,0.0005807323,0.000150114,2.9262642e-08,7.0257825e-05,3.3074982,2.9578469,2.4844663,2.7285895,275.43274,283.6324,293.9791,284.5226,278.028,288.84592,300.07367,288.81918,272.96716,278.55695,288.04803,280.73013
Reims,49.25,4.03333,0.0028144247,0.0020610362,0.0020845109,0.0019319172,0.00012328598,2.0798285e-05,1.6788562e-08,1.9366315e-05,4.3202796,3.577285,3.1185322,3.5616326,278.87573,284.80875,294.19885,286.23282,281.8707,289.74313,300.26157,290.76706,275.84775,279.74005,288.06366,281.9052
Rennes,48.11198,-1.67429,0.003436256,0.0024564774,0.0016844257,0.0025986112,4.2148862e-05,9.561583e-06,8.132212e-09,6.0142224e-07,4.2732425,3.8497536,3.2225754,3.5319958,280.5117,284.9939,293.77777,287.22366,283.51306,289.47357,299.26767,291.53015,277.48785,280.53195,288.24753,283.13486
Reykjavík,64.135483,-21.895411,0.0059444965,0.0038873826,0.0029482897,0.004575205,0.0024549447,0.0010179234,3.3697603e-08,0.00037229207,4.8020344,4.2212844,3.4962974,4.342363,273.96384,276.726,284.3249,278.61554,275.7953,278.97424,286.62375,280.47516,271.8825,274.21893,281.9284,276.6474
Riga,56.945999,24.10589,0.002423412,0.0017302692,0.0028342109,0.0025786734,0.000854742,0.00019800212,2.058669e-08,0.00012793204,5.1177945,4.1086645,3.8353488,4.6973715,274.65768,281.11496,292.4357,283.1873,276.16873,284.84064,296.318,285.98862,272.9988,277.0453,288.03253,280.35614
Rimini,44.063332,12.58083,0.001886122,0.0017745725,0.0014391977,0.0027396737,0.00023138874,3.9011382e-05,3.799435e-09,4.2365682e-05,2.6506143,2.5666642,2.193924,2.4375079,279.41934,286.74823,298.3485,289.2687,282.54242,291.10855,303.34174,293.26486,276.5407,282.32806,293.08957,285.69858
Rome,41.894741,12.4839,0.0025413255,0.0019482467,0.0009217717,0.0050013796,5.8849004e-05,8.736137e-06,2.700741e-09,1.3003589e-05,2.6172159,2.3464522,1.9735037,2.275171,282.6913,288.30316,299.74127,291.88718,286.98553,293.68472,305.89282,297.08594,278.8778,283.05206,293.38834,287.36713
Roquetas de Mar,36.764191,-2.61475,0.0008711999,0.0004771216,0.00020809495,0.00094117865,8.478294e-05,1.43966445e-05,1.273343e-10,3.9331003e-06,1.8376979,2.0491402,2.025022,1.9242284,285.5463,290.63736,300.24808,293.88965,291.393,296.11685,305.50986,299.2826,280.88303,284.84387,294.44,289.15237
Rostock,54.088699,12.14049,0.0023137433,0.0019371354,0.002452405,0.002127747,0.00025945672,6.205375e-05,5.930244e-09,5.2694882e-05,4.8930907,4.108342,3.9524283,4.3383765,277.7528,283.23593,292.5605,285.27148,279.83945,286.8053,296.62952,288.28647,275.5706,279.51572,288.2818,282.47525
Rotterdam,51.922501,4.47917,0.003125524,0.002026508,0.0025596747,0.0029600433,0.00012179007,2.4614894e-05,6.254524e-09,8.2067945e-06,5.786103,4.6900587,4.014678,4.7024107,279.20395,284.0318,292.1383,285.93253,281.67548,288.099,296.632,289.4114,276.6724,279.75272,287.2348,282.52863
Rouen,49.44313,1.09932,0.00372916,0.0025549966,0.0024181933,0.0028396044,0.0001131213,2.2163851e-05,1.4500179e-08,8.720937e-06,4.8264165,4.0741806,3.4910522,3.9999626,279.9613,284.4353,293.10962,286.83487,282.34818,288.17328,297.4654,290.3,277.55563,280.68768,288.6523,283.52945
Saint Petersburg,59.89444,30.26417,0.0017997976,0.0014103323,0.002644746,0.0022021635,0.0012039695,0.00026026054,3.5113622e-08,0.0003746436,4.0465045,3.2377498,3.0322447,3.6075046,271.7662,280.09286,292.46518,281.26025,273.295,283.84888,296.19162,283.75198,270.0114,275.77286,288.02237,278.62558
Saint-Étienne,45.433331,4.4,0.0017164693,0.0019055633,0.0019131142,0.002814602,0.00023195552,5.9165974e-05,7.495808e-09,7.3420015e-05,2.9529493,2.942556,2.5170474,2.692162,278.0151,284.71857,295.53546,286.5451,281.50583,290.14264,301.9725,291.12903,274.79764,279.3939,289.131,282.35904
Salamanca,40.968819,-5.66388,0.0012397491,0.0009932688,0.0006750199,0.0016433554,8.098289e-05,2.0095984e-05,1.177835e-08,1.7956256e-05,2.867273,2.8748798,2.4864438,2.5980496,279.50772,285.80328,297.10013,288.3162,284.55368,292.55157,305.2912,294.72043,275.0133,278.96548,288.6171,282.48218
Salerno,40.677971,14.76599,0.0029964314,0.002125627,0.0006512784,0.0033707682,8.319748e-05,8.257989e-06,8.72656e-09,7.0768488e-06,2.996967,2.291636,1.8084491,2.408013,283.47598,288.65396,300.25793,292.9914,286.83273,292.97247,305.11737,297.27618,280.34265,284.1715,294.84906,289.03622
Salzburg,47.799412,13.04399,0.004078564,0.0039201668,0.005586285,0.0045870515,0.0024919407,0.0011442198,3.1420325e-06,0.0005372475,1.8012751,1.7352203,1.4733754,1.5693914,273.63034,280.53308,291.09558,282.96906,276.63913,284.8976,296.2074,287.04474,270.7278,276.38602,286.28113,279.48755
Santander,43.464722,-3.80444,0.0036764876,0.003224325,0.001658249,0.003909024,0.00011859697,3.2558535e-05,2.8346793e-07,2.903274e-05,3.8116233,3.4171894,2.800468,3.2256877,283.04837,286.169,294.4687,289.52075,286.41476,290.28302,299.12363,293.62827,279.80637,282.06635,289.97574,285.7306
Santiago de Compostela,42.88052,-8.54569,0.005909487,0.0034396746,0.0013118751,0.004677778,4.676005e-06,2.2340153e-06,3.8448924e-09,5.88066e-07,4.217455,4.1940603,3.7812324,3.678081,283.11642,285.84103,293.21146,288.8217,286.89612,290.33878,298.57645,293.1996,279.53195,281.51242,288.28616,285.06143
Sarajevo,43.84864,18.35644,0.0021432035,0.0027299789,0.0024973438,0.0030551434,0.0009637473,0.0003823883,3.6503002e-07,0.00032040273,1.8547091,1.825453,1.5501729,1.6600208,274.92142,283.20157,294.85538,285.67917,278.3303,288.23178,301.22012,290.7412,271.55206,278.20975,288.46628,281.20615
Setúbal,38.524399,-8.8882,0.0021748606,0.00086064776,0.0002636319,0.0019548512,1.1298428e-07,8.551005e-09,1.1732187e-09,5.046382e-09,4.3162413,4.512025,4.5825014,3.991464,286.60263,289.76544,296.68445,292.6617,289.97714,294.03802,301.48035,296.5329,283.70352,285.90216,292.5177,289.49805
Sevilla,37.382408,-5.97613,0.0019297686,0.0007383609,0.00024987658,0.0018115351,1.3802088e-06,3.1598017e-08,8.922176e-10,1.2579882e-08,2.63448,2.607375,2.4640446,2.379321,284.87082,290.858,300.86765,293.4734,290.81244,298.29642,309.0014,300.10916,279.96228,283.6635,292.64294,287.6897
Sheffield,53.382969,-1.4659,0.0030407049,0.0023323356,0.002312284,0.0028004113,0.0004511664,0.000119647455,1.1883481e-08,4.6068173e-05,5.309328,4.554656,3.888454,4.399134,278.43054,282.29623,290.28827,284.4518,280.95886,286.11496,294.9518,287.57367,275.89377,278.52658,285.541,281.37024
Siracusa,37.085152,15.273,0.0020823965,0.0007478413,0.0001642866,0.0020815341,5.9356225e-06,1.02156015e-07,0.0,1.1422902e-09,2.9942985,2.5732834,1.8426666,2.140612,286.73322,290.5132,301.61185,296.0335,289.5662,294.09576,305.6958,299.40295,284.1697,287.14056,297.41437,293.17987
Skopje,42.001221,21.42878,0.0013709879,0.0016744721,0.0015660838,0.0018197175,0.00049582653,0.00010432947,8.301612e-08,0.000115394985,1.6000614,1.6907886,1.619641,1.4982315,275.1078,284.92023,296.57248,287.06,278.8888,290.52725,303.56732,292.75095,271.46878,279.2779,289.5207,281.84088
Sochi,43.599171,39.725689,0.005931364,0.004110654,0.00314917,0.0054374975,0.0021815374,0.00052076124,6.5732586e-10,0.00028851844,2.1196146,1.7107677,1.2684484,1.4803351,277.60757,286.07715,297.4098,288.86517,281.13495,290.15506,301.8539,293.44525,274.2555,281.38004,292.35577,284.72888
Sofia,42.69751,23.32415,0.0018523053,0.0028487083,0.0024516347,0.002004852,0.0009195652,0.00035948068,1.2791476e-07,0.00019314374,1.6268291,1.6493442,1.5341175,1.5193437,273.6517,283.29254,294.88824,285.6048,277.29456,288.6647,301.19696,291.04773,270.25034,277.83276,288.4584,280.758
Southampton,50.90395,-1.40428,0.0031711087,0.002335467,0.0016088868,0.0027225607,0.00014917474,2.1156698e-05,2.5585816e-09,1.2639252e-05,5.555329,4.7106056,3.9532306,4.5645423,279.5958,283.3672,291.51056,285.72845,282.30798,287.3691,296.17752,289.14105,276.75745,279.2989,286.67126,282.2548
Split,43.508911,16.43915,0.0029135605,0.002491287,0.0013027397,0.0034519583,0.00017116178,8.825639e-05,1.850585e-07,5.8155856e-05,3.275297,2.8143163,2.2057364,2.7756124,280.25946,286.99005,298.44135,290.0504,283.8456,291.48056,303.89737,294.97443,276.7153,282.1058,292.2023,285.39548
Stockholm,59.332581,18.064899,0.0021824576,0.001407325,0.0024377396,0.002484217,0.00092902756,0.00021656808,9.884288e-09,0.00016750442,4.379428,3.8157737,3.1947908,3.8000603,274.4311,280.99026,291.5891,282.2962,276.3688,284.8282,295.70483,285.03333,272.24728,276.8396,286.73773,279.4549
Strasbourg,48.58342,7.74296,0.0023301688,0.002377368,0.0023610997,0.002832309,0.00016680929,4.2082283e-05,1.4213946e-08,1.5710877e-05,3.097609,2.5724053,2.2283173,2.4518669,277.99435,285.44644,295.55612,286.37616,280.8901,290.48285,301.7016,290.7508,275.20667,280.46674,289.47726,282.51437
Stuttgart,48.782318,9.17702,0.0023166554,0.0024085143,0.002540003,0.002499226,0.00039429852,0.0001044936,1.1672983e-08,4.487826e-05,3.413036,2.8215773,2.4032586,2.7168374,276.87766,284.1382,294.4643,285.44867,279.8349,289.03033,300.29095,289.95404,274.00183,279.2199,288.65326,281.45667
Szczecin,53.42894,14.55302,0.0022154318,0.0016528746,0.0021546003,0.0017786527,0.00040241267,7.2221614e-05,1.0719808e-08,5.6600886e-05,4.6405087,3.805675,3.6660664,4.104135,277.35193,283.83542,293.44574,285.2418,279.62045,288.3195,298.4886,288.7619,275.00204,279.11832,288.1072,281.87616
Szeged,46.252998,20.148239,0.0012134911,0.0015799461,0.0015987058,0.0015943553,0.00011229564,2.7689428e-05,1.108305e-08,3.9095517e-05,2.8779953,2.7507048,2.5884395,2.7272513,277.1509,286.87854,298.2897,288.32614,280.50467,292.49768,304.72247,293.79684,273.79446,281.14917,291.48254,283.4137
Tallinn,59.436958,24.753531,0.0029561645,0.0015495262,0.0025243876,0.0030541534,0.0015213788,0.00028240442,2.226658e-08,0.00029204405,5.8906484,4.5476046,4.2136664,5.3025055,273.90457,279.0264,291.30637,282.58258,275.3339,281.74908,294.1314,284.63104,272.28732,275.8799,287.91113,280.38498
Tampere,61.499111,23.787121,0.0021793237,0.0013434278,0.0024105706,0.0022457577,0.0012979207,0.00036938235,2.6289081e-08,0.00024629437,3.837237,3.3020415,2.9552016,3.465334,270.7445,278.94855,290.90317,279.96588,272.88995,283.4528,295.75092,282.86856,268.27112,273.85245,285.21866,276.93115
Taranto,40.476109,17.229719,0.001881972,0.0012303639,0.00055191165,0.0022977903,1.2116754e-05,4.613773e-06,2.6671514e-09,1.2732213e-08,3.9925356,3.309293,2.7457883,3.204834,283.63126,289.01584,300.6664,293.21637,287.10925,293.69293,306.17126,297.78546,280.28723,284.38028,294.963,289.07977
The Hague,52.076672,4.29861,0.0030047693,0.0019157194,0.0025461782,0.0029467249,0.00013470493,2.374144e-05,6.4696026e-09,7.607173e-06,6.0060825,4.8537655,4.164016,4.895217,279.42404,284.07205,292.1934,286.12543,281.82507,287.97964,296.53882,289.49106,276.94846,279.93735,287.42752,282.7978
Thessaloníki,40.640282,22.94389,0.0014521263,0.0012246596,0.0007890064,0.0015054528,5.508048e-05,7.893364e-06,3.5913459e-09,4.3053924e-06,2.2341006,1.9823408,1.9605103,1.947044,280.5186,288.63727,300.826,291.66644,284.64804,294.61172,307.75787,297.3742,276.49533,282.75504,294.0531,286.32962
Tilburg,51.555511,5.0913,0.002951493,0.002009166,0.0022769033,0.0023722602,0.00011323606,2.6106796e-05,1.0547881e-08,2.2258359e-05,4.872208,3.9509728,3.4605343,3.9840884,279.08527,284.36728,292.95728,285.84204,281.92468,289.06012,298.33795,289.93326,276.2379,279.52606,287.42365,281.95157
Timişoara,45.753719,21.22571,0.0013557412,0.0019213414,0.0016531486,0.0017344191,0.00024452532,3.571962e-05,4.071598e-09,4.38162e-05,2.401573,2.3924932,2.1976025,2.3556156,277.01187,286.93445,298.49945,288.43472,280.27417,292.15848,304.5265,293.49823,273.8314,281.6325,292.21957,283.95123
Tirana,41.327499,19.81889,0.0034569516,0.002759695,0.0014586827,0.0036734368,0.00048873783,0.00010094731,5.949652e-09,6.355999e-05,1.8561696,1.60003,1.4035527,1.5594962,278.32645,286.1275,297.69934,289.0515,282.42365,291.35358,304.271,294.76465,274.44427,280.65182,290.64548,284.10773
Toledo,39.858101,-4.02263,0.001112639,0.00086986495,0.00047911052,0.0013011248,3.2549786e-05,1.1128649e-05,5.670188e-09,1.2501203e-05,2.5480669,2.6665442,2.5076292,2.376999,281.5134,288.61438,300.86606,290.85202,287.17,295.63135,308.76733,297.22696,276.6182,281.47156,292.4807,284.9627
Toruń,53.013748,18.598141,0.001815854,0.0014886085,0.0023675226,0.0015997827,0.00052586274,8.624842e-05,1.4615667e-08,8.966966e-05,3.897728,3.2780137,3.1303465,3.5307813,276.63635,283.7217,293.3928,284.9628,278.71466,288.1307,298.3167,288.64313,274.42136,278.90668,288.03662,281.3766
Toulon,43.116669,5.93333,0.002673692,0.001653523,0.00074412045,0.0034585148,9.099921e-06,5.3165616e-07,3.1617873e-09,2.5983868e-06,5.5234923,4.758525,3.965552,4.690731,284.0829,288.18463,298.03735,291.68723,286.50403,290.93924,301.10785,294.27304,281.98288,285.4117,294.78168,289.35477
Toulouse,43.604259,1.44367,0.0022063514,0.0023089005,0.0013099957,0.002204616,7.758038e-05,3.954439e-05,2.1969015e-07,1.0752494e-05,3.3101923,3.1299262,2.5951865,2.8739457,281.15793,287.17316,297.7693,289.5555,285.59885,293.0377,304.5517,294.87408,277.29132,281.58075,291.16205,284.8968
Tours,47.383331,0.68333,0.002646112,0.002058954,0.0016799703,0.0020291458,5.125853e-05,9.382507e-06,1.3940076e-08,1.319279e-06,4.2311025,3.7038174,3.1162138,3.4712276,280.00586,285.4542,295.01086,287.27457,283.02225,290.35797,301.11298,292.10394,277.00827,280.47922,288.80173,282.72983
Trier,49.75565,6.63935,0.0031641128,0.002271331,0.0023625935,0.0024525893,0.00032030095,7.7886274e-05,1.1116156e-08,4.3563276e-05,4.1465015,3.461163,3.0358238,3.4763484,277.2913,284.04767,293.7126,285.25714,279.87677,288.6984,299.3226,289.22458,274.78226,279.30573,288.0162,281.6184
Trieste,45.648609,13.78,0.0030415454,0.003080674,0.002733985,0.0048615495,0.0002065908,9.849536e-05,9.50131e-10,1.3438243e-05,2.8756373,2.4345155,2.0730238,2.6618876,280.35397,287.1097,298.18643,289.43222,284.03955,291.7541,303.64487,293.92062,276.8472,282.44766,292.88712,285.43167
Turin,45.070492,7.68682,0.0013634727,0.0025950335,0.0019769915,0.0028609359,0.0005997597,0.0003513286,1.42035815e-05,0.00022961583,1.216894,1.2031008,1.1034085,1.0751138,276.89804,284.25867,295.15912,286.12775,280.05978,288.67218,300.01862,289.7078,274.3732,280.0081,290.2696,282.96698
Turku,60.451481,22.26869,0.0022824043,0.00124604,0.0024140845,0.002564444,0.0010690183,0.00022508248,1.7537529e-08,0.00019614364,4.329543,3.6584668,3.330957,3.8826263,273.39642,279.78647,291.6888,281.84604,275.13663,283.67963,295.81143,284.612,271.36496,275.4084,286.69492,278.97797
Utrecht,52.090832,5.12222,0.0031960157,0.0021272565,0.002512423,0.0027848235,0.00010749825,2.3798191e-05,6.1795404e-09,1.599564e-05,5.357059,4.367704,3.7265136,4.3286276,278.8967,283.99286,292.1113,285.62573,281.52448,288.38223,296.968,289.36862,276.2341,279.41333,286.8886,282.02866
Valencia,39.469749,-0.37739,0.00096943876,0.000913979,0.00048538664,0.0022772993,5.656984e-06,5.3941612e-06,2.6321587e-09,4.0207824e-06,2.9612556,2.6854672,2.2518497,2.5221443,284.3578,289.85,300.18674,292.83173,290.3153,296.40485,306.6363,298.73444,279.365,283.59247,293.8941,287.78055
Valladolid,41.655182,-4.72372,0.0009741861,0.0009916408,0.00072055194,0.001378012,5.1430787e-05,9.313607e-06,5.205272e-09,5.7130187e-06,3.0531828,3.1232834,2.781477,2.8024304,279.68787,285.8454,297.1281,288.5731,284.6505,292.4583,305.19608,294.7918,275.25702,279.27905,288.89487,282.86923
Vantaa,60.29414,25.040991,0.0025216034,0.0014424932,0.0025497298,0.0025260674,0.001431117,0.00030174825,1.2940189e-08,0.00029793015,4.397566,3.6155992,3.3672726,3.9427638,272.9846,279.7829,291.73422,281.40778,274.80032,283.91147,296.17755,284.30093,270.88855,275.1187,286.49115,278.31314
Varna,43.216671,27.91667,0.0011483794,0.00101606,0.0012105994,0.002018844,0.00022150562,5.880626e-05,5.955811e-09,1.552507e-05,4.320333,3.3662477,3.0569792,3.5523674,278.02756,286.46445,298.2304,289.37338,281.30334,291.1679,303.5214,293.9676,274.71698,281.7933,292.9024,285.0857
Venezia,45.43861,12.32667,0.0021630004,0.0023072413,0.002088196,0.0033294528,8.459442e-05,1.7375085e-05,2.2079071e-07,5.406866e-06,2.6367838,2.4674618,2.2453678,2.5706983,280.22546,287.92447,299.18726,290.02866,283.2689,291.69025,303.409,293.62097,277.4288,284.08838,294.96783,286.75266
Verona,45.434189,10.99779,0.0019316035,0.0021775516,0.002374388,0.003256583,0.0005017877,0.00018979705,1.988978e-06,0.00017011167,1.4986123,1.5867904,1.4363824,1.4720608,276.2095,285.30664,296.4506,286.5096,279.89514,290.18576,301.7245,290.75137,272.8888,280.36002,291.15805,282.67532
Vienna,48.208488,16.37208,0.0016912676,0.0019078346,0.002009797,0.002012672,0.0004230108,0.00010642194,7.3322894e-09,5.953114e-05,3.5682344,3.4364567,3.164802,3.2169654,277.15204,285.77155,296.36993,286.7409,279.339,290.59674,302.00534,290.83594,274.95636,280.8354,290.66293,283.0617
Vigo,42.232819,-8.72264,0.006729787,0.003603774,0.0014136938,0.006153176,7.701047e-07,7.548287e-08,7.880574e-09,7.2556525e-09,3.6759374,3.6671643,3.4183202,3.2426898,283.78033,286.9256,294.47952,289.79272,287.67975,291.5557,299.82367,294.216,280.1094,282.31036,289.29004,285.89154
Vilnius,54.689159,25.2798,0.0021890015,0.0020172638,0.0025286826,0.0021397993,0.0008750761,0.0002093844,1.0593751e-08,0.000120158365,4.1840453,3.5534942,3.213939,3.822993,273.86554,282.4311,293.184,282.84525,275.3684,286.96747,298.29935,286.31558,272.14795,277.39615,287.43155,279.3295
Warsaw,52.229771,21.01178,0.0020335328,0.0017460736,0.0022312081,0.0016277789,0.0006230288,0.000116034294,1.6845622e-08,0.00013881676,3.6931074,3.119817,2.8820198,3.3346698,276.16565,284.03845,294.03232,284.70633,278.3179,288.82562,299.32544,288.63632,273.8324,278.87936,288.2705,280.83768
Wiesbaden,50.082581,8.24932,0.0021557321,0.0019014183,0.002091844,0.002006185,0.00020016152,5.0753682e-05,1.1664139e-08,1.42311565e-05,3.5775335,3.0412562,2.6770968,2.970426,277.57468,284.76456,294.47098,285.705,280.16876,289.6881,300.21457,289.77963,275.0754,279.779,288.77496,282.0236
Wolverhampton,52.585468,-2.12296,0.002748888,0.002312821,0.002250617,0.0025341883,0.00018168981,3.397141e-05,1.31919835e-08,8.426932e-06,5.0534167,4.390576,3.7165885,4.1794534,278.91327,282.9433,291.0209,284.91858,281.72665,287.15707,296.1599,288.47015,276.0404,278.71777,285.84293,281.3841
Wrocław,51.099998,17.033331,0.0018475081,0.0019759517,0.002720888,0.0017487581,0.00058619777,0.0001627868,3.8341017e-08,6.977022e-05,3.6017494,3.0341938,2.7884364,3.107955,276.10663,283.81995,293.89157,285.12802,278.5186,288.66327,299.54916,289.31403,273.65744,278.61798,287.92413,281.05997
Wuppertal,51.270271,7.16755,0.003868831,0.0025886479,0.0028221197,0.0027477061,0.00027702187,6.358462e-05,1.3333223e-08,3.1204938e-05,4.6010017,3.6848156,3.2594414,3.8822486,278.91086,284.88016,293.8549,286.38428,281.23706,289.15952,298.99738,289.9993,276.6223,280.52496,288.79086,283.0783
Yaroslavl',57.629871,39.87368,0.0019557644,0.0014721416,0.0022439645,0.0021030898,0.0015027155,0.00031538052,1.1948911e-08,0.0004202437,3.9665656,3.2896168,2.8445842,3.5594335,268.81863,281.0951,293.5223,280.2022,271.04675,285.3654,298.33313,283.25485,266.24576,276.0792,287.88486,276.87656
York,53.95763,-1.08271,0.0021570076,0.001745525,0.0019229772,0.0022315774,0.0002043892,3.8693182e-05,4.9825646e-09,3.3839176e-05,5.5262966,4.702963,3.8982563,4.539948,278.2709,282.23184,289.98926,284.3937,280.94278,286.1276,294.74597,287.7149,275.58063,278.31384,285.0412,281.09943
Zagreb,45.814442,15.97798,0.0018838239,0.0024464277,0.00276698,0.0032361741,0.00035374964,9.510209e-05,9.387337e-07,6.53305e-05,2.2862506,2.3073127,1.8599675,2.033153,277.67816,286.6291,297.30414,287.6798,280.906,291.96613,303.37912,292.45987,274.60413,281.42532,291.33707,283.42987
Zaragoza,41.656059,-0.87734,0.00066799554,0.0010321605,0.0006953682,0.0013568854,3.39938e-05,2.4841103e-05,1.3190113e-07,6.443216e-05,3.6002786,3.6490853,3.2347996,3.1347358,280.34134,287.33197,298.93292,289.479,285.78445,294.57892,307.5143,295.8912,275.6462,280.39523,290.71643,283.85477
Zürich,47.366669,8.55,0.0041741095,0.003411124,0.0037937902,0.0036347534,0.001424726,0.0005469899,4.3387995e-06,0.00021372372,2.2275236,2.0846763,1.7159326,1.78881,276.28003,283.41742,294.40253,284.95398,278.60928,287.8594,299.99814,288.55774,274.15393,279.28745,289.08905,281.9828
Århus,56.156738,10.21076,0.0022415405,0.0018578868,0.002286254,0.0024831928,0.0002936477,8.256144e-05,8.750172e-09,3.8005906e-05,5.611067,4.8284492,4.5799584,5.2027707,276.772,282.20685,291.31403,284.1756,278.9272,285.99033,295.71182,287.21317,274.3805,278.2201,286.41525,281.12823
Łódź,51.75,19.466669,0.0022058487,0.0020104265,0.0023299868,0.0016778556,0.0006918258,0.00014777703,1.3352559e-08,8.18305e-05,4.1594143,3.4090304,3.0805135,3.6215405,276.0032,283.7525,293.73175,284.90695,278.26453,288.44492,299.0334,289.00095,273.6101,278.65613,288.04623,280.91046
