city,latitude,longitude,tp_winter,tp_spring,tp_summer,tp_autumn,sf_winter,sf_spring,sf_summer,sf_autumn,si10_winter,si10_spring,si10_summer,si10_autumn,t2m_winter,t2m_spring,t2m_summer,t2m_autumn,max_t2m_winter,max_t2m_spring,max_t2m_summer,max_t2m_autumn,min_t2m_winter,min_t2m_spring,min_t2m_summer,min_t2m_autumn
Aachen,50.776642,6.08342,0.002854008,0.0019493445,0.0025698896,0.0022721696,0.00032091318,8.8276094e-05,1.3268574e-08,4.8013888e-05,4.7908573,3.6804852,3.269181,3.9841454,277.0618,283.0048,291.43854,284.69983,279.9102,287.67172,296.64227,288.8644,274.2199,278.2656,286.1779,280.71454
Aberdeen,57.143688,-2.09814,0.002331541,0.001496217,0.0022434725,0.0025392189,0.00017284977,7.511933e-05,1.6533022e-08,1.853613e-05,6.9966416,5.625772,4.720471,5.942803,278.16202,280.61545,286.48868,282.8613,280.42734,283.46457,289.44873,285.35352,275.8414,277.5966,283.36832,280.2708
Aix-en-Provence,43.528301,5.44973,0.0014510212,0.002227176,0.00084353855,0.0031122207,1.5652175e-05,3.5397989e-06,2.140057e-09,4.3988016e-06,3.288836,3.40559,3.0213478,3.0908215,280.19873,286.30182,295.96286,289.30853,283.9547,290.65475,300.97025,293.44815,277.02194,281.92047,290.6984,285.56534
Alcalá de Henares,40.482052,-3.35996,0.0012208172,0.0017130766,0.0007099353,0.0016387228,0.00013372536,5.25946e-05,1.6104165e-06,5.802752e-05,2.069103,2.3695288,2.33527,2.137385,279.947,285.94443,297.1402,288.47736,285.34952,291.83685,304.57162,294.37653,275.20126,279.93463,289.2536,282.95215
Alicante,38.345169,-0.48149,0.0011818254,0.0016067332,0.0004504168,0.0016390256,1.6075594e-05,1.0899473e-06,2.7705864e-09,2.7376213e-06,2.6840878,2.5964787,2.3421693,2.401337,283.92856,288.82498,298.57407,292.3117,289.60632,294.51727,304.65045,298.02078,279.11105,283.28485,292.57416,287.26874
Almería,36.838139,-2.45974,0.001212358,0.0010214444,0.0002997016,0.0012135676,0.00014891614,1.6480724e-05,1.7422446e-09,1.2268001e-05,1.8239201,2.154013,1.9172579,1.8999977,282.51703,287.4959,297.47302,290.77954,288.0416,292.8487,303.37796,296.36713,278.08734,282.08432,291.15747,285.81384
Amersfoort,52.154999,5.3875,0.0025259198,0.0017256392,0.0021757064,0.0023822952,0.0001229442,1.9119727e-05,3.919527e-09,1.8764273e-05,4.972514,3.9557686,3.4816365,4.0707,277.59955,282.86005,290.64722,284.40308,280.28348,287.40555,295.67288,288.42526,274.87518,278.15155,285.2813,280.47614
Amiens,49.900002,2.3,0.0024053873,0.001748907,0.0023594263,0.0024184112,0.00014603695,1.515937e-05,8.01124e-09,2.0895606e-05,4.6320066,3.8501658,3.3742442,3.9043095,278.4889,283.71405,291.43695,285.72333,280.981,287.74493,296.05267,289.42465,275.95786,279.49924,286.60858,282.1131
Amsterdam,52.374031,4.88969,0.002697312,0.0017848981,0.0023172204,0.0029694294,0.00011790395,1.5199071e-05,6.9661565e-09,1.928075e-05,6.3908176,5.017464,4.4274654,5.3187037,277.66992,282.46906,290.06253,284.84396,279.78162,285.81412,293.63275,287.84967,275.4806,278.95334,286.0482,281.83
Angers,47.466671,-0.55,0.0022662147,0.0017268207,0.0014375199,0.0023332508,2.4861121e-05,4.2277184e-06,7.1801054e-09,6.130382e-06,3.9690816,3.5184517,3.1334682,3.4883752,279.36472,284.82083,292.72998,286.7129,282.5776,289.71503,298.3703,291.53873,276.12933,279.7279,286.82843,282.13934
Antwerpen,51.219891,4.40346,0.0023847946,0.0016180441,0.0023268217,0.002211986,0.00012022382,1.8368006e-05,9.730806e-09,1.4220944e-05,4.754094,3.8396485,3.3939178,3.9506295,278.23816,283.47296,291.57343,285.1537,281.01883,287.90717,296.42615,289.16077,275.46063,278.89587,286.55194,281.26224
Apeldoorn,52.209999,5.96944,0.0026524302,0.0017531207,0.0023613614,0.002349548,0.00013258895,2.5559351e-05,2.240022e-09,2.6375541e-05,4.9159718,3.8902912,3.4675598,4.024734,277.6024,282.8239,290.50412,284.32086,280.15256,287.3333,295.48227,288.28082,274.97626,278.16473,285.16525,280.4456
Arezzo,43.461391,11.87691,0.0016261722,0.00241643,0.0015772788,0.0035969508,0.0003108067,5.269912e-05,4.7423163e-09,8.06457e-05,2.0648298,2.0882556,1.8121519,1.9858973,277.05228,283.586,294.23187,286.59213,280.2577,287.60953,299.32794,290.39407,274.1603,279.61264,289.2362,283.19904
Arnhem,51.98,5.91111,0.0025989325,0.0016861816,0.002278109,0.002272201,0.00013391871,2.4091243e-05,6.0137944e-09,2.4112178e-05,4.735454,3.753875,3.3481114,3.9067504,277.73358,282.9841,290.87183,284.4762,280.34732,287.5458,295.9908,288.51086,275.08337,278.28613,285.50858,280.55035
Athens,37.97945,23.716221,0.0020100235,0.0011168108,0.00022707929,0.0014688771,7.4899595e-05,5.7600362e-05,4.52881e-10,7.4223937e-07,2.5548563,2.4812217,2.6425362,2.4067433,282.2379,287.73358,299.30905,291.82297,285.9661,292.59894,304.96246,296.5245,278.65018,282.97443,293.3504,287.5983
Augsburg,48.366669,10.88333,0.0020866727,0.0019970252,0.0033943816,0.0020094526,0.00070421706,0.00013733335,2.1202728e-08,0.00015836218,3.3022416,2.7839103,2.3989196,2.6629837,274.2498,282.79596,292.4254,283.74042,277.15594,287.94714,298.09332,288.383,271.5388,277.7928,287.01852,279.67862
Avignon,43.948341,4.80892,0.0015388518,0.0022535739,0.0010687483,0.0035739678,9.7741904e-05,3.2729007e-05,5.919804e-09,1.727187e-05,3.2962904,3.320399,3.247169,3.1322808,279.3807,286.00336,295.8684,288.5477,283.30817,290.819,301.58835,293.00217,276.10565,281.2794,290.11,284.5681
Barcelona,41.38879,2.15899,0.0011107436,0.0020240794,0.0013794098,0.0027616883,2.8767308e-05,7.838718e-06,2.3230677e-09,3.1806544e-06,1.9974312,2.1227365,2.025316,1.82374,281.89825,286.77325,296.28485,290.15088,286.44537,291.29095,301.0724,294.73572,278.16428,282.4687,291.65036,286.22305
Bari,41.117729,16.851179,0.0019104616,0.0018792714,0.0008887417,0.0021247691,2.948026e-05,3.8554185e-06,1.555069e-09,2.8851573e-06,3.641414,3.3073425,2.769073,3.1086917,282.02295,287.57086,298.45233,291.43674,285.72006,292.1106,303.81854,296.09387,278.55527,283.16385,292.91153,287.33917
Basel,47.558399,7.57327,0.002892764,0.002791387,0.0032528464,0.0030719186,0.0008076551,0.00023421363,1.5953152e-05,0.00014129649,2.2874746,2.0965636,1.8379036,1.947286,275.33035,282.98773,292.10776,284.33466,277.9857,287.78607,297.7022,288.551,272.84464,278.40503,286.65143,280.61847
Bath,51.377949,-2.35907,0.0023901497,0.0017536348,0.0019065166,0.0029710238,0.00015621906,3.2421573e-05,4.1032746e-09,5.1555682e-05,4.916714,4.096824,3.744632,4.1124773,278.4724,282.43854,289.47797,284.30484,281.28384,286.69775,294.0006,287.9499,275.48962,278.04123,284.75525,280.69214
Belfast,54.583328,-5.93333,0.003397122,0.002423954,0.0028948006,0.003337951,9.312953e-05,4.6984725e-05,8.330558e-09,1.3635418e-05,5.989487,4.8450646,4.0543685,4.910111,278.55588,281.34366,287.49152,283.2436,281.29553,285.0197,291.26605,286.33527,275.80823,277.5905,283.62482,280.11038
Belgrade,44.804008,20.46513,0.0012301117,0.0020099995,0.0022859387,0.0015901277,0.00032417921,6.209079e-05,1.1654256e-08,5.030114e-05,2.6739461,2.6237957,2.2795246,2.7210956,275.707,286.14447,297.4656,287.4695,278.89175,291.25204,303.3808,292.6238,272.53696,281.07364,291.50647,282.86957
Bergamo,45.697979,9.66895,0.0011372342,0.0032551761,0.0029226518,0.0035462915,0.00015978981,8.065069e-05,1.1560898e-06,3.9735438e-05,1.447689,1.5879585,1.4683195,1.4457142,276.85437,285.74182,295.8894,287.0329,280.80225,290.49902,301.16852,291.20407,273.71414,281.08057,290.76703,283.23596
Bergen,60.39299,5.32415,0.012819454,0.00601586,0.0056304983,0.010095757,0.0061673494,0.0019048767,2.9359194e-07,0.00097326573,3.2987688,3.1494412,2.6315455,3.217254,275.4771,279.0452,286.89255,281.11823,277.04404,281.9643,289.87296,283.3102,273.5721,275.5979,283.2967,278.65564
Berlin,52.524368,13.41053,0.0018308125,0.0014780137,0.0022734725,0.0013211865,0.00029084366,6.956966e-05,9.267301e-09,7.20474e-05,4.175375,3.3101768,3.058497,3.5690072,276.16635,283.43988,292.57224,284.06674,278.6152,288.09012,297.71167,287.98645,273.5487,278.63702,287.29337,280.26996
Bern,46.94809,7.44744,0.003118872,0.0033893432,0.0041244547,0.003594953,0.0015500338,0.0008687947,7.390335e-05,0.0005220303,1.9093608,1.7428316,1.5551205,1.6546341,274.16272,281.43747,290.62958,283.12604,276.8547,285.88525,295.8737,287.07178,271.5808,277.10837,285.41714,279.60498
Besançon,47.248779,6.01815,0.0028237256,0.0028280437,0.0030321484,0.003420115,0.0005017952,0.00012182545,9.26139e-06,8.988542e-05,3.1515222,2.7745042,2.4441922,2.8260446,276.11697,283.50168,292.5482,285.0935,279.07822,288.41132,298.27795,289.5281,273.27048,278.68408,286.87808,281.0787
Bielefeld,52.033329,8.53333,0.0028117737,0.0018394394,0.0024671196,0.002167504,0.0002486216,5.607171e-05,1.2365422e-08,7.0364134e-05,4.404582,3.4178004,3.1414633,3.7228274,276.5415,282.6645,291.03635,283.9726,278.8396,287.04974,296.01184,287.73688,274.1602,278.18622,285.98083,280.32898
Bilbao,43.262711,-2.92528,0.0032616125,0.0034389228,0.0016309677,0.0033213706,0.000119247234,2.9672767e-05,3.6248724e-07,4.03341e-06,2.916799,2.6051857,2.183434,2.578949,281.0597,284.89938,292.33282,288.10443,285.1866,289.60825,298.01218,293.2195,277.12585,280.18515,286.88364,283.4257
Birmingham,52.481419,-1.89983,0.0018772817,0.0016224617,0.0020330877,0.002535568,0.00021772321,5.3614658e-05,7.931538e-09,4.965837e-05,5.038012,4.1490006,3.7921853,4.198634,278.1772,282.24503,289.2152,283.93433,281.09778,286.6042,294.05316,287.75186,275.174,277.75818,284.24466,280.22656
Blackpool,53.816669,-3.05,0.0037396296,0.0020937917,0.0028813665,0.00414911,0.0002511416,8.2711624e-05,1.2541366e-08,3.2096745e-05,5.907034,4.6447153,4.2235265,4.9091535,278.1537,281.5509,288.05676,283.41412,280.87888,285.29697,291.8111,286.53778,275.36935,277.55435,283.98926,280.2112
Bochum,51.481651,7.21648,0.0032034882,0.0020238583,0.0027380614,0.0026910375,0.00031690855,6.895283e-05,1.3335269e-08,7.2791256e-05,4.5268383,3.511517,3.1411512,3.783788,277.45926,283.39172,291.68695,284.89688,279.7839,287.60992,296.43353,288.5072,275.1054,279.09116,286.91077,281.44455
Bologna,44.493809,11.33875,0.0014036666,0.0026033644,0.0018789321,0.0030019674,0.00026331667,7.80439e-05,1.1281356e-08,8.355616e-05,1.9434448,2.120989,1.930782,1.9368805,277.27426,286.02222,296.72223,288.01556,280.95935,290.5329,301.8804,292.00858,274.19537,281.67657,291.73416,284.5001
Bonn,50.734379,7.09548,0.0023836636,0.0017130725,0.0024758917,0.0020356847,0.00029085952,6.544272e-05,9.69622e-09,5.5373384e-05,4.280542,3.2906601,2.9039369,3.5522914,277.02,283.4085,291.93872,284.85703,279.4902,287.9063,296.99335,288.78204,274.52982,278.8899,286.8937,281.1686
Bordeaux,44.840439,-0.5805,0.0025375618,0.00224759,0.0016630946,0.0027215597,1.27191415e-05,3.6902838e-06,4.334157e-09,7.8752765e-07,3.020917,2.9163508,2.6604528,2.8102474,280.4867,286.19986,294.1391,288.43036,284.46942,291.1924,299.79883,293.63672,276.87595,281.2198,288.45493,283.85895
Bournemouth,50.720482,-1.8795,0.0024567388,0.0017234709,0.0015533589,0.0029437705,6.788344e-05,9.677874e-06,1.03905315e-10,2.9402605e-05,5.5958223,4.518376,4.119693,4.8139114,279.1233,282.71628,289.64917,285.00714,282.0062,286.77728,294.1019,288.71494,275.99905,278.4739,284.99948,281.2761
Bradford,53.793911,-1.75206,0.0030410476,0.0019505281,0.0028010882,0.0032540287,0.00060628436,0.00020746126,3.5908936e-09,7.69956e-05,5.3247285,4.3153505,3.9400208,4.4345555,277.72522,281.26965,288.0843,283.21344,280.3582,285.07977,292.17905,286.38107,275.0938,277.3643,283.79288,280.1089
Braga,41.55032,-8.42005,0.0039751604,0.00344134,0.001462171,0.00451578,8.860542e-06,3.2885941e-06,5.7747753e-09,2.2063766e-06,2.6517067,2.9270964,2.7605042,2.50817,282.37985,286.34918,292.7623,288.70654,286.8446,291.3282,298.4825,293.74664,278.50372,281.58234,287.2333,284.44574
Bratislava,48.148159,17.106741,0.0011940026,0.0018104616,0.002349601,0.0016770577,0.00036998215,3.4597884e-05,1.1937571e-08,8.612114e-05,3.455522,3.2536488,3.0307477,3.2567666,274.99734,284.7424,294.8898,285.19345,277.67993,289.53168,300.33432,289.56705,272.266,279.8482,289.38776,281.0985
Braunschweig,52.265942,10.52673,0.0021132426,0.0017636955,0.0023303884,0.0017203562,0.00023722272,7.025139e-05,1.3876949e-08,6.683245e-05,4.2409825,3.2856605,3.0574727,3.5790153,276.50446,282.58655,291.26794,283.8959,278.91544,286.9414,295.9638,287.66156,273.94934,278.13974,286.48242,280.24258
Braşov,45.648609,25.606131,0.0013196645,0.0026057207,0.0029043737,0.0015225539,0.0010072931,0.00046567564,3.1855677e-07,0.00030084467,1.8762406,1.791864,1.5855143,1.6792256,271.76086,281.27872,291.90228,282.5502,276.09354,287.07602,298.3465,288.72784,267.58774,275.4601,285.43552,277.03397
Breda,51.586559,4.77596,0.0024300963,0.0016460003,0.0022569173,0.0023204288,0.00012121063,1.6324837e-05,1.2199384e-08,1.3735093e-05,4.806595,3.872868,3.4246678,3.9813201,278.07324,283.18427,291.20282,284.8687,280.88773,287.69785,296.14624,288.90933,275.26477,278.50323,286.03497,280.93085
Bremen,53.075161,8.80777,0.0026234686,0.001764602,0.0024483213,0.001960913,0.00019540191,4.8711336e-05,1.1565023e-08,7.739203e-05,4.3333163,3.4887917,3.2568004,3.737185,276.91055,282.61978,291.0051,284.12625,279.32132,287.0193,296.0341,287.94156,274.37283,278.14215,285.88815,280.39554
Brescia,45.52478,10.22727,0.001249938,0.0034099557,0.0031574566,0.0034682215,0.00039750923,0.00040540053,1.2703905e-08,0.00021390556,1.3771698,1.401995,1.331085,1.3627099,275.29172,284.2558,294.5954,285.76636,279.34787,288.80383,299.50916,289.73392,271.8516,279.6624,289.74713,282.11542
Brest,48.400002,-4.48333,0.0030381053,0.0020085294,0.0015883187,0.0035445008,3.7030004e-05,3.3598149e-06,3.0069143e-09,7.671472e-06,5.999229,5.11369,4.385325,5.0538416,280.756,283.76105,289.86176,286.517,283.1397,287.09198,293.52185,289.6596,278.18097,280.31528,286.1581,283.45828
Brighton,50.828381,-0.13947,0.001983179,0.0013857242,0.0015303346,0.0026825133,0.0001598107,1.687712e-05,2.248114e-09,3.2251068e-05,5.214702,4.287019,3.8379753,4.4162583,278.73123,282.7243,289.95538,285.14557,281.42703,286.68597,294.2342,288.74493,275.89337,278.5878,285.47324,281.52115
Bristol,51.455231,-2.59665,0.0023901497,0.0017536348,0.0019065166,0.0029710238,0.00015621906,3.2421573e-05,4.1032746e-09,5.1555682e-05,4.916714,4.096824,3.744632,4.1124773,278.4724,282.43854,289.47797,284.30484,281.28384,286.69775,294.0006,287.9499,275.48962,278.04123,284.75525,280.69214
Brno,49.195221,16.60796,0.0012516321,0.0015770126,0.0024223686,0.001522301,0.0005630402,0.0001215318,1.2138796e-08,0.00010333138,3.4404006,3.1797454,2.851696,3.1030695,274.0783,283.30405,293.32278,283.92184,276.4838,288.0748,298.8498,288.10825,271.54977,278.32938,287.66815,279.92755
Brugge,51.20892,3.22424,0.002356355,0.001582196,0.002568558,0.002569344,9.466294e-05,1.3597237e-05,5.997957e-09,1.9255665e-05,5.5562396,4.552327,4.0271044,4.7151937,278.0902,283.0074,290.82196,285.54968,280.44537,286.55933,294.68753,288.82248,275.72433,279.29813,286.7062,282.28717
Brussels,50.850449,4.34878,0.002413606,0.0017176606,0.0023592326,0.0020904136,0.00013356599,2.8497696e-05,9.412308e-09,1.5432734e-05,4.8035126,3.8494058,3.3911834,3.9979808,278.06747,283.49765,291.61563,285.19232,280.8312,287.92212,296.52194,289.18066,275.31055,278.92584,286.5254,281.31842
Bucharest,44.432251,26.10626,0.0015554428,0.0019853257,0.0019316198,0.0014827473,0.0006325051,9.3448194e-05,9.772357e-09,0.00011777818,2.6567943,2.5962415,2.2312326,2.3539805,274.7684,285.2342,297.15936,286.48547,278.46744,291.27972,304.05682,292.60062,271.2453,279.19183,290.19592,280.81934
Budapest,47.498009,19.039909,0.0009820451,0.0016102878,0.0020575747,0.0014707989,0.00028620524,4.2309046e-05,1.2347707e-08,8.466397e-05,2.792229,2.6550248,2.5461526,2.7204947,274.15073,284.60205,295.00153,285.14606,277.81302,290.33282,301.46982,290.7784,270.3599,278.64218,288.1756,279.83615
Burgos,42.349998,-3.7,0.0015888714,0.0023706357,0.0010233059,0.0018573168,0.0003518977,0.0001346228,6.866644e-07,9.0076755e-05,2.949193,2.9584777,2.6490037,2.8130286,277.68216,282.61136,291.81073,285.6259,281.9568,287.9076,299.13077,291.4349,273.67493,277.48462,285.00067,280.33746
Bydgoszcz,53.123501,18.00762,0.0018367093,0.0013007727,0.0022710057,0.0012648,0.00060619717,0.00011273169,7.890784e-09,0.00012224223,4.1774206,3.2865803,3.0825534,3.6848443,275.20764,282.36856,292.09088,283.1501,277.3375,286.74484,296.95688,286.90936,272.94666,277.6875,286.79547,279.37845
Cagliari,39.207378,9.13462,0.002419123,0.0016806595,0.0003691375,0.0021521284,4.342487e-05,4.3281725e-07,1.82396e-09,3.479769e-09,3.1255815,3.2055275,2.8649273,2.833215,283.43335,287.75165,297.58057,292.57855,287.1969,291.98474,302.51205,296.75385,280.0713,283.76825,292.79263,288.90826
Cambridge,52.200001,0.11667,0.0012857907,0.0012035373,0.0016997574,0.0020189064,0.00013365292,2.1105996e-05,8.964712e-09,1.7569608e-05,5.2875705,4.315718,3.9060478,4.4633727,278.03723,282.51547,289.66205,284.40393,280.98196,287.00882,294.68463,288.3609,275.00052,277.9291,284.56247,280.55106
Cardiff,51.48,-3.18,0.0029901362,0.002065441,0.0021322866,0.0036070365,0.00019012917,5.4134696e-05,3.2908745e-09,3.588947e-05,5.0236573,4.141938,3.8103588,4.2031655,278.574,282.3086,289.1639,284.2812,281.34137,286.4263,293.51614,287.8516,275.63785,278.03943,284.58383,280.74106
Cartagena,37.605122,-0.98623,0.001041728,0.0009825788,0.00026790108,0.0010894838,6.46668e-08,9.1748554e-08,7.006948e-10,7.3988815e-07,3.754262,4.1523542,3.617354,3.8245456,285.7631,289.4221,297.81976,293.41864,289.30667,292.6829,300.95078,296.72037,282.90994,286.11755,294.55457,290.52945
Catania,37.502129,15.08719,0.0022464634,0.001234422,0.00030487403,0.0016152894,6.756626e-05,5.2678943e-06,2.3611796e-10,4.502007e-07,2.119422,2.217867,1.7276733,1.7545192,283.76712,287.9135,298.35083,292.83813,286.36414,290.99805,302.13455,295.91953,281.3965,284.9306,294.51846,290.17755
Chemnitz,50.833328,12.91667,0.0021710983,0.0019982257,0.0030580517,0.0019417122,0.00072680286,0.00025142604,1.25662964e-08,0.00013249562,4.1352034,3.1017766,2.8327477,3.368547,274.89056,282.8191,292.2346,283.5743,277.36282,287.61566,297.56137,287.7287,272.4045,277.92264,286.82834,279.6417
Chişinău,47.005562,28.8575,0.0009370784,0.0013945025,0.0018318882,0.0011843324,0.0004335255,0.00011391719,9.034972e-09,0.00014555054,3.1647217,3.0588727,2.7724278,3.0676713,273.40057,283.7591,295.97552,284.887,276.019,288.4454,301.2407,289.45697,270.5195,278.94183,290.2593,280.36545
Clermont-Ferrand,45.779659,3.08628,0.0020573153,0.0025206173,0.0026342582,0.002851206,0.00033883017,0.00012930286,7.947965e-09,8.813331e-05,3.0196595,2.74462,2.3438787,2.7628796,275.98294,282.1626,291.21478,284.48798,280.1265,287.45215,297.4237,289.63995,272.2721,276.88614,284.95004,279.83997
Cluj-Napoca,46.76667,23.6,0.0012202384,0.0022519645,0.0025924465,0.0013293274,0.00074039644,0.00024396213,1.3286162e-06,0.00010095863,1.9652234,2.0462742,1.8478066,1.9103928,271.72754,282.25513,292.64355,283.15677,275.30234,287.7399,298.79214,288.95578,268.01395,276.6795,286.31644,277.82092
Coimbra,40.205639,-8.41955,0.002698773,0.0025021187,0.00096704566,0.0028675594,1.7222585e-06,7.876522e-08,6.9185675e-09,6.8206467e-09,2.9816666,3.2509754,3.1686165,2.7793117,284.33914,288.35904,294.88794,290.8532,289.06802,293.75726,301.40894,296.3259,280.37778,283.40793,289.06058,286.45813
Como,45.809978,9.08744,0.0017599008,0.004892637,0.0047907964,0.005119471,0.0009694763,0.0011098029,3.0680003e-05,0.0007898721,1.360264,1.3169442,1.2613719,1.2379558,274.25516,281.22662,291.30023,283.40268,277.91418,285.26215,295.89093,287.06436,271.06976,277.14163,286.67136,279.97186
Constanţa,44.183331,28.65,0.0009828653,0.0014034581,0.0011289031,0.0018060931,0.0002406899,6.526589e-05,1.0476409e-09,7.9215664e-05,4.2229733,3.6360035,3.280416,3.5730042,276.0012,284.46255,296.4485,287.27246,279.19836,288.8308,301.529,291.67636,272.88043,280.19153,291.31793,283.18903
Copenhagen,55.675941,12.56553,0.001795889,0.0012469072,0.001912907,0.0020066893,0.00036698385,8.3802486e-05,4.2749297e-09,5.699312e-05,5.561924,4.7262673,4.234667,5.132174,275.5919,281.40585,290.69748,283.33862,277.77884,284.86957,294.61618,286.23172,273.1602,277.57785,286.1048,280.30585
Cork,51.897968,-8.47061,0.0038170754,0.0025655788,0.0026508898,0.0039013852,5.089627e-05,8.482688e-06,7.37901e-09,1.0462205e-06,5.1774945,4.2491574,3.8703263,4.283939,279.58307,282.21735,288.21457,284.02884,282.26584,285.89703,291.8241,287.1326,276.82864,278.50153,284.5096,280.98734
Coventry,52.406559,-1.51217,0.0016666609,0.0015013508,0.0020026683,0.002327647,0.00019382298,4.7054993e-05,1.2181789e-08,3.3991288e-05,5.2535343,4.318614,3.9446406,4.4259477,278.19138,282.3468,289.39185,284.08133,281.1715,286.76935,294.32797,287.95538,275.14264,277.8457,284.3608,280.32355
Córdoba,37.883331,-4.76667,0.0016607087,0.0018549401,0.0004113155,0.0021188047,2.808838e-05,1.6361795e-07,1.95259e-09,8.8142053e-07,2.1289878,2.3241622,2.2158074,2.0849528,282.56165,289.03015,299.5316,291.55978,288.72488,295.91632,307.89508,298.1768,277.34805,282.1364,290.81256,285.49594
Debrecen,47.533329,21.633329,0.0009974233,0.0016449487,0.002049415,0.0013698156,0.0002462399,3.0305577e-05,7.558925e-09,2.2160588e-05,2.681684,2.6319354,2.3884635,2.5609212,274.16812,285.06647,295.61264,285.6343,277.44824,290.59705,301.81555,291.01038,270.7977,279.5159,289.2459,280.64667
Derby,52.922771,-1.47663,0.0019993612,0.0016454216,0.0022056154,0.0026026585,0.00030701823,0.00011121336,1.0044653e-08,4.076404e-05,5.3404436,4.382901,4.0042286,4.4913006,277.95264,281.8773,288.84344,283.67914,280.74966,286.01053,293.428,287.2311,275.13913,277.6899,284.1684,280.2544
Dijon,47.316669,5.01667,0.0023223704,0.0022907283,0.0022462434,0.002450502,0.00024579884,3.1292955e-05,1.3105348e-08,5.5455865e-05,3.4285765,3.107343,2.765925,3.1544185,276.787,284.02377,293.1622,285.53082,279.89252,289.0202,298.95514,290.00946,273.73715,278.91513,287.32397,281.41342
Donostia / San Sebastián,43.312832,-1.97499,0.0041032988,0.004030495,0.0022746087,0.004360472,6.318811e-05,1.502835e-05,1.623671e-07,4.784636e-06,4.4851604,3.871849,3.349839,4.006277,282.9923,286.06418,293.33905,289.73242,285.79614,288.90253,296.54388,292.80804,280.38873,283.241,290.2535,286.91205
Dortmund,51.514938,7.466,0.0033393407,0.0020792205,0.0027448738,0.0027337633,0.00040652053,9.359693e-05,1.367646e-08,8.3316656e-05,4.5191293,3.485644,3.122365,3.775662,277.02786,283.0816,291.41907,284.52756,279.35504,287.3183,296.18433,288.14368,274.6469,278.7552,286.61465,281.0644
Dresden,51.050892,13.73832,0.0023771133,0.0019820486,0.0031248885,0.0019264624,0.0008503763,0.00027282126,2.1064013e-08,0.00013753978,3.8978088,2.9886065,2.7399428,3.1967943,274.81622,282.98993,292.54175,283.68805,277.31296,287.84772,297.8227,287.82217,272.3051,277.96368,287.0387,279.71686
Dublin,53.333061,-6.24889,0.0029627935,0.0022568146,0.002506737,0.0031498603,9.729817e-05,4.4709286e-05,1.2584165e-08,1.4283258e-05,5.382508,4.4024596,3.870245,4.4890475,279.15704,281.87384,288.16635,283.80453,281.9669,285.63116,292.02167,287.07605,276.40515,278.1698,284.30075,280.53302
Duisburg,51.432468,6.76516,0.0026494728,0.0017040784,0.002446479,0.0022500367,0.00019373302,2.6177368e-05,8.866581e-09,3.6429625e-05,4.423848,3.464278,3.0966544,3.6965408,277.8889,283.63214,291.88947,285.16364,280.3279,287.99408,296.8327,288.93283,275.46106,279.21527,286.94012,281.5653
Düsseldorf,51.221722,6.77616,0.0027306417,0.001778648,0.0025959997,0.0022955756,0.00021641543,2.902773e-05,1.1091852e-08,3.6159054e-05,4.401848,3.4362876,3.0637212,3.6819706,277.92392,283.93848,292.27435,285.46173,280.35425,288.30148,297.2122,289.2294,275.51218,279.54877,287.37842,281.89215
Eastbourne,50.768711,0.28453,0.0022700832,0.0014594906,0.0015625285,0.0030869865,0.00017450824,1.5123705e-05,0.0,3.166183e-05,5.4445796,4.4591665,3.9753692,4.6279674,279.47073,282.98395,290.15445,285.87933,281.75153,286.26315,293.51712,288.8265,277.0444,279.5252,286.5615,282.8791
Edinburgh,55.952061,-3.19648,0.0025017613,0.0014912838,0.0024619098,0.0024192424,0.00043388095,0.00011180628,6.9592523e-09,6.547487e-05,5.340085,4.4568706,3.840715,4.40904,277.25372,280.67245,287.14716,282.37537,280.10184,284.51886,291.2119,285.6212,274.43912,276.69855,282.96133,279.07776
Eindhoven,51.44083,5.47778,0.002456964,0.0016420719,0.0021047182,0.0021256546,0.000120292396,2.1702059e-05,7.863653e-09,1.8793979e-05,4.6176677,3.6766052,3.2668324,3.8169334,277.91428,283.26697,291.31256,284.7544,280.77957,287.97855,296.5997,288.97852,275.04163,278.409,285.85767,280.6546
Elche,38.26218,-0.70107,0.0005673528,0.0010226432,0.00035426748,0.0011192582,5.743197e-07,7.48501e-07,3.0230392e-09,7.6348863e-07,2.5583072,2.564814,2.3919497,2.2999647,285.15152,289.8679,299.23468,293.31808,291.13248,295.72305,305.1895,299.07938,280.161,284.22867,293.42957,288.2503
Erfurt,50.978699,11.03283,0.0020357827,0.0017331596,0.0023213024,0.0018465659,0.00053927884,0.00014256171,1.150987e-08,8.473258e-05,3.9485548,3.082627,2.7986321,3.27527,274.88034,282.13263,291.17212,283.20367,277.32507,286.65692,296.0832,287.15918,272.40247,277.45978,286.1267,279.4125
Espoo,60.2052,24.652201,0.0025932905,0.0014060613,0.0022027316,0.0027927032,0.001866071,0.0003479686,7.91723e-07,0.0003038119,4.205236,3.488605,3.3287082,3.9886956,269.914,277.75217,289.90143,279.20282,272.60864,282.26776,294.82556,282.34378,266.60202,272.55005,283.99704,275.76337
Essen,51.45657,7.01228,0.0029264803,0.001863968,0.0025922707,0.002470537,0.0002553208,4.7565096e-05,1.11009255e-08,5.461044e-05,4.475343,3.4878972,3.1189027,3.7401643,277.67404,283.51193,291.7882,285.03033,280.05594,287.80206,296.63312,288.72,275.28323,279.15323,286.92545,281.5049
Ferrara,44.826778,11.62071,0.0010505454,0.0024313661,0.0019763326,0.0025315997,9.039701e-05,5.1001272e-05,1.9201888e-08,3.229784e-05,1.8599514,2.0361257,1.8558584,1.9363836,277.31027,286.9771,297.604,288.39008,281.4343,291.8121,302.95367,292.70123,273.9652,282.2982,292.45978,284.5769
Firenze,43.76667,11.25,0.001795397,0.0027536603,0.0015971704,0.0035879433,0.0001619226,2.7721257e-05,4.7932995e-09,5.147506e-05,1.9837754,1.9090363,1.6987871,1.8849633,278.481,285.5,295.90738,288.16638,282.1588,290.06992,301.4942,292.45917,275.1952,280.93036,290.29138,284.24408
Frankfurt am Main,50.11552,8.68417,0.0022590177,0.0017939683,0.0023134158,0.0020895018,0.00030566557,3.773378e-05,1.3931914e-08,4.035784e-05,3.4521658,2.8650866,2.5665119,2.8852994,275.8879,283.7177,292.68192,284.5116,278.57843,288.79022,298.2251,288.77402,273.25427,278.61362,287.21222,280.56348
Freiburg,47.995899,7.85222,0.0031497208,0.0028269938,0.0034523688,0.002950082,0.0009344199,0.00022019292,4.3097607e-06,0.00013552795,2.6080835,2.2819536,2.0166583,2.191257,275.00467,282.54144,291.9251,283.94992,277.66187,287.1539,297.24066,288.01498,272.48935,278.03345,286.7166,280.3641
Gdańsk,54.352051,18.64637,0.0022735423,0.0013906742,0.0021329245,0.0021973387,0.00074760744,0.00017301773,5.6687766e-09,0.00019323215,5.585226,4.318584,3.9970176,5.031625,274.45297,281.50314,291.09134,282.7414,276.5556,285.19727,295.17047,285.9355,272.13983,277.22327,286.15195,279.47015
Gdynia,54.51889,18.531879,0.0022735423,0.0013906742,0.0021329245,0.0021973387,0.00074760744,0.00017301773,5.6687766e-09,0.00019323215,5.585226,4.318584,3.9970176,5.031625,274.45297,281.50314,291.09134,282.7414,276.5556,285.19727,295.17047,285.9355,272.13983,277.22327,286.15195,279.47015
Gelsenkirchen,51.5075,7.12283,0.0029264803,0.001863968,0.0025922707,0.002470537,0.0002553208,4.7565096e-05,1.11009255e-08,5.461044e-05,4.475343,3.4878972,3.1189027,3.7401643,277.67404,283.51193,291.7882,285.03033,280.05594,287.80206,296.63312,288.72,275.28323,279.15323,286.92545,281.5049
Gent,51.049999,3.71667,0.0021560257,0.0015389894,0.0024986856,0.002197971,0.000108520624,1.936629e-05,5.0008024e-09,1.3045717e-05,4.77966,3.9194317,3.4393642,4.0022035,277.74146,283.26025,291.25818,285.28647,280.30624,287.4267,295.88022,288.98947,275.22147,278.95724,286.41132,281.65698
Gijón,43.535728,-5.66152,0.0029303015,0.0031638786,0.0017870475,0.0035659368,0.00031649886,0.00013386275,3.3973404e-06,7.791795e-05,2.449677,2.3852725,2.2534308,2.341324,281.30472,284.87253,292.25848,287.74442,285.42673,289.49548,297.67587,292.48956,277.4708,280.21698,286.81134,283.2726
Glasgow,55.86515,-4.25763,0.0057334215,0.002887668,0.0032957506,0.004930304,0.0009851549,0.00027936813,6.471461e-08,0.0001550045,4.549631,3.965176,3.3370824,3.7921226,276.49832,280.02277,286.54742,281.66766,278.8585,283.75873,290.37247,284.52103,274.12256,276.14526,282.45868,278.7044
Granada,37.188171,-3.60667,0.001564625,0.0015174879,0.00036777084,0.0017112065,0.00013001497,1.789255e-05,1.1895167e-09,1.2464009e-05,1.4489257,1.7451311,1.4855988,1.5393074,281.24844,286.72113,297.37482,289.82684,286.82767,292.44366,304.14932,295.7852,276.56442,280.6269,289.57037,284.26004
Graz,47.066669,15.45,0.001210913,0.0028647748,0.004040002,0.0026633574,0.00076902105,0.00027281765,9.448915e-07,0.00036656973,1.7523278,1.9362084,1.6567017,1.6842775,273.22314,282.62994,292.63232,283.57062,276.64764,287.78992,298.0916,288.40652,270.09338,277.51422,287.11737,279.24475
Grenoble,45.166672,5.71667,0.002625023,0.003136741,0.0026743354,0.003800129,0.0013654153,0.0005145406,6.2747336e-06,0.0002728777,1.5642375,1.7070227,1.7662392,1.6095883,274.7955,281.20892,291.10007,283.768,278.07245,285.42432,296.1175,287.45938,271.70657,276.7881,285.58896,280.16974
Groningen,53.21917,6.56667,0.0027845001,0.0015680818,0.0024173805,0.0024824888,0.00020274964,3.6198726e-05,3.4128997e-09,5.199244e-05,5.3634367,4.356787,3.9500413,4.555754,277.20102,282.1682,290.0003,283.99976,279.75967,286.45816,294.7646,287.97495,274.55533,277.67496,284.79938,280.06805
Göteborg,57.707161,11.96679,0.0030723477,0.0018766711,0.0025284658,0.0034164581,0.0007417727,0.00023572329,4.4138875e-09,9.6535594e-05,4.4789424,3.8964977,3.516193,4.3056645,274.71378,280.25287,289.6824,282.21857,276.96222,283.85468,293.54602,284.9669,272.08224,276.28357,285.18402,279.3208
Haarlem,52.38084,4.63683,0.0026936366,0.00168276,0.0022865473,0.0032388673,9.7164746e-05,1.30893695e-05,7.097062e-09,1.1503686e-05,7.155617,5.542138,4.89064,6.042866,278.1661,282.38986,289.91406,285.30045,280.11917,285.30212,293.04544,288.02106,276.1388,279.3028,286.3508,282.55084
Hagen,51.360809,7.47168,0.0033393407,0.0020792205,0.0027448738,0.0027337633,0.00040652053,9.359693e-05,1.367646e-08,8.3316656e-05,4.5191293,3.485644,3.122365,3.775662,277.02786,283.0816,291.41907,284.52756,279.35504,287.3183,296.18433,288.14368,274.6469,278.7552,286.61465,281.0644
Hamburg,53.575321,10.01534,0.0026564277,0.0018550229,0.002642504,0.0021009443,0.00028183757,0.00010032939,9.704115e-09,7.9734935e-05,4.4073834,3.5999916,3.3693435,3.8398979,276.731,282.24918,290.93573,283.9368,279.07764,286.33185,295.54855,287.49252,274.21463,278.03326,286.14114,280.4592
Hannover,52.370522,9.73322,0.002504146,0.00180021,0.002310988,0.0018301725,0.00024386751,6.006554e-05,1.4945666e-08,8.3184816e-05,4.246834,3.357469,3.1404338,3.6157672,276.53015,282.56024,291.0784,283.93933,279.00058,287.046,296.13348,287.8399,273.8999,277.9775,285.92578,280.15186
Harrogate,53.99078,-1.5373,0.002266901,0.0016064899,0.002342557,0.00255532,0.0003874069,0.0001210895,7.7729965e-09,5.47321e-05,5.362562,4.3611693,3.9041486,4.403947,277.41916,281.18185,287.96533,283.02957,280.23416,285.10437,292.23782,286.42883,274.62708,277.11407,283.46313,279.72247
Heidelberg,49.407681,8.69079,0.0023465583,0.0019332564,0.0024112384,0.002145528,0.00033864134,3.2907345e-05,1.5350807e-08,4.8394933e-05,3.3797655,2.787151,2.5180697,2.8192186,276.11362,284.20673,293.45126,285.0125,278.96255,289.4426,299.19635,289.47772,273.34073,278.99213,287.83716,280.9523
Helsinki,60.169521,24.93545,0.0027172267,0.0014128754,0.0021713905,0.003033282,0.0017561733,0.00030493314,3.0983365e-08,0.00026928127,5.656982,4.422453,4.299685,5.4589996,271.10464,277.12646,289.7348,280.4258,273.03397,280.1464,292.83215,282.61572,268.78284,273.6745,286.08432,278.02792
Hoofddorp,52.302502,4.68889,0.0026936366,0.00168276,0.0022865473,0.0032388673,9.7164746e-05,1.30893695e-05,7.097062e-09,1.1503686e-05,7.155617,5.542138,4.89064,6.042866,278.1661,282.38986,289.91406,285.30045,280.11917,285.30212,293.04544,288.02106,276.1388,279.3028,286.3508,282.55084
Hull,53.744598,-0.33525,0.001386269,0.0012436837,0.0020874732,0.0019764511,0.00013494556,2.8172857e-05,1.0859692e-08,1.2803907e-05,5.681317,4.7153344,4.215109,4.8609276,278.029,281.87195,288.8643,283.96786,280.86038,285.77878,293.2958,287.48837,275.2651,277.87228,284.35324,280.57883
Innsbruck,47.262661,11.39454,0.0023525134,0.0033911509,0.005912849,0.0033604242,0.0021908032,0.0018647376,0.00012417938,0.0011419852,1.3270597,1.2577775,1.104019,1.2071451,270.52832,277.17575,287.53244,279.8496,273.77783,280.96512,291.74817,283.5105,267.28354,273.27246,283.43652,276.49863
Jerez de la Frontera,36.686451,-6.13606,0.0023558023,0.0019651717,0.00023841448,0.002644832,9.231951e-06,7.9007144e-08,2.1534818e-10,5.742024e-09,3.4076157,3.6497452,3.3561358,3.3621469,285.82425,290.47662,298.16248,293.4411,290.94974,295.7416,304.1029,298.64658,281.3924,285.2453,292.2772,288.86237
Kaliningrad,54.70649,20.51095,0.0028048477,0.0014439275,0.0024605661,0.0028138065,0.00095621194,0.0001278994,7.746924e-09,0.00021716084,4.590016,3.5945823,3.3460033,4.2490387,273.93314,281.04117,291.42572,282.41132,275.8628,285.0302,295.76257,285.56784,271.71988,276.6238,286.4864,279.22723
Karlsruhe,49.004719,8.38583,0.0028738983,0.002248731,0.0027285551,0.0023369375,0.0005607393,8.301489e-05,1.4582928e-08,8.6026455e-05,3.2896652,2.7005486,2.415749,2.7141318,275.80368,283.75705,293.11676,284.80444,278.6438,288.83417,298.77228,289.26624,273.04065,278.7142,287.60812,280.7917
Kassel,51.316669,9.5,0.0026864624,0.001813327,0.0024201355,0.0020850082,0.0004055526,9.294994e-05,1.1487408e-08,7.836472e-05,4.0023756,3.1359742,2.8167486,3.3602939,274.9507,281.72458,290.48254,282.97064,277.1856,285.99506,295.2591,286.62436,272.65143,277.33673,285.6415,279.44855
Katowice,50.258419,19.02754,0.002303593,0.0020893195,0.002807338,0.0018626855,0.0010940655,0.00017212545,1.4089427e-08,0.00012939834,4.1255784,3.1331148,2.781072,3.4176292,274.3869,282.69806,292.59262,283.62778,276.98312,287.78497,298.12787,288.24994,271.48755,277.30676,286.69464,279.2411
Kaunas,54.900002,23.9,0.0022077537,0.0014983213,0.0025561987,0.0020533344,0.0011196035,0.00016553109,1.2468659e-08,0.0001532565,4.1323533,3.3655381,3.0870433,3.912045,272.68143,280.88443,291.8379,281.38318,274.6038,285.4732,296.9063,284.7785,270.34998,275.7707,286.0954,277.80963
Kiel,54.321331,10.13489,0.0026510558,0.0016248642,0.0025996105,0.0024480112,0.0002604568,7.0774644e-05,1.0309249e-08,4.92891e-05,5.1341343,4.381155,4.0083823,4.602574,276.54,281.82886,290.46014,283.83203,278.59653,285.23907,294.327,286.7768,274.29193,278.2331,286.28506,280.90875
Kiev,50.454659,30.5238,0.0013488685,0.0016676153,0.0023182645,0.0014717889,0.00085118733,0.00023278741,2.151293e-07,0.00020561411,3.9070234,3.389644,3.004275,3.630761,272.2014,282.96613,294.82367,282.4958,274.15628,287.35147,299.66083,286.26007,269.92606,278.16864,289.3991,278.61847
Košice,48.713951,21.25808,0.0013292829,0.0019161133,0.002946121,0.0019348944,0.0007647159,0.00011141837,1.3554955e-08,0.00016052244,2.3583071,2.4177518,2.212646,2.2278438,272.1076,281.9948,292.2504,282.67468,274.80685,287.28845,298.10425,287.60208,269.3512,276.52557,286.06042,277.9698
Kraków,50.061432,19.936581,0.0018804847,0.002241693,0.003104383,0.0019152856,0.0011193142,0.00028105057,2.1401585e-08,0.00018318678,3.4824317,2.7863927,2.5068338,2.9251099,273.03888,281.7589,291.90027,282.69464,275.98352,286.9768,297.70438,287.61795,269.81613,276.2363,285.73074,278.05673
Krasnodar,45.044842,38.976028,0.0032552294,0.0021457854,0.002044872,0.002078089,0.00064431014,0.00010679208,6.3733494e-09,4.492628e-05,3.7099478,3.4005249,2.8849676,3.2869534,276.41187,284.8168,297.7722,287.06854,279.40924,289.03674,302.35226,291.27954,273.42786,280.42303,292.88678,283.13785
Krefeld,51.339211,6.58615,0.0025791249,0.0016461223,0.0024024707,0.002193872,0.0001778476,2.3976865e-05,9.769495e-09,2.934979e-05,4.418377,3.4733958,3.108258,3.68666,277.90097,283.55963,291.80164,285.07608,280.42892,288.03476,296.86926,288.9806,275.38358,279.0128,286.71243,281.337
Köln,50.933331,6.95,0.002792214,0.0018725339,0.00265203,0.0023542081,0.0003043455,6.4177075e-05,1.0873922e-08,5.8518235e-05,4.376114,3.3847394,2.999525,3.6507497,277.369,283.59415,292.02914,285.07465,279.78793,287.98013,296.9683,288.86893,274.93945,279.17926,287.1114,281.49628
L'viv,49.838261,24.023239,0.0016972409,0.0020009123,0.0027856142,0.0016439187,0.0008783428,0.00022780134,1.2230561e-08,9.9436125e-05,4.233479,3.3443642,2.8657262,3.699789,272.71222,282.28467,293.0023,282.94598,274.95963,286.99005,298.32245,287.3498,270.09946,277.24725,287.33124,278.67853
La Spezia,44.110538,9.84339,0.0022200847,0.0031841905,0.0015847115,0.0046937778,9.8896046e-05,5.877507e-05,1.7991397e-07,3.552314e-05,2.7199504,2.3637824,1.9622667,2.483415,280.06,285.31558,294.9682,288.79913,282.9514,288.3674,298.425,291.6796,277.53683,282.24005,291.42215,286.1362
Lausanne,46.515999,6.63282,0.004013662,0.0037304654,0.0037277292,0.0042166775,0.0019422863,0.0008413585,5.062514e-05,0.00043424306,1.9456519,1.7930266,1.63032,1.7944374,274.455,281.54367,290.7947,283.31845,277.11563,286.12506,296.49664,287.43808,271.9171,277.0318,285.08832,279.54517
Le Havre,49.493801,0.10767,0.002643859,0.0017419455,0.0018407926,0.0030023002,5.8610298e-05,9.156998e-06,1.0376546e-08,1.8273513e-05,5.7624707,4.586778,4.044701,4.939271,279.95847,283.56744,290.78323,286.57083,282.2576,286.82736,294.3128,289.78186,277.6301,280.2419,287.09763,283.47504
Le Mans,48.0,0.2,0.0024981909,0.0018201445,0.001592914,0.002356969,4.267276e-05,9.324391e-06,8.152506e-09,1.2444898e-05,3.9389887,3.441169,3.0413234,3.4177728,278.93192,284.2403,292.17453,286.17697,282.07892,289.119,297.7893,290.88403,275.74945,279.19196,286.2747,281.66556
Lecce,40.357029,18.17202,0.0018145225,0.0016754925,0.0007743228,0.0026103822,3.969642e-06,1.536891e-07,1.0900987e-09,1.629802e-06,3.8309958,3.5453172,3.059385,3.3988261,283.2593,288.47272,299.30374,292.48862,286.88873,292.75296,304.34296,296.88394,279.7837,284.24405,294.19012,288.6557
Leeds,53.796478,-1.54785,0.0022307665,0.0016002323,0.0024209102,0.0025739567,0.00039537603,0.00013142946,6.4063754e-09,5.0807044e-05,5.2777176,4.3070354,3.9192288,4.416208,277.84818,281.5063,288.37726,283.4216,280.61755,285.451,292.6735,286.78775,275.1238,277.46594,283.91788,280.1575
Leicester,52.638599,-1.13169,0.0014631804,0.0013673912,0.0018397082,0.0021178029,0.00017339623,3.4322566e-05,1.1885129e-08,1.7812677e-05,5.3896837,4.415776,4.0359025,4.549797,278.0151,282.28183,289.37955,284.05704,281.0414,286.82315,294.48294,288.0628,274.93387,277.67447,284.21704,280.18045
Leipzig,51.339619,12.37129,0.0016421806,0.0014871375,0.0022752155,0.0014981577,0.0003037345,6.11365e-05,1.1508502e-08,5.637806e-05,4.0699043,3.1202257,2.875056,3.3536167,275.81818,283.50702,292.76578,284.21667,278.32782,288.3449,298.09824,288.38605,273.26733,278.5981,287.39526,280.26303
Leuven,50.879589,4.70093,0.002379854,0.0017164178,0.002320868,0.0020288408,0.00013683614,3.331046e-05,1.0194033e-08,1.572559e-05,4.7626777,3.795562,3.3464649,3.95802,277.91574,283.47818,291.6705,285.1281,280.698,288.0255,296.69858,289.18228,275.1335,278.7661,286.451,281.19678
Leverkusen,51.0303,6.98432,0.002792214,0.0018725339,0.00265203,0.0023542081,0.0003043455,6.4177075e-05,1.0873922e-08,5.8518235e-05,4.376114,3.3847394,2.999525,3.6507497,277.369,283.59415,292.02914,285.07465,279.78793,287.98013,296.9683,288.86893,274.93945,279.17926,287.1114,281.49628
Lille,50.632969,3.05858,0.0022337185,0.0016768913,0.002383717,0.002286199,0.00013648317,1.7677872e-05,6.025688e-09,2.1445307e-05,4.695757,3.9049182,3.3803315,3.9424984,277.8027,283.21027,290.89362,285.17142,280.40213,287.41574,295.6708,289.0407,275.21436,278.82928,285.88675,281.38977
Limoges,45.831532,1.2578,0.0029302135,0.0028170557,0.0022470276,0.0030829632,5.4053566e-05,1.1395436e-05,9.787056e-09,1.2282029e-05,3.4769835,3.0212638,2.6246407,3.146627,278.44397,284.36826,292.98337,286.4981,282.27893,289.59927,299.18857,291.7715,274.95193,279.11102,286.6618,281.73276
Lisbon,38.716671,-9.13333,0.0017541928,0.001710815,0.0004631052,0.0024098014,2.2448825e-07,2.621251e-09,2.613864e-09,4.01234e-09,3.4046774,3.9200752,4.2144675,3.3992798,285.67383,289.69702,295.9099,292.35822,289.8719,294.3737,301.55865,296.9214,282.1701,285.55325,291.19144,288.6965
Liverpool,53.41058,-2.97794,0.0026695768,0.0016896616,0.0023836084,0.0032728359,0.00013799254,6.529452e-05,9.098254e-09,2.3328877e-05,5.5888247,4.4468203,4.0907245,4.606123,278.38647,281.80435,288.39096,283.7064,281.0951,285.6292,292.27484,286.95303,275.63162,277.78354,284.3028,280.48163
Livorno,43.542641,10.316,0.0016042147,0.0023384679,0.0012290475,0.0034305297,1.956281e-05,4.2567344e-06,2.386578e-08,4.1823487e-06,2.6843605,2.3037944,1.9845619,2.4532323,280.53113,286.68976,296.784,289.85,284.51245,291.14984,302.04144,294.1549,276.95352,282.12122,291.37015,285.80743
Liège,50.633732,5.56749,0.0028971778,0.0021232408,0.0025231417,0.002267538,0.00034757802,9.7631826e-05,1.5664753e-08,5.0452723e-05,4.858139,3.8007588,3.318859,4.0456257,277.03375,282.9455,291.29584,284.59042,280.17197,287.86942,296.74588,289.1164,273.8967,277.89838,285.64038,280.23447
Ljubljana,46.051079,14.50513,0.0024410256,0.004347007,0.0042456365,0.0053427382,0.0009597579,0.00024714594,1.6316501e-06,0.00047486275,1.8577667,1.8865149,1.5933247,1.7946208,273.7638,282.26837,292.3484,283.88394,277.5224,287.2066,298.04315,288.6688,270.19754,277.37888,286.80463,279.54736
London,51.50853,-0.12574,0.0016477787,0.0012857176,0.0015173566,0.0023267686,0.0001612461,2.0362757e-05,3.2881382e-09,4.3706612e-05,5.073815,4.187897,3.7645156,4.263073,278.17917,282.57465,289.90955,284.58124,281.15076,287.12,295.02448,288.64572,275.10422,277.92316,284.6953,280.5768
Lublin,51.25,22.566669,0.0020495825,0.0020311633,0.0022828057,0.0014738133,0.0009920733,0.00025901714,8.581274e-09,0.00014094521,3.964399,3.095916,2.7647278,3.4778633,273.61252,282.22037,292.63794,282.7691,275.82578,287.0422,297.9406,286.8686,271.01395,277.03003,286.90555,278.68848
Lucca,43.843571,10.50585,0.0019945414,0.0028832196,0.001742813,0.0041498127,0.00016617055,9.50365e-05,2.4792689e-08,7.876038e-05,1.921986,1.7695214,1.5448015,1.7768707,277.7191,283.96237,294.13007,287.05872,281.35458,287.91324,298.71616,290.75122,274.57736,280.0318,289.50235,283.70142
Luimneach,52.664719,-8.62306,0.0039152103,0.0024906644,0.002736879,0.0037446364,7.2709976e-05,1.4125874e-05,1.4222698e-08,1.8952285e-06,4.541624,3.8472595,3.5044246,3.8232887,279.13187,281.96844,288.01865,283.6009,282.02335,285.92206,291.8593,286.935,276.2276,278.0376,284.1088,280.3349
Luton,51.879669,-0.41748,0.0014380305,0.0013114569,0.001677185,0.0021413807,0.00016328032,2.4083045e-05,6.956744e-09,2.379843e-05,5.1493664,4.235974,3.8631618,4.338761,278.0859,282.47296,289.70078,284.3719,281.0493,287.05136,294.81546,288.38705,275.0366,277.82632,284.53885,280.46002
Lyon,45.748459,4.84671,0.0019222732,0.0025436708,0.0023933607,0.0034495243,0.00021338882,3.170419e-05,6.6009873e-09,4.7899935e-05,2.4116595,2.6269746,2.4100575,2.481395,277.0287,284.4948,294.0917,286.31183,280.4697,289.50714,300.0529,290.77795,273.866,279.444,288.16177,282.14035
Lübeck,53.868931,10.68729,0.0026156397,0.0017839819,0.0027290108,0.002215955,0.00027246654,9.923054e-05,4.856385e-09,6.464329e-05,4.9471354,4.0939813,3.795272,4.396455,276.83276,282.0114,290.84927,284.09888,278.90115,285.42032,294.68375,287.08582,274.57968,278.4356,286.79474,281.18018
Maastricht,50.848331,5.68889,0.0025134264,0.0018096438,0.0023023556,0.0020729888,0.00017084605,4.053008e-05,1.0536337e-08,2.620825e-05,4.657896,3.6569862,3.2412536,3.8557858,277.71133,283.4386,291.64365,285.01685,280.6162,288.15363,296.9212,289.3008,274.80814,278.59058,286.2282,280.87897
Madrid,40.4165,-3.70256,0.0012649439,0.0017254201,0.00069697114,0.0017337797,0.00017243905,6.937477e-05,1.3745259e-06,8.3073624e-05,1.9244256,2.248967,2.2209117,2.0057333,279.62527,285.52722,296.87238,288.15018,284.88358,291.21628,304.02533,293.81305,275.05832,279.74112,289.3306,282.88614
Magdeburg,52.127731,11.62916,0.001711158,0.0014217899,0.0020255803,0.0013810691,0.00023120042,5.512796e-05,1.1199228e-08,5.437649e-05,4.00925,3.1652174,2.93955,3.3771317,276.1492,282.91196,291.8437,284.0196,278.58728,287.31464,296.59015,287.88205,273.5816,278.3538,286.9659,280.3099
Mainz,49.984192,8.2791,0.0019994911,0.0016168138,0.0021470396,0.0018656884,0.00028424192,3.8553822e-05,1.24009105e-08,3.960506e-05,3.425802,2.8641567,2.5740447,2.866789,276.0824,283.71472,292.65417,284.54214,278.65524,288.64706,298.10184,288.68787,273.54617,278.74396,287.27603,280.68753
Malmö,55.605869,13.00073,0.0020310045,0.0013386797,0.0019834659,0.0021994628,0.0004988826,0.000103614366,3.4822307e-09,9.735102e-05,5.2892995,4.5387197,4.0543585,4.886673,274.98727,281.33466,290.71414,282.96506,277.28186,285.1061,294.90778,286.03516,272.41473,277.1953,285.7873,279.74564
Manchester,53.480949,-2.23743,0.003270473,0.0021323208,0.0029425595,0.003758892,0.00045291588,0.00014714398,1.2887118e-08,6.857222e-05,5.1145215,4.2199783,3.8337417,4.1900268,278.07812,281.7715,288.48764,283.55704,280.64017,285.59525,292.39667,286.7155,275.49466,277.7827,284.393,280.44244
Mannheim,49.496712,8.47955,0.0023465583,0.0019332564,0.0024112384,0.002145528,0.00033864134,3.2907345e-05,1.5350807e-08,4.8394933e-05,3.3797655,2.787151,2.5180697,2.8192186,276.11362,284.20673,293.45126,285.0125,278.96255,289.4426,299.19635,289.47772,273.34073,278.99213,287.83716,280.9523
Marbella,36.51543,-4.88583,0.0026830419,0.0021570127,0.00022119153,0.0029071546,6.935849e-06,1.6358479e-07,6.8805855e-10,1.0018182e-06,3.5201294,3.435276,2.9766157,3.1262236,285.7118,289.67075,297.40738,292.60974,289.9666,294.01495,302.16058,296.71008,282.02985,285.31754,292.5604,288.96088
Marsala,37.796638,12.43518,0.0027005402,0.00152599,0.0002150219,0.0020005496,1.833093e-05,0.0,0.0,0.0,4.1903934,4.1412454,3.3919034,3.7205207,285.38235,289.4948,299.3339,294.3538,288.30954,293.24762,303.83282,297.98047,282.44348,285.7183,294.65375,291.13525
Marseille,43.296951,5.38107,0.0015492145,0.0021808539,0.0006739572,0.0030433112,3.95241e-06,9.869444e-07,2.6830662e-09,1.2506801e-07,3.7549517,3.7651753,3.28818,3.4829783,281.02072,286.92844,296.52612,290.05203,284.8399,291.30957,301.51862,294.27142,277.76602,282.5589,291.32462,286.23495
Messina,38.193272,15.54969,0.0024624898,0.0015805702,0.00041663213,0.0020088207,5.4783955e-05,3.4065647e-06,1.0610688e-10,1.0924891e-06,2.549845,2.4806247,2.133505,2.09852,284.26474,288.22485,298.6618,293.05484,286.8942,291.3314,302.44324,296.2386,281.863,285.235,294.85892,290.3691
Mestre,45.49028,12.2425,0.0011418794,0.0026939367,0.0026692708,0.0033519156,8.0119746e-05,3.8676975e-05,1.0893168e-07,3.3353783e-05,1.9165171,1.9602544,1.8515854,1.9868488,277.59973,286.2555,296.63052,287.76712,281.5928,290.57428,301.3662,291.9598,274.07864,281.8322,291.84198,283.88507
Metz,49.11911,6.17269,0.0026171745,0.0019534722,0.0022234167,0.002287645,0.00023309868,3.0376506e-05,9.417379e-09,6.883779e-05,4.1254272,3.3881812,3.0033903,3.4825892,276.48822,283.39276,292.24796,284.71835,279.49335,288.286,297.80817,289.19952,273.50223,278.4326,286.58167,280.53824
Milan,45.464272,9.18951,0.0012161592,0.003430099,0.0028600914,0.003748726,9.711907e-05,3.6648158e-05,1.2197291e-06,2.6159269e-05,1.453177,1.6295401,1.5112686,1.4651233,277.3059,286.032,296.19162,287.31097,281.83698,291.14124,301.84808,291.90707,273.72864,281.175,290.86514,283.24823
Modena,44.647831,10.92539,0.0015845182,0.0028023631,0.002007534,0.0033103228,0.0002707184,0.000101563695,1.1687589e-08,0.00012652918,1.736708,1.8624109,1.6698835,1.7087831,276.6119,284.94327,295.65652,287.1083,280.22644,289.33527,300.6704,290.89917,273.61844,280.7527,290.83676,283.77173
Montpellier,43.61092,3.87723,0.0016281457,0.0021847382,0.00087302923,0.003586442,1.870484e-05,1.1941658e-05,4.670793e-09,1.9077847e-06,4.5005784,4.1019106,3.742991,4.091143,281.28564,287.09515,296.49997,289.93304,284.9762,291.2706,301.3092,293.9582,278.1541,283.01248,291.70377,286.33392
Moscow,55.75222,37.615559,0.0018030229,0.0013230895,0.0024600364,0.002125887,0.00158208,0.00024370244,7.8665255e-07,0.00035769772,3.7683184,3.3091292,2.8421752,3.6281714,268.3328,279.7486,292.5542,279.32257,270.69714,284.08295,297.25146,282.27008,265.36557,274.63007,287.2381,276.0683
Mulhouse,47.75,7.33333,0.0027792698,0.0025620759,0.0029517505,0.0028964507,0.0006234992,0.00015337458,1.3751674e-05,0.000106392195,2.4205308,2.1915572,1.9293474,2.0587366,275.33258,282.9966,292.0832,284.30164,277.93765,287.82855,297.6761,288.535,272.93695,278.3774,286.62006,280.5712
Murcia,37.987041,-1.13004,0.0006816736,0.0010190385,0.00032866135,0.0009939936,2.7558772e-06,5.4590424e-07,1.7062979e-09,8.614239e-07,2.386065,2.6563058,2.4118237,2.334318,283.88925,288.95108,298.50708,292.3477,289.91037,294.77487,304.49066,298.1848,279.00192,283.17313,292.48563,287.25806
Málaga,36.720161,-4.42034,0.0016095407,0.0014596077,0.00021701174,0.0022424245,1.31366505e-05,2.9773136e-07,3.845265e-10,9.2609287e-07,2.1274672,2.116871,1.805094,1.9461946,284.4597,289.3849,298.11508,292.13022,289.9009,294.89838,304.00568,297.50638,279.92386,283.70892,291.68478,287.38004
Mülheim (Ruhr),51.433331,6.88333,0.0029264803,0.001863968,0.0025922707,0.002470537,0.0002553208,4.7565096e-05,1.11009255e-08,5.461044e-05,4.475343,3.4878972,3.1189027,3.7401643,277.67404,283.51193,291.7882,285.03033,280.05594,287.80206,296.63312,288.72,275.28323,279.15323,286.92545,281.5049
München,48.137428,11.57549,0.0022696464,0.0028134468,0.0051906505,0.0027803355,0.0012429082,0.00048391326,5.4142527e-07,0.00031039835,2.616495,2.3099437,1.9983867,2.1273944,273.7114,282.07373,292.15125,283.46573,276.96732,287.03094,297.546,288.10016,270.6317,277.2112,287.01953,279.44525
Münster,51.96236,7.62571,0.0027461583,0.0017616184,0.0023799315,0.0021558362,0.00018799533,3.8616374e-05,8.4716865e-09,5.835414e-05,4.5056033,3.5071685,3.1973321,3.736711,277.26413,283.012,291.10248,284.41568,279.65564,287.33408,295.98434,288.18314,274.79114,278.57608,286.1081,280.75153
Namur,50.4669,4.86746,0.0027325943,0.0020390055,0.0024351154,0.002126083,0.0002475295,7.105674e-05,1.25743025e-08,3.4993955e-05,4.8638525,3.8309608,3.33941,4.052474,277.37155,283.2194,291.5424,284.89862,280.46878,288.1807,297.04956,289.46606,274.27008,278.11096,285.79398,280.48206
Nantes,47.217251,-1.55336,0.0028890967,0.0019504998,0.0014236149,0.0028924071,2.244372e-05,5.336465e-06,5.3106213e-09,5.4693164e-06,4.2320604,3.7865853,3.3957474,3.7391706,280.00525,285.0904,292.83923,287.15884,283.2306,289.70404,298.13388,291.75262,276.74924,280.26788,287.32648,282.81146
Napoli,40.833328,14.25,0.002916214,0.0027431422,0.0010443359,0.0035115902,0.00016568681,1.8461724e-05,3.0720684e-09,7.122074e-06,2.3096201,2.0860157,1.6614192,2.0715828,281.909,287.15402,297.90048,291.14157,285.8929,291.51324,302.9179,295.72348,278.21994,282.7526,292.5847,286.91293
Neuß,51.198071,6.68504,0.0025609785,0.0017025108,0.0024648942,0.0021140047,0.0002506365,5.3314405e-05,9.075788e-09,3.8991766e-05,4.5007796,3.4770408,3.1004775,3.7454574,277.39987,283.4139,291.8269,284.97125,280.01376,288.00052,296.9783,288.9785,274.78857,278.78705,286.68573,281.1626
Newcastle upon Tyne,54.973282,-1.61396,0.0018703971,0.00141459,0.0021683248,0.0020685205,0.00026214242,8.730313e-05,3.1299785e-09,2.8651479e-05,5.8396,4.662577,4.062599,4.7166405,277.82898,281.16534,287.60602,283.21762,280.5039,284.73682,291.41342,286.362,275.161,277.44366,283.55203,280.1136
Nice,43.703129,7.26608,0.0023440605,0.0030858994,0.0012027391,0.0044916715,0.00039306172,0.00016561229,0.0,0.00017142508,1.4700345,1.4853175,1.3944299,1.445066,280.43384,285.62338,294.94458,288.98956,284.38504,288.92886,298.30182,292.44727,277.4431,282.12213,290.99042,286.019
Nijmegen,51.842499,5.85278,0.0025989325,0.0016861816,0.002278109,0.002272201,0.00013391871,2.4091243e-05,6.0137944e-09,2.4112178e-05,4.735454,3.753875,3.3481114,3.9067504,277.73358,282.9841,290.87183,284.4762,280.34732,287.5458,295.9908,288.51086,275.08337,278.28613,285.50858,280.55035
Northampton,52.25,-0.88333,0.0014700793,0.00136369,0.0018503818,0.002135414,0.00017750001,2.9409426e-05,1.1897492e-08,2.3221346e-05,5.320322,4.3597646,3.9854,4.4891434,278.06116,282.3876,289.55438,284.1642,281.095,286.9949,294.72427,288.20734,274.94403,277.71936,284.331,280.2381
Norwich,52.627831,1.29834,0.0014510234,0.001265841,0.0017794473,0.0021145623,0.000106343694,1.3928051e-05,4.0841117e-09,1.594203e-05,5.996686,4.7856865,4.2377944,5.1037884,278.1789,282.42935,289.53287,284.77487,280.92664,286.27084,293.9771,288.38818,275.30896,278.43594,284.90503,281.1429
Nottingham,52.953602,-1.15047,0.0014820414,0.0013765183,0.0018982267,0.0020875908,0.00018467403,4.4900888e-05,9.138257e-09,1.9985233e-05,5.4252486,4.446206,4.06153,4.582532,277.9132,282.0141,289.0561,283.82513,280.86945,286.34955,293.93954,287.6472,274.9574,277.61584,284.10742,280.1535
Novi Sad,45.251671,19.836941,0.001090146,0.0019360597,0.002226747,0.001551891,0.00026161538,5.5025746e-05,8.084204e-09,4.5041616e-05,2.67027,2.65603,2.3308496,2.713377,275.4618,285.94995,297.1305,287.24557,278.7659,291.2574,303.12634,292.58896,272.19006,280.63318,290.9756,282.4434
Nîmes,43.833328,4.35,0.0016977844,0.00242387,0.0010982406,0.0041172835,5.8871825e-05,1.214054e-05,2.6925728e-09,9.895724e-06,3.377397,3.3088498,3.2507558,3.1834323,280.11426,286.876,296.733,289.20807,284.31964,292.04645,302.83047,294.02298,276.66312,281.94525,290.7848,284.98358
Nürnberg,49.454208,11.07752,0.0023884445,0.001802926,0.0026488448,0.0020409694,0.0006234297,0.0001248962,1.5087853e-08,0.00010634815,3.4980886,2.8789074,2.5328317,2.8774688,274.21478,282.3697,291.97125,283.34003,276.94717,287.5031,297.64508,287.86978,271.61026,277.24405,286.34836,279.26624
Oberhausen,51.47311,6.88074,0.0029264803,0.001863968,0.0025922707,0.002470537,0.0002553208,4.7565096e-05,1.11009255e-08,5.461044e-05,4.475343,3.4878972,3.1189027,3.7401643,277.67404,283.51193,291.7882,285.03033,280.05594,287.80206,296.63312,288.72,275.28323,279.15323,286.92545,281.5049
Odessa,46.47747,30.73262,0.00087256357,0.0010251951,0.001385547,0.0009862422,0.00026363702,6.43511e-05,5.756419e-09,2.9103529e-05,4.013724,3.7596054,3.4311974,3.8895264,273.94934,283.40396,296.38846,285.34662,276.4003,287.1513,300.80948,289.08707,271.25403,279.54248,291.55463,281.5482
Olsztyn,53.779949,20.49416,0.0023152118,0.0015683044,0.0022727638,0.0018623881,0.0010827578,0.00019834001,1.1460432e-08,0.00026326306,4.4112163,3.410069,3.169296,3.9628086,274.0321,281.4677,291.74612,282.2185,275.90756,285.8349,296.61218,285.76062,271.90176,276.69135,286.33795,278.65045
Oradea,47.066669,21.933331,0.0014358518,0.0020223393,0.0024566124,0.0015708549,0.00051693287,8.6694185e-05,1.8844091e-07,2.7726459e-05,2.3860834,2.3357618,2.0863492,2.242762,273.86096,284.64417,295.22394,285.38437,277.08975,290.02878,301.26166,290.79822,270.55115,279.2289,288.98224,280.35217
Orléans,47.902889,1.90389,0.0019299352,0.0018690719,0.0018372737,0.0022475347,4.5470355e-05,2.3289722e-06,1.2589311e-08,1.4927488e-05,4.1190944,3.5106978,3.1051505,3.5348601,278.60904,284.5134,292.85443,286.34497,281.64157,289.35797,298.60516,290.95786,275.5736,279.4956,286.83002,282.00412
Oslo,59.912731,10.74609,0.002543518,0.0018967979,0.0031181904,0.0037153796,0.0018069409,0.0005896922,1.09362716e-07,0.00032247984,2.6842954,2.700526,2.5056345,2.7379286,270.86136,278.00876,288.3864,279.1335,273.2505,282.32123,293.029,282.20792,268.05707,273.29385,283.23196,276.01062
Osnabrück,52.27264,8.0498,0.0028003326,0.0017863637,0.0024000246,0.0020631282,0.00016576512,3.5816644e-05,7.4891435e-09,6.329571e-05,4.4191346,3.4688268,3.2148888,3.705317,277.08777,282.82928,290.89743,284.19443,279.4339,287.16754,295.83398,287.99896,274.63385,278.41965,285.87244,280.49686
Ostrava,49.834648,18.28204,0.0020103902,0.0021061308,0.0030127275,0.0019032819,0.00094887125,0.00023581786,1.6273239e-08,0.0001443523,3.8811235,3.02123,2.6724465,3.2938335,273.92282,282.4818,292.5764,283.47495,276.48303,287.5309,298.30838,288.0324,271.10925,277.13,286.47858,279.0649
Oulu,65.01236,25.468161,0.0017100913,0.0012074432,0.0020589265,0.0018185638,0.0015181925,0.00042701582,1.0421747e-06,0.0004967238,3.682405,3.4018693,3.0930617,3.765082,264.5823,275.02264,288.75146,276.16006,268.10315,279.12592,292.78973,279.03613,260.50934,269.86563,283.4714,272.88287
Oviedo,43.360291,-5.84476,0.002483418,0.0028416351,0.0017672193,0.0033624992,0.00020131614,0.000103992774,1.5773618e-06,5.867448e-05,2.6265523,2.4996016,2.3328037,2.45713,281.06003,284.58417,291.81726,287.37872,285.15842,289.29547,297.31726,292.16248,277.23712,279.82,286.28482,282.90845
Oxford,51.75222,-1.25596,0.0015996193,0.0014358633,0.0014397895,0.002315356,0.00017832237,5.131924e-05,3.2686187e-09,3.8777216e-05,5.0967436,4.1841626,3.8057518,4.265792,278.29456,282.60498,289.89957,284.48663,281.12357,287.03134,294.80298,288.30322,275.35333,278.12216,284.8753,280.7679
Padova,45.415192,11.88181,0.0011364912,0.0028675098,0.0027703538,0.0032949797,0.000118441465,7.6818156e-05,9.650495e-08,5.823474e-05,1.7149906,1.8133596,1.7083296,1.7938782,276.9347,285.79037,296.13217,287.22574,281.07617,290.24078,300.9862,291.45953,273.3339,281.22156,291.20868,283.27008
Palermo,38.115822,13.35976,0.0032624824,0.002166186,0.0003540721,0.0022244095,7.254941e-05,3.984075e-06,6.3947825e-10,4.7786796e-07,2.6383505,2.6155555,2.0750937,2.2726336,284.17242,288.19757,298.32913,293.11688,286.78235,291.47617,302.34546,296.3418,281.73108,284.99164,294.22992,290.37787
Palma,39.569389,2.65024,0.002426429,0.0018672685,0.00081457134,0.0023721536,3.7317546e-05,9.837767e-07,2.6855913e-09,3.6501277e-08,4.6271257,3.903869,3.1278405,3.96427,285.27185,288.77765,297.6844,293.49854,287.72528,291.31912,300.555,296.13315,282.90158,286.06662,294.85938,291.03616
Pamplona,42.816872,-1.64323,0.0035917847,0.00411521,0.0021528997,0.0039927224,0.00027354842,0.00010884658,3.429547e-06,5.8454538e-05,2.5954542,2.6004229,2.3811781,2.4839346,279.3287,284.20148,293.1091,287.34415,283.47568,288.97824,299.22528,292.47028,275.4961,279.43103,287.21463,282.66248
Paris,48.853409,2.3488,0.0020153858,0.0017027237,0.0020035286,0.0021092612,8.773871e-05,8.588321e-06,1.0820687e-08,2.0230855e-05,4.19893,3.4984088,3.0845878,3.5365167,279.19684,284.93546,293.02222,286.55286,281.72052,289.1136,297.85312,290.32425,276.61752,280.5562,287.9552,282.9162
Parma,44.802662,10.32898,0.0011809946,0.0028594136,0.001990011,0.0030382522,0.0001544164,0.000104098384,4.9483098e-09,0.00011047954,1.5664907,1.7304819,1.567731,1.6080983,276.97906,286.68198,297.34058,288.0465,281.1306,291.72604,302.91364,292.36078,273.61487,281.85638,292.07083,284.24146
Perpignan,42.697639,2.89541,0.0015701074,0.0026999027,0.0011404238,0.0026464802,7.3920855e-05,5.0865794e-05,2.0404398e-09,1.740252e-06,2.8535385,2.903596,2.751485,2.6835284,281.55676,287.0178,296.79556,290.08618,286.33612,291.84424,302.1964,295.08478,277.58063,282.224,291.20197,285.78302
Perugia,43.112202,12.38878,0.0017607547,0.002564048,0.0016496715,0.003797998,0.00038020845,8.155948e-05,7.69501e-09,6.9909525e-05,2.1047306,2.0679405,1.8110561,1.9972627,278.45554,284.82547,295.76703,287.98224,282.11356,289.1961,301.17538,292.20026,275.11414,280.52484,290.45038,284.25888
Piraeus,37.947449,23.637079,0.0019800626,0.0011486944,0.00025399093,0.0014903281,9.849003e-05,6.406421e-05,3.9899714e-10,5.672508e-07,2.436947,2.3780236,2.5461907,2.3007026,282.11813,287.65167,299.29486,291.72122,285.95804,292.72928,305.27402,296.63007,278.35568,282.7041,293.07584,287.2634
Pisa,43.71553,10.39659,0.0016672731,0.0024778456,0.0013752908,0.0036704405,2.980863e-05,4.8977327e-06,3.993197e-08,6.7868796e-06,2.0950944,1.8603268,1.615951,1.9414985,280.00934,286.36362,296.31247,289.41043,284.20264,290.9583,301.65207,293.8457,276.36755,281.7055,290.88812,285.32214
Ploieşti,44.950001,26.01667,0.00130042,0.0022181415,0.0024574825,0.0014527411,0.0007704806,0.00023055675,1.384421e-07,0.00022816107,2.273326,2.2335591,1.9729831,2.0476956,273.42807,283.4592,294.8504,284.72574,277.45267,289.3487,301.4593,290.84552,269.7155,277.49448,288.08624,279.15637
Plovdiv,42.150002,24.75,0.0019820917,0.0025441586,0.0018170036,0.0019723913,0.0009627353,0.000271365,1.1236472e-07,0.00014002102,1.6152705,1.7036021,1.6888244,1.5191623,273.74908,282.67322,294.71503,285.0137,277.6995,288.08865,301.2997,290.77197,270.00186,277.10205,287.67178,279.683
Plymouth,50.371529,-4.14305,0.0035193714,0.002308537,0.0021377555,0.003930052,7.406294e-05,1.9273906e-05,5.972076e-09,5.047087e-06,5.3908663,4.4731483,4.084421,4.5852823,279.5443,282.6313,289.10892,284.9954,282.12146,286.14337,292.81973,288.1863,276.78522,278.99112,285.2365,281.87103
Plzeň,49.747471,13.37759,0.0014858014,0.0015410061,0.002613676,0.0014012309,0.0006844427,0.00018647128,1.0888269e-08,0.00014992131,3.6498728,2.9637637,2.5993764,2.934824,273.40692,282.10333,291.81006,282.81845,275.83444,286.97055,297.2165,287.042,270.9694,277.04044,286.2261,278.85294
Porto,41.149609,-8.61099,0.0036397257,0.0032177088,0.0012765265,0.0040391316,2.574455e-06,7.6883333e-07,6.622565e-09,2.4295787e-07,2.8452399,3.0947804,2.9405074,2.6698923,283.53802,287.54767,293.7313,289.9152,288.22522,292.7302,299.63553,295.17966,279.54422,282.7147,288.24835,285.58328
Potsdam,52.398861,13.06566,0.0018016405,0.001447519,0.002174109,0.0013379187,0.000260385,6.127461e-05,1.1008631e-08,7.225532e-05,4.1043644,3.2695637,3.0113797,3.5012918,276.3159,283.50165,292.5745,284.17883,278.76855,288.1773,297.6993,288.1392,273.6921,278.6893,287.35382,280.36673
Poznań,52.406921,16.92993,0.0020252496,0.0013856739,0.0022703093,0.0012419226,0.00057461555,0.00011737152,1.1311682e-08,9.763193e-05,4.008778,3.1809983,2.982461,3.5205052,275.39212,282.89178,292.59918,283.43048,277.63577,287.53143,297.85376,287.42395,273.0253,277.95905,286.95966,279.4047
Prague,50.088039,14.42076,0.0014379557,0.0015091656,0.0028140177,0.0013766123,0.00053208246,0.00016181884,1.989131e-08,0.00012493452,3.601705,2.9535596,2.647139,2.9757445,274.04883,282.7574,292.48163,283.2918,276.57336,287.7932,298.06628,287.73035,271.54178,277.53354,286.76138,279.0598
Prato,43.884251,11.09092,0.0019107847,0.0029095735,0.0019188508,0.0038424567,0.00024957838,7.939634e-05,8.1496285e-09,9.850195e-05,1.8713077,1.8514347,1.6463245,1.7676191,277.33987,284.23053,294.692,287.05258,280.8325,288.36826,299.60773,290.8349,274.29016,280.15973,289.8078,283.63675
Preston,53.76667,-2.71667,0.0032137097,0.0019004944,0.0028569298,0.003721951,0.00020185238,7.7351666e-05,7.2425292e-09,1.8506995e-05,5.6295567,4.488381,4.089549,4.643336,278.16046,281.65845,288.30615,283.55753,280.74948,285.3489,291.90387,286.60468,275.5383,277.73685,284.42896,280.45667
Pécs,46.083328,18.23333,0.0011862402,0.002154908,0.002232718,0.0018464283,0.00031055126,3.5549507e-05,8.188022e-09,7.137287e-05,2.572142,2.5195737,2.2451782,2.4644766,274.84982,285.3399,295.8194,286.14496,278.4248,291.01126,302.1665,291.98706,271.3232,279.57327,289.2522,280.7874
Ravenna,44.4175,12.20111,0.0010911402,0.0018809903,0.0018781042,0.002762425,0.00013774811,1.565734e-05,3.155148e-10,2.9922947e-05,2.5442433,2.5661004,2.4044662,2.5363607,278.6141,287.0662,297.5293,289.22345,282.01282,291.10095,302.0425,292.99002,275.6059,282.91486,292.89352,285.8062
Reading,51.456249,-0.97113,0.0018078454,0.0014840134,0.0015188373,0.002481052,0.00016567852,2.8468343e-05,3.1560448e-09,3.252155e-05,5.0219984,4.142577,3.7545857,4.2148576,278.13422,282.50473,289.74796,284.4136,281.08582,287.06195,294.8126,288.4169,275.05173,277.85425,284.53156,280.48657
Regensburg,49.014999,12.09556,0.0021957615,0.0018314865,0.0029894137,0.0019599912,0.000725542,0.00014407223,1.7509336e-08,0.0001627411,3.2543924,2.8230135,2.431548,2.6719391,273.75974,282.59778,292.19168,283.2513,276.3126,287.73367,297.8694,287.62042,271.3489,277.5468,286.65085,279.3332
Reims,49.25,4.03333,0.0020593035,0.001662272,0.0021081092,0.0019104544,9.7151285e-05,1.8715946e-05,1.2582393e-08,2.891968e-05,4.156355,3.4373035,3.0179863,3.5241714,277.76883,283.81982,292.1519,285.37192,280.84064,288.75375,297.96924,290.0219,274.64136,278.715,286.1413,280.9393
Rennes,48.11198,-1.67429,0.0026601625,0.001865772,0.0014869189,0.002635266,4.354396e-05,1.1277453e-05,3.5776637e-09,1.05654635e-05,4.0474567,3.570263,3.198835,3.5446122,279.6196,284.44638,291.91565,286.54694,282.71643,289.0766,297.25214,290.99615,276.47537,279.69543,286.4073,282.29874
Reykjavík,64.135483,-21.895411,0.006999752,0.0044121607,0.0026214202,0.0052002138,0.003263061,0.0015029159,2.7715373e-06,0.00050219666,5.042931,4.228078,3.268393,4.329731,272.76373,275.89316,283.2757,277.74802,274.8945,278.17838,285.53314,279.6198,270.38498,273.28137,280.8404,275.76947
Riga,56.945999,24.10589,0.00246191,0.0014047117,0.0023916876,0.0027654232,0.0012516658,0.00018688502,1.2740133e-08,0.000119304554,5.314568,4.1674423,3.9295838,5.05952,273.08008,279.67627,291.22787,281.69968,274.78094,283.39615,295.19037,284.44766,271.04202,275.5475,286.57477,278.79047
Rimini,44.063332,12.58083,0.0014406194,0.0021275657,0.0019003522,0.0032919075,0.0002183253,3.383964e-05,3.0649532e-09,5.1978386e-05,2.4161222,2.399305,2.1267457,2.2996922,278.0004,285.45203,296.12924,288.05478,281.42517,289.50113,300.8366,291.8522,274.90067,281.28766,291.22818,284.6114
Rome,41.894741,12.4839,0.0025636791,0.002656025,0.0011647084,0.005268919,0.00014033515,2.6984253e-05,5.5461817e-09,4.2808126e-05,2.3993857,2.2175527,1.9149101,2.2024443,281.53952,287.25665,297.79044,290.9068,286.08347,292.25235,303.67035,295.952,277.53714,282.28363,291.85306,286.4605
Roquetas de Mar,36.764191,-2.61475,0.0011510721,0.0009373336,0.000247981,0.0012050545,8.218229e-05,7.878437e-06,1.7371449e-09,4.0046757e-06,1.7141736,2.1313798,1.9647974,1.885412,284.8945,289.40582,298.3863,292.72662,290.32376,294.26562,303.36566,297.87698,280.59177,284.27222,292.83185,288.1142
Rostock,54.088699,12.14049,0.0020394335,0.001516689,0.002355835,0.001813707,0.00027444944,6.9913265e-05,4.6417874e-09,8.1461e-05,4.9647565,4.090026,3.776619,4.3968267,276.2888,282.081,291.23944,283.88254,278.38766,285.6796,295.16824,287.0872,273.9758,278.36172,287.1344,280.7985
Rotterdam,51.922501,4.47917,0.0024780491,0.0016131317,0.002260066,0.002765961,0.00010759284,1.2914413e-05,4.9385807e-09,1.24331755e-05,5.6483083,4.4873996,3.9738717,4.6755056,278.0096,282.85507,290.54938,284.87976,280.51297,286.85376,294.8985,288.46933,275.45828,278.64056,285.75723,281.30817
Rouen,49.44313,1.09932,0.0028149835,0.002016245,0.002167136,0.003003141,0.00012802743,2.1151089e-05,1.073321e-08,1.797151e-05,4.7487326,3.879475,3.4324818,4.0300174,279.0763,283.5827,291.20453,286.06717,281.51114,287.40982,295.43265,289.6644,276.61795,279.6585,286.75977,282.5916
Saint Petersburg,59.89444,30.26417,0.0016388684,0.0012332832,0.0023298585,0.002482718,0.0013270858,0.0002661397,8.198914e-08,0.00040683537,4.0327516,3.3539243,3.1336799,3.78736,268.70657,278.19415,291.24936,279.2605,270.91098,282.10464,295.12042,281.7373,266.01477,273.58627,286.6103,276.57047
Saint-Étienne,45.433331,4.4,0.0013937099,0.002172745,0.0021263964,0.003124035,0.00022484694,5.236442e-05,6.376164e-09,0.00010568016,2.6443932,2.7858882,2.505883,2.6591334,276.63446,283.69492,293.27194,285.72086,280.22742,288.78168,299.2859,290.2934,273.37122,278.6252,287.2815,281.48227
Salamanca,40.968819,-5.66388,0.0008537792,0.0014808463,0.00072336744,0.0016816987,6.572523e-05,2.5223635e-05,2.3920617e-07,4.6712878e-05,2.5739667,2.7508845,2.4429786,2.496709,278.849,284.83093,295.01175,287.16635,283.858,291.03314,302.68378,293.1666,274.39102,278.56027,287.0739,281.5854
Salerno,40.677971,14.76599,0.0030428683,0.002927359,0.0010393076,0.0034105913,0.00010457253,2.4825222e-05,2.9473797e-09,6.9631046e-06,2.7106922,2.3101757,1.7659159,2.3109221,282.45886,287.38483,298.0531,291.64355,285.94986,291.33936,302.63107,295.75455,279.15283,283.31082,293.08762,287.80566
Salzburg,47.799412,13.04399,0.0031771662,0.003974681,0.0063822055,0.0039529065,0.0023989421,0.0011599796,1.5094055e-06,0.0006991485,1.8243927,1.6952845,1.4892938,1.5673896,272.2113,279.54144,289.43634,281.6112,275.36255,283.8481,294.04095,285.82608,269.16837,275.37827,285.00275,277.9255
Santander,43.464722,-3.80444,0.0033120639,0.003280721,0.0017605561,0.0036781305,0.00015890015,5.0303322e-05,4.8617284e-07,2.2225642e-05,3.4184046,3.143725,2.8409822,3.1643271,282.37643,285.56314,292.67545,288.74484,285.6934,289.27216,297.00366,292.66144,279.16165,281.88016,288.45645,285.08014
Santiago de Compostela,42.88052,-8.54569,0.0037899138,0.0034419477,0.001678799,0.0046939803,3.0086323e-06,1.8702324e-06,2.68316e-09,1.3207685e-06,3.7359924,3.9719357,3.8904464,3.5472386,282.77567,285.75958,291.9184,288.3314,286.43152,290.07452,297.0855,292.71124,279.3372,281.66797,287.2016,284.48294
Sarajevo,43.84864,18.35644,0.0020741092,0.003031206,0.0029286009,0.0026929514,0.001254263,0.00038309558,1.4629461e-07,0.00022203723,1.7116446,1.7707675,1.495148,1.6118587,273.2097,281.92725,292.9018,284.1706,276.66507,286.73026,298.80975,289.19952,269.68692,277.1361,286.9929,279.67645
Setúbal,38.524399,-8.8882,0.0018489471,0.0017596984,0.00043653348,0.002448529,1.6194937e-07,8.950502e-09,3.9771386e-09,1.2663131e-08,4.048962,4.461033,4.6540513,3.8961635,286.07004,289.50104,295.17838,292.25656,289.58444,293.30304,299.6516,295.95053,283.08792,286.06757,291.30896,289.20688
Sevilla,37.382408,-5.97613,0.0017928653,0.001842482,0.0002983897,0.0022650992,1.921328e-05,1.2140593e-08,2.914143e-09,1.0271864e-08,2.382849,2.585285,2.3618999,2.3345962,284.29675,289.97986,299.1576,292.7458,290.23843,296.52362,306.95135,299.1236,279.43295,283.58414,291.30597,287.15918
Sheffield,53.382969,-1.4659,0.0022646547,0.0017088188,0.0024096775,0.0027194966,0.00040090055,0.00014905201,7.997302e-09,5.3380158e-05,5.326453,4.354534,3.9696777,4.4664903,277.7614,281.47552,288.4048,283.37085,280.48044,285.4114,292.7237,286.7105,275.068,277.47452,283.96265,280.1472
Siracusa,37.085152,15.273,0.0023049852,0.0010063162,0.00017383845,0.0016040843,1.669067e-05,6.5112893e-10,0.0,4.2790913e-09,2.6570215,2.6413455,1.9344591,2.1408744,285.67108,289.515,299.50543,294.57602,288.4162,292.81403,303.41205,297.8682,283.15622,286.35977,295.48553,291.7767
Skopje,42.001221,21.42878,0.0013581306,0.002010634,0.0014491429,0.0017672728,0.00070332177,0.00010604203,1.2368244e-07,0.00016275191,1.5454823,1.6790768,1.6307033,1.4582595,273.86523,283.42767,294.62766,285.47037,277.70435,288.62512,301.26157,290.89996,270.10278,278.2093,287.93265,280.47296
Sochi,43.599171,39.725689,0.006877354,0.0035980581,0.0033657062,0.0052791135,0.0030606494,0.00048574642,2.8459568e-09,0.00021636854,2.2520428,1.6988943,1.3294766,1.5920455,276.10114,284.23953,295.79526,286.72653,279.67352,288.31503,300.15057,291.3017,272.7197,279.4561,290.76743,282.55048
Sofia,42.69751,23.32415,0.001725972,0.0032668193,0.0023370963,0.002143945,0.0011225599,0.00039853592,8.4331795e-08,0.0002556611,1.5868818,1.6407607,1.5029525,1.443257,272.28317,281.58588,293.01703,283.83218,275.94797,286.56204,299.03378,289.08856,268.82428,276.56122,286.84656,279.14517
Southampton,50.90395,-1.40428,0.0022009788,0.001623127,0.0015257881,0.0028032255,0.000111779715,1.8361641e-05,2.0169124e-09,3.0555828e-05,5.4255414,4.408291,4.0026484,4.6202173,278.724,282.67105,289.78387,284.9024,281.49844,286.8155,294.32407,288.5456,275.7635,278.38248,285.02267,281.27728
Split,43.508911,16.43915,0.0024286127,0.0027667107,0.0017718583,0.003600983,0.00027029158,0.00012748418,1.0137494e-07,7.5879005e-05,3.0158844,2.7478461,2.2034917,2.7977133,278.78113,285.91052,296.64075,288.79816,282.55368,290.30923,301.83572,293.67038,275.03302,281.1351,290.7262,284.1148
Stockholm,59.332581,18.064899,0.0018834993,0.0011824335,0.0019898645,0.0022785077,0.0011629486,0.0002575222,5.711402e-09,0.00023477105,4.3730726,3.755424,3.3061032,3.9988575,272.32776,279.22687,289.99677,280.77448,274.68845,283.04047,294.22876,283.64453,269.583,275.06668,284.93777,277.75275
Strasbourg,48.58342,7.74296,0.002099852,0.002047692,0.0027289097,0.0022381104,0.000282309,4.2083015e-05,1.6198339e-08,4.784524e-05,2.9158869,2.4406917,2.1755075,2.434404,276.35718,284.3482,293.55377,285.3547,279.348,289.34622,299.26617,289.8574,273.4742,279.36414,287.9144,281.28333
Stuttgart,48.782318,9.17702,0.0024782699,0.002134594,0.0028543011,0.00203147,0.0006218241,0.00011093092,1.1500377e-08,0.00010909753,3.2445657,2.650516,2.3327966,2.653868,275.16943,283.07422,292.51154,284.33163,278.131,287.96014,297.97797,288.93976,272.29282,278.16812,287.10474,280.19586
Szczecin,53.42894,14.55302,0.0021199381,0.0014911785,0.0021830832,0.0013380863,0.000493323,0.0001350259,1.0060412e-08,9.238661e-05,4.732515,3.752316,3.5410957,4.221859,275.996,282.62354,292.0238,283.7032,278.2348,287.10175,296.9044,287.3034,273.5702,278.0128,286.91165,280.12808
Szeged,46.252998,20.148239,0.0009880862,0.0017396661,0.0021201484,0.0012895744,0.00019332004,3.7644415e-05,1.2578049e-08,2.1972435e-05,2.6995764,2.6577935,2.4325957,2.6533046,275.04895,285.6796,296.35788,286.54898,278.40662,291.1489,302.3937,292.0797,271.64856,280.16028,290.0091,281.45093
Tallinn,59.436958,24.753531,0.0029148094,0.0014801731,0.002303556,0.0031370104,0.001803613,0.00029850646,2.5305829e-08,0.00031607333,5.8188252,4.5286074,4.3429675,5.537592,271.84006,277.35025,289.8349,280.91153,273.59973,280.1219,292.70343,283.00262,269.72595,274.11432,286.2932,278.60434
Tampere,61.499111,23.787121,0.0020225178,0.0013140279,0.0025413258,0.0021786978,0.0015340893,0.00038520613,1.1856781e-08,0.00029805984,3.6204035,3.202626,2.9741483,3.511322,268.06638,277.26443,289.38803,277.98444,270.9505,281.9503,294.2802,280.96432,264.65222,271.85107,283.61984,274.75604
Taranto,40.476109,17.229719,0.0018754266,0.001764369,0.00078536494,0.002200624,8.706711e-06,2.1546662e-06,2.6754479e-09,1.2272654e-06,3.7361794,3.303683,2.6685786,3.1898265,282.68448,287.86917,298.76096,291.94354,286.29272,292.26398,304.05853,296.45404,279.1813,283.46695,293.28757,287.83005
The Hague,52.076672,4.29861,0.0023759997,0.001530024,0.0022724613,0.002761536,0.00010399234,1.29918335e-05,2.8240534e-09,1.2829696e-05,5.851886,4.641839,4.123621,4.8662767,278.2232,282.88382,290.5863,285.07303,280.65924,286.71698,294.77994,288.54803,275.72757,278.82086,285.92767,281.57782
Thessaloníki,40.640282,22.94389,0.0012486888,0.0014771099,0.00066724565,0.001467164,0.00010466457,2.0872449e-05,2.5480588e-08,1.4747173e-05,2.0830286,1.9828078,1.9754633,1.8151615,279.2817,286.92157,298.82098,289.97763,283.49557,292.4734,305.47754,295.3203,275.19205,281.5174,292.21265,284.98734
Tilburg,51.555511,5.0913,0.0024351834,0.0016445639,0.0021768159,0.002235185,0.0001238877,1.9090256e-05,1.0401134e-08,1.5704161e-05,4.73222,3.7994907,3.3621895,3.916362,278.0011,283.2228,291.25333,284.8113,280.87872,287.8582,296.3756,288.96393,275.12415,278.42145,285.91962,280.76892
Timişoara,45.753719,21.22571,0.0010704787,0.0018141851,0.0019452702,0.0013755277,0.0003084522,3.5121768e-05,6.379601e-09,3.222585e-05,2.3016639,2.3148878,2.0468507,2.3027532,275.09387,285.64166,296.72452,286.7646,278.29453,290.75104,302.44135,291.90927,271.94586,280.476,290.81866,282.05365
Tirana,41.327499,19.81889,0.0034646085,0.0030525962,0.0015111228,0.0035204743,0.00065983186,0.00010808918,7.884213e-09,0.00010701114,1.7638501,1.5903603,1.4239041,1.5685921,277.2408,284.85345,295.69876,287.68488,281.38528,289.76462,301.9696,293.07373,273.27054,279.6917,289.0093,282.94464
Toledo,39.858101,-4.02263,0.0009120781,0.001425504,0.0005511917,0.0014857126,2.8009876e-05,1.46999055e-05,2.577894e-07,1.25218885e-05,2.123445,2.4268575,2.356338,2.1662998,280.79913,287.26007,298.5387,289.65286,286.31912,293.26593,305.80243,295.51544,276.01407,281.13434,290.8238,284.14825
Toruń,53.013748,18.598141,0.0017892574,0.0013004724,0.0022557473,0.0012750233,0.00061963685,0.000105622035,8.241819e-09,0.00012606775,4.1862936,3.2888837,3.0766616,3.6910737,275.22598,282.44266,292.18723,283.1601,277.3088,286.81155,297.06787,286.91702,272.9888,277.7347,286.8743,279.40216
Toulon,43.116669,5.93333,0.002221047,0.002656424,0.00096870493,0.003708189,7.1724094e-06,1.8130364e-06,3.0141087e-09,1.1162047e-05,5.4742017,4.8166533,4.0955715,4.8132706,283.19348,287.44504,296.31906,291.21692,285.67593,290.0602,299.29352,293.76776,281.05005,284.80093,293.16107,288.8726
Toulouse,43.604259,1.44367,0.0018413573,0.0028510625,0.0015629664,0.002182561,8.226734e-05,4.81316e-05,6.424064e-09,2.3471923e-05,2.9721527,2.9584243,2.575244,2.74672,280.0636,286.25082,295.47345,288.73523,284.51086,291.39026,301.6281,294.05338,276.14908,281.20023,289.42847,284.08307
Tours,47.383331,0.68333,0.002066643,0.0017726999,0.0015772482,0.0021300355,2.91994e-05,4.8136963e-06,1.0848541e-08,3.0889394e-06,3.9516256,3.4438336,3.0617933,3.4628391,279.06226,284.653,292.92435,286.55045,282.26105,289.6252,298.81332,291.46954,275.88086,279.46674,286.7421,281.9189
Trier,49.75565,6.63935,0.0027034115,0.0019121642,0.0023013013,0.002275463,0.00045351227,8.1819875e-05,8.707195e-09,7.450499e-05,4.008488,3.3299205,2.9948916,3.424724,275.94525,283.0248,291.8602,284.24573,278.53003,287.6856,297.21747,288.29883,273.38138,278.28043,286.37283,280.43216
Trieste,45.648609,13.78,0.0022257997,0.0034882005,0.003142049,0.0050660274,0.00021438584,5.9611764e-05,1.5735369e-09,0.000115621486,2.6282654,2.2886872,2.041296,2.6155248,278.78647,285.90253,296.26044,288.1292,282.7826,290.39996,301.49902,292.6463,275.09265,281.34247,291.1195,284.06766
Turin,45.070492,7.68682,0.0008782145,0.0032223023,0.0022786437,0.00266224,0.00040242972,0.0005251992,1.8979465e-05,0.00028862647,1.1760507,1.1814431,1.1153193,1.0754685,275.8013,283.13812,293.0824,285.25818,279.35138,287.16998,297.56897,288.7888,273.01346,279.24536,288.4863,282.0262
Turku,60.451481,22.26869,0.0020757394,0.0011629716,0.0022716573,0.0022895904,0.0012961448,0.00031715303,7.770122e-09,0.00020635247,4.124066,3.5025134,3.3400655,3.9953456,270.61145,277.9395,290.04245,279.79657,273.0785,282.02036,294.25473,282.708,267.65106,273.23654,284.9027,276.6515
Utrecht,52.090832,5.12222,0.0025201722,0.0016916152,0.0021907534,0.0025829324,0.000118259224,1.4754516e-05,5.5388325e-09,1.4215873e-05,5.2485127,4.183936,3.683168,4.309296,277.70712,282.83078,290.55893,284.5665,280.35175,287.16467,295.28116,288.41693,275.02628,278.3072,285.44635,280.7861
Valencia,39.469749,-0.37739,0.0013789047,0.0018820592,0.0005996389,0.0019115977,1.42955e-05,1.5788253e-06,6.9551254e-09,5.893723e-06,2.7369184,2.5016723,2.1821837,2.356439,283.49323,288.62042,298.24747,291.78955,289.1099,294.2667,304.1678,297.48788,278.73434,283.22037,292.4393,286.7699
Valladolid,41.655182,-4.72372,0.0007342737,0.0013953245,0.0007805076,0.0015173261,5.7341615e-05,1.5350122e-05,1.8117721e-07,2.3632922e-05,2.746887,2.9833348,2.8003857,2.7120223,278.9969,284.91254,295.09274,287.42563,283.85495,290.95496,302.59955,293.27667,274.64688,278.92572,287.4464,281.93884
Vantaa,60.29414,25.040991,0.0022511815,0.0013027232,0.0021470352,0.002620068,0.0016131167,0.00028363158,1.8466881e-08,0.0002595822,4.2865367,3.5584652,3.4173532,4.081253,270.09882,277.97452,290.2591,279.37457,272.61493,282.21527,294.817,282.3777,266.99622,273.07974,284.8183,276.08865
Varna,43.216671,27.91667,0.0011595957,0.0014439013,0.0010132436,0.0021187344,0.00028955116,9.4620256e-05,2.8140594e-09,4.7465215e-05,4.118126,3.3534799,3.1568587,3.445071,276.45154,284.34702,296.37338,287.58945,279.78735,288.79657,301.683,292.1096,273.09616,280.0017,291.01102,283.35825
Venezia,45.43861,12.32667,0.001398435,0.0027330616,0.0027161199,0.003733191,6.8723784e-05,2.3377139e-05,1.2625924e-07,1.9806468e-05,2.4107113,2.3325443,2.1819322,2.487992,278.9373,286.67667,297.19513,288.80637,282.34125,290.2708,301.1647,292.31793,275.9108,282.98273,293.1925,285.55435
Verona,45.434189,10.99779,0.0010809719,0.003061719,0.002820024,0.00312964,0.00032136563,0.00028328205,2.474506e-07,0.00016778728,1.3939167,1.4843309,1.4035909,1.4438269,275.0549,284.00632,294.2782,285.4415,279.23657,288.57657,299.2177,289.56293,271.4385,279.32794,289.29095,281.60867
Vienna,48.208488,16.37208,0.0013664707,0.0018699042,0.0024601673,0.0018509462,0.0005493255,5.9001984e-05,1.3511304e-08,0.000125636,3.5755625,3.3122814,3.0384026,3.257166,275.29904,284.67728,294.69852,285.12442,277.6027,289.31476,299.92145,289.1928,272.95163,279.91867,289.44366,281.35504
Vigo,42.232819,-8.72264,0.0044238283,0.0038484787,0.0017377769,0.0059083328,8.722689e-07,1.057341e-06,6.702212e-09,4.7670344e-08,3.2850876,3.565583,3.4689946,3.084639,283.39578,286.79828,293.01587,289.27097,287.18936,291.1722,298.05817,293.64536,279.8422,282.47736,288.12296,285.29022
Vilnius,54.689159,25.2798,0.0022872642,0.0016381966,0.0026587315,0.002095656,0.0014019237,0.00022337567,1.2777768e-08,0.0001788311,4.3793817,3.5665123,3.2293575,4.1321554,272.263,280.98334,292.0164,281.2497,273.986,285.56723,297.03052,284.63864,270.15134,275.81488,286.26385,277.68683
Warsaw,52.229771,21.01178,0.0021347257,0.0015940964,0.0023773306,0.0014194676,0.00086077244,0.00012089916,1.1631426e-08,0.0001249586,3.9359007,3.1225066,2.8446524,3.5076327,274.735,282.70734,292.80978,282.90155,276.85403,287.4504,298.0392,286.8998,272.38763,277.59262,287.06134,278.93384
Wiesbaden,50.082581,8.24932,0.0019994911,0.0016168138,0.0021470396,0.0018656884,0.00028424192,3.8553822e-05,1.24009105e-08,3.960506e-05,3.425802,2.8641567,2.5740447,2.866789,276.0824,283.71472,292.65417,284.54214,278.65524,288.64706,298.10184,288.68787,273.54617,278.74396,287.27603,280.68753
Wolverhampton,52.585468,-2.12296,0.0018772817,0.0016224617,0.0020330877,0.002535568,0.00021772321,5.3614658e-05,7.931538e-09,4.965837e-05,5.038012,4.1490006,3.7921853,4.198634,278.1772,282.24503,289.2152,283.93433,281.09778,286.6042,294.05316,287.75186,275.174,277.75818,284.24466,280.22656
Wrocław,51.099998,17.033331,0.0017905083,0.001715827,0.0026625807,0.0014550671,0.00062944205,0.00018249525,1.3452644e-08,0.00012672109,3.7766817,2.9851248,2.7894878,3.2135513,274.44305,282.6632,292.69702,283.44638,276.85608,287.455,298.26834,287.71643,271.91312,277.53937,286.77362,279.2138
Wuppertal,51.270271,7.16755,0.0032007643,0.002031996,0.002828168,0.0026727314,0.0003178315,6.291142e-05,1.2051626e-08,6.1663064e-05,4.471686,3.4788184,3.095114,3.7492077,277.718,283.7798,292.11954,285.29233,280.0856,288.054,296.94318,288.95584,275.3491,279.4687,287.3291,281.8239
Yaroslavl',57.629871,39.87368,0.001704526,0.001240796,0.0022747891,0.0022290326,0.0015342411,0.00024785203,1.0404273e-08,0.00044057867,3.8560946,3.4530258,2.9183955,3.6004632,266.15955,278.71832,292.24805,278.50507,268.9544,283.1263,297.01584,281.4288,262.82755,273.42694,286.70273,275.31754
York,53.95763,-1.08271,0.0015706142,0.0013066989,0.002082056,0.0020410102,0.00018361791,4.3992895e-05,7.377703e-09,2.7838581e-05,5.5623245,4.561101,4.048623,4.6193385,277.45706,281.35666,288.19778,283.2475,280.34695,285.3447,292.6935,286.8124,274.6104,277.2309,283.49646,279.80908
Zagreb,45.814442,15.97798,0.0014677887,0.0029986105,0.0031583016,0.0030300862,0.00037596954,5.6475943e-05,1.2938978e-07,0.00021604802,2.089996,2.1979125,1.8209082,2.0434928,275.68738,285.4292,295.41058,286.22186,279.15616,290.51498,301.0457,291.082,272.4101,280.41983,289.84967,281.8027
Zaragoza,41.656059,-0.87734,0.00061256014,0.0016216686,0.0008915563,0.001286262,3.6316724e-05,2.8325285e-05,2.3585385e-06,2.7805183e-05,3.274002,3.397061,3.1064048,2.9670243,279.36954,286.04053,296.5558,288.43274,284.56247,292.17667,304.29083,294.5722,274.84933,280.12848,289.12384,282.97003
Zürich,47.366669,8.55,0.0031355834,0.0033615674,0.004437162,0.003290739,0.001426321,0.00057040725,7.799327e-06,0.00028486495,2.0893147,1.9893405,1.7380412,1.7708371,274.93787,282.3853,292.39288,283.92453,277.39694,286.8011,297.55267,287.62143,272.65527,278.1773,287.49008,280.74866
Århus,56.156738,10.21076,0.001887069,0.0013163037,0.0020150063,0.002139033,0.00031291577,9.391244e-05,7.1861406e-09,1.8840086e-05,5.70425,4.9328785,4.493938,5.320859,275.58908,280.98087,289.94028,282.85132,277.8902,284.72357,294.21198,285.94672,273.07977,276.93277,285.1098,279.6198
Łódź,51.75,19.466669,0.0022032799,0.0017299044,0.0022592773,0.0013844743,0.0008661132,0.00017167196,5.7751706e-09,0.00013206534,4.4145555,3.3539531,3.0878754,3.7487347,274.5132,282.51553,292.61285,283.1713,276.7671,287.17593,297.88837,287.3227,272.10623,277.49457,286.8589,279.0799
