city,latitude,longitude,sf_winter,sf_spring,sf_summer,sf_autumn,t2m_winter,t2m_spring,t2m_summer,t2m_autumn,max_t2m_winter,min_t2m_winter,max_t2m_spring,min_t2m_spring,max_t2m_summer,min_t2m_summer,max_t2m_autumn,min_t2m_autumn,tp_winter,tp_spring,tp_summer,tp_autumn,si10_winter,si10_spring,si10_summer,si10_autumn
Marbella,36.51543,-4.88583,7.609526e-06,0.0,0.0,1.2278557e-06,285.25616,288.46725,295.54428,290.99847,287.1653,283.58423,291.45248,286.12524,298.07812,291.5795,296.26035,286.649,0.0022135468,0.0010493755,0.0004377312,0.0028116915,4.2460093,4.055221,3.4927216,3.7911062
Jerez de la Frontera,36.686451,-6.13606,0.0,0.0,0.0,0.0,285.83118,289.9918,297.14243,292.21286,288.2095,283.9961,293.67334,287.23322,299.1068,292.63843,297.29236,287.32333,0.0020449995,0.0010757168,0.0004023989,0.0028875947,4.114227,4.2850504,3.7456083,3.8107193
Málaga,36.720161,-4.42034,8.564525e-06,0.0,0.0,3.6504532e-06,284.3543,288.1407,295.7604,290.51993,286.42447,282.45605,291.68433,285.59073,298.37827,291.56015,296.21542,285.69308,0.0017654339,0.001003578,0.00043838288,0.0022669765,3.6039484,3.3728678,2.7467859,3.1619008
Roquetas de Mar,36.764191,-2.61475,4.1768286e-05,1.0384452e-06,0.0,1.2233522e-05,285.0667,288.4975,296.46085,291.37308,286.99643,283.1483,292.1212,285.70352,298.99594,291.85507,297.39966,286.32053,0.0011596387,0.0006880972,0.0003578133,0.0010605018,4.3260927,4.5423813,3.8524408,4.1704044
Almería,36.838139,-2.45974,0.000103529295,3.6636989e-06,0.0,2.8944016e-05,283.96426,287.87643,296.31207,290.625,286.22348,281.8102,292.02075,284.75656,299.10107,291.37817,296.76767,285.10455,0.0012444787,0.00084538985,0.00047956573,0.0010522525,3.8587878,4.062227,3.5119667,3.7197087
Siracusa,37.085152,15.273,3.3511054e-07,0.0,0.0,0.0,285.71646,288.51022,297.56607,293.2686,287.7016,283.57883,292.99405,285.13516,300.76636,294.15048,297.66757,288.3795,0.0020651394,0.0006321271,0.000644456,0.0024081203,4.509399,3.8307257,2.7771075,3.6612473
Granada,37.188171,-3.60667,0.00014264783,8.318325e-06,0.0,3.8610895e-05,280.92557,286.09216,295.60696,288.21478,283.98987,278.43884,291.1659,282.9259,299.19165,289.4275,295.12817,282.05893,0.0016649504,0.0013601502,0.0005522927,0.0020401538,2.4338086,2.5179377,2.06945,2.3021262
Sevilla,37.382408,-5.97613,2.082189e-06,0.0,0.0,4.2385526e-08,284.36267,290.31342,299.1529,291.97482,286.795,281.78745,295.8104,286.78525,301.24136,293.24243,298.18814,285.8238,0.0016875664,0.001135683,0.00038405522,0.0023683917,2.7297826,2.798714,2.5101235,2.5523903
Catania,37.502129,15.08719,6.067753e-05,2.3047129e-07,0.0,1.08771865e-05,283.90024,287.4803,297.01715,291.82825,285.9866,281.628,292.91577,283.56906,300.16812,293.50888,296.7164,286.58228,0.0024052223,0.0009512107,0.00086363155,0.002661403,3.2094693,2.879922,2.2739358,2.6914284
Cartagena,37.605122,-0.98623,1.7351574e-07,0.0,0.0,0.0,285.95477,289.31647,297.21515,292.7085,288.0556,284.12875,292.79614,286.32364,299.67685,293.19766,298.15503,287.35928,0.0010722398,0.0006080734,0.00043865308,0.00096103083,4.3022614,4.3016663,3.8278794,4.0849795
Marsala,37.796638,12.43518,2.8875138e-07,0.0,0.0,5.2981907e-08,286.25314,288.6016,297.05246,293.48334,288.31976,284.35913,292.31192,285.52072,300.19327,293.6478,297.61972,288.54922,0.0016172992,0.00074845424,0.0006050746,0.002727029,6.127483,5.544291,4.282814,5.4390106
Córdoba,37.883331,-4.76667,7.898278e-06,0.0,0.0,2.556377e-06,282.62616,289.27457,299.25204,290.7641,285.5065,279.38443,295.2687,285.5499,301.89926,292.33228,297.8523,283.91055,0.0014829158,0.0012152249,0.00050409633,0.002211123,2.4427674,2.6352963,2.4066832,2.3975115
Piraeus,37.947449,23.637079,6.0103335e-05,3.6756198e-08,0.0,2.0307303e-05,283.3149,288.34277,298.71475,292.10233,285.80292,280.72473,293.94385,282.46765,300.67224,296.27783,298.71875,285.9176,0.0017358264,0.00055378675,0.00021555423,0.0016571283,3.742931,3.1521027,3.079041,3.254951
Athens,37.97945,23.716221,6.111463e-05,1.7660636e-08,0.0,2.2761027e-05,282.85443,288.42615,299.00534,291.83023,285.24182,280.12445,294.51355,282.1915,300.8717,296.77335,298.62805,285.45648,0.0017653041,0.0006078862,0.00023596021,0.0016219775,3.4106128,2.9765482,2.9973092,3.0186403
Murcia,37.987041,-1.13004,2.9391713e-06,2.2517309e-08,0.0,5.430645e-07,284.02744,289.12234,298.11188,291.61334,286.70776,281.6896,294.15683,285.33356,300.8793,293.27646,297.8168,285.21573,0.0010307948,0.00079805055,0.00054208963,0.0009304656,2.8114688,2.881518,2.6117442,2.627703
Palermo,38.115822,13.35976,1.538396e-05,4.967054e-09,0.0,2.9474497e-06,284.48663,287.717,297.1287,292.34412,286.86844,282.53024,292.69946,284.01608,300.38806,293.71033,297.00586,286.86438,0.0019179384,0.0010154804,0.00072470505,0.002650702,4.127309,3.7009163,2.7320795,3.5806625
Messina,38.193272,15.54969,1.3540851e-05,1.5894573e-08,0.0,7.033348e-07,284.84393,287.5985,296.61533,292.29297,286.89838,282.62897,292.06973,284.12735,299.65048,293.3912,296.58325,287.48355,0.0029111358,0.0011818463,0.0009977606,0.003339394,4.0821834,3.698443,3.0037494,3.5528257
Elche,38.26218,-0.70107,8.095635e-06,1.0207847e-06,0.0,2.7674216e-06,284.16623,288.94006,297.84418,291.60684,286.83887,281.77338,293.9028,285.20325,300.59497,293.13684,297.67615,285.34277,0.00095591374,0.00077844545,0.0005839101,0.0009457906,3.1612349,3.1189003,2.7802093,2.9301546
Alicante,38.345169,-0.48149,1.4397833e-05,1.2119611e-06,0.0,4.3935247e-06,284.28632,288.4177,297.09818,291.48453,286.64517,281.9987,293.07935,284.90924,299.80576,292.48642,297.2146,285.4846,0.0011663198,0.0008632236,0.0006921556,0.0011698776,3.520189,3.407474,3.00427,3.286406
Setúbal,38.524399,-8.8882,0.0,0.0,0.0,0.0,285.26163,288.55817,293.96927,290.4513,287.2169,283.16602,291.30615,286.11905,295.89175,290.80933,294.4647,286.39395,0.0018473149,0.0012388601,0.00040970376,0.0025943173,4.353944,4.476409,4.5145197,4.1975493
Lisbon,38.716671,-9.13333,0.0,0.0,0.0,1.3245477e-09,285.36203,288.31873,293.42035,290.34283,287.2498,283.21274,290.96338,286.00937,295.16733,290.55234,294.09814,286.56485,0.0019815948,0.0012779342,0.0004395432,0.002680964,4.7230086,4.907164,5.104272,4.614938
Cagliari,39.207378,9.13462,4.6239957e-06,7.947286e-09,0.0,3.5630333e-07,283.77225,287.64835,297.21094,291.51758,285.98926,282.00485,292.60196,283.65305,300.5725,293.3248,296.9944,286.05347,0.0011968798,0.0010572646,0.00044233535,0.0018667221,3.7017946,3.616086,3.0509043,3.3842824
Valencia,39.469749,-0.37739,1.0610952e-05,7.2452764e-07,0.0,9.414885e-06,283.8859,288.32724,296.93552,291.20828,286.54135,281.17447,292.81323,284.51047,299.39053,292.4607,296.48526,285.19943,0.0013139142,0.0009606414,0.0010358492,0.0017453776,3.503277,3.1817408,2.7445493,3.1908355
Palma,39.569389,2.65024,9.834766e-08,0.0,0.0,2.682209e-08,285.94122,288.4919,296.8983,292.7042,287.92117,284.34836,292.34155,285.62802,299.73486,292.77722,297.54993,287.77158,0.00096285343,0.0008672158,0.0006987969,0.0019186179,5.195485,4.4129333,3.5235236,4.6474943
Toledo,39.858101,-4.02263,5.3420332e-05,4.8478444e-07,0.0,2.7411514e-05,279.7083,286.8248,297.8595,288.01877,283.14648,275.9821,292.44434,282.9275,301.30923,290.05038,295.64844,280.59674,0.0011310127,0.0013281769,0.0005950451,0.0018310493,2.5974278,2.822654,2.5254486,2.6134546
Coimbra,40.205639,-8.41955,7.665158e-06,1.1920929e-07,0.0,1.1920929e-08,282.566,287.06232,293.48383,288.3486,285.3664,279.64078,290.8317,284.44946,295.98355,289.63412,293.3099,283.6218,0.0028276495,0.0024412049,0.0011799813,0.0043663476,3.20734,3.268929,3.0739634,3.0239987
Lecce,40.357029,18.17202,8.155902e-06,0.0,0.0,4.8379104e-07,284.31348,288.17276,297.8347,292.16098,286.39752,282.1174,292.73535,283.78793,300.85583,294.8822,297.64624,286.2439,0.0019528767,0.0011119087,0.0008976857,0.0029141505,4.8937907,4.533822,3.9384604,4.5608125
Madrid,40.4165,-3.70256,0.00012473266,1.5167395e-05,0.0,6.205837e-05,279.1387,286.18954,297.1789,287.37625,282.56674,275.6642,291.75488,282.3181,300.80453,289.58716,295.13477,279.968,0.0012186872,0.0014255896,0.00063056947,0.0019481764,2.411339,2.6896183,2.4753044,2.4712644
Taranto,40.476109,17.229719,4.0702467e-05,0.0,0.0,3.4349937e-06,283.2408,287.44238,297.50177,291.38928,285.72134,280.94406,292.10788,282.92957,300.44177,294.44305,296.9757,285.56586,0.0018113913,0.0010383464,0.0007449397,0.0024353028,4.293328,3.8534932,3.2347324,3.8677697
Alcalá de Henares,40.482052,-3.35996,9.5204516e-05,9.273159e-06,0.0,5.8662892e-05,278.95343,285.9053,296.83026,287.1104,282.35953,275.51562,291.44336,282.12637,300.52817,289.38144,294.8597,279.80344,0.0011971846,0.0014952024,0.0006618023,0.0019939423,2.4749234,2.7364283,2.5212216,2.5177622
Thessaloníki,40.640282,22.94389,0.00028975506,3.0616918e-06,0.0,0.000121663514,279.2346,286.94284,297.8196,289.22375,282.23273,276.46643,293.20618,279.27173,299.89856,295.32336,297.66138,280.84888,0.0018276314,0.0015233596,0.0009991328,0.0025262933,2.4132326,2.3862157,2.2218735,2.250098
Salerno,40.677971,14.76599,8.0657e-05,3.6478043e-06,0.0,2.0153653e-05,282.61383,286.51785,295.8914,290.42087,285.1264,280.06696,291.23755,282.3959,298.70288,292.67984,295.31616,284.68912,0.0025531081,0.0022196558,0.0013399654,0.005158295,3.715034,3.1390386,2.382495,3.2327724
Napoli,40.833328,14.25,4.2217307e-05,4.1286153e-06,0.0,9.774499e-06,282.91876,286.80286,296.126,290.66776,285.36142,280.54742,291.4659,282.5733,299.04532,292.77994,295.434,285.1354,0.0023304173,0.0020302401,0.001351081,0.004967584,3.7415082,3.1359274,2.4457932,3.3447182
Salamanca,40.968819,-5.66388,0.00013198057,7.3221e-06,0.0,7.8756944e-05,278.39532,284.38,293.97128,285.57812,282.0189,274.9012,289.24472,280.8961,296.68457,288.0515,292.61856,279.0544,0.001213389,0.001496119,0.0008084509,0.0019242313,3.0447478,3.066439,2.644634,2.933308
Bari,41.117729,16.851179,6.5573055e-05,9.834766e-08,0.0,6.6240627e-06,283.04608,287.28183,297.10703,290.99402,285.40982,280.79135,292.0293,282.81946,300.26013,294.18994,296.5393,285.20276,0.0017530282,0.0010894377,0.0008478125,0.0021098813,4.5852976,4.204324,3.654701,4.1348987
Porto,41.149609,-8.61099,6.6747266e-06,2.4636586e-07,0.0,4.6491624e-07,283.57217,287.047,292.63583,288.61832,285.92737,280.9358,290.2102,284.77325,294.79102,289.71118,293.12122,284.6456,0.00358935,0.0030822316,0.0015959382,0.0059517007,4.0669737,4.045705,3.9307222,3.817506
Tirana,41.327499,19.81889,0.0005292118,5.3381424e-05,0.0,0.00029326777,278.30823,284.98444,294.96817,287.70856,281.11026,274.79358,290.6554,278.47253,297.53345,291.9685,294.00928,279.73376,0.0027434984,0.0029508313,0.0020415306,0.004907352,2.4085457,2.1314785,1.8415045,2.1267874
Barcelona,41.38879,2.15899,2.1316608e-05,3.9041043e-07,0.0,7.831057e-06,282.5477,286.61935,295.18027,289.66336,285.25647,280.39673,290.58105,283.45468,297.8827,290.65747,295.10083,283.8862,0.001302133,0.0016968687,0.0018405397,0.0024793127,3.6376529,3.3261077,2.8729146,3.3495228
Braga,41.55032,-8.42005,5.2252413e-05,4.2657057e-06,0.0,9.848178e-06,281.5912,285.83655,292.39642,287.13232,284.41467,278.52966,289.40356,283.08667,295.3689,288.44006,292.50623,282.4725,0.004059923,0.0037076434,0.00212485,0.006604101,2.9456117,2.9269094,2.701118,2.7753422
Valladolid,41.655182,-4.72372,8.684397e-05,2.2583538e-06,0.0,6.778373e-05,278.6564,284.79626,294.3955,285.9625,282.4279,275.25473,289.84677,281.33487,297.3042,288.27255,293.33975,279.26047,0.0010750268,0.0015453497,0.00081652007,0.0019037564,3.1285145,3.2822204,3.0170124,3.0797896
Zaragoza,41.656059,-0.87734,4.2929252e-05,5.8203937e-06,0.0,4.419883e-05,280.3397,287.13715,296.60757,288.04263,284.60852,276.19653,292.15417,283.0256,300.27795,290.31982,294.35217,280.6174,0.00082779524,0.0012634913,0.0010900219,0.001286447,3.5988004,4.0064163,3.517112,3.4474015
Rome,41.894741,12.4839,3.4108427e-05,6.410811e-06,0.0,1.7076067e-05,281.58688,286.42413,296.05057,289.64316,283.7576,278.82974,291.51782,281.7592,299.15112,292.50284,294.88956,283.96606,0.0019669824,0.002091731,0.001629681,0.004605717,3.1333804,2.967129,2.4926112,3.0079396
Skopje,42.001221,21.42878,0.0009633144,0.00012005236,0.0,0.00075710815,273.8495,282.85672,293.5622,284.28412,277.51382,270.38315,289.25317,274.85522,296.35562,291.01474,293.56192,274.78256,0.0017273797,0.0023294396,0.0014688491,0.0021047273,1.6637595,1.8014858,1.6663015,1.6050189
Plovdiv,42.150002,24.75,0.0010275232,0.000104490915,0.0,0.0006627924,273.49548,282.6006,293.16553,283.96722,277.5709,270.418,290.14932,273.17603,295.75406,290.82837,293.62833,274.67328,0.0018505997,0.0028971354,0.0019529661,0.0020574862,1.857388,2.0113707,1.7965627,1.772601
Vigo,42.232819,-8.72264,9.833442e-06,3.7617153e-07,0.0,1.1037897e-06,283.25192,286.2238,291.64536,287.86932,285.50473,280.4802,289.28787,284.07797,293.7016,288.85605,292.1219,284.12878,0.004515372,0.003780471,0.0022795429,0.006930588,4.2331653,4.090436,3.9124143,3.8715465
Burgos,42.349998,-3.7,0.0003366689,7.829766e-05,0.0,0.00022740712,277.6494,282.69443,291.11258,284.43143,281.56653,274.24585,286.98608,279.50912,294.20398,285.70044,290.80908,277.92282,0.0014028768,0.002308146,0.0013557116,0.0023781399,3.4796114,3.3571436,2.986707,3.2775924
Sofia,42.69751,23.32415,0.0010346185,0.00016281157,4.6690307e-08,0.0007035658,272.3029,281.58405,291.78955,282.68964,276.75372,268.8888,288.70776,271.94495,294.33044,289.62268,292.3213,273.58374,0.0015971203,0.0029654105,0.001971992,0.0017550508,1.9562247,2.0594223,1.7694575,1.861458
Perpignan,42.697639,2.89541,0.00016321838,1.6665956e-05,0.0,2.789696e-05,280.73483,285.84894,294.378,287.72458,284.38293,277.99414,290.2921,282.04514,297.18884,289.8534,293.7002,281.66232,0.0018565456,0.0021894653,0.0020048816,0.00285665,3.7270713,3.8668923,3.3728726,3.5127742
Pamplona,42.816872,-1.64323,0.00021353662,3.8283568e-05,0.0,9.476244e-05,279.176,284.25662,291.98593,285.86816,283.34644,275.68185,289.00745,280.66327,294.8849,287.37903,291.63196,279.39304,0.0020583868,0.003110067,0.002567327,0.003314978,2.9631982,3.066247,2.6466315,2.7981699
Santiago de Compostela,42.88052,-8.54569,1.5616419e-05,9.4307796e-07,0.0,4.0160285e-06,282.109,285.36072,291.0926,287.01926,284.798,278.8496,288.7902,283.14355,293.6045,287.98657,291.59985,282.94266,0.0036065977,0.0034253069,0.0022457652,0.0051522837,3.9977338,3.8350809,3.6107278,3.6438909
Perugia,43.112202,12.38878,0.0002441436,2.0674865e-05,0.0,0.00015954375,277.81537,284.35486,294.5665,286.52707,280.87134,274.73633,290.4646,279.1799,297.6444,290.36438,292.43262,279.95364,0.0017671546,0.0024392167,0.001841569,0.0035469432,2.4918153,2.4671838,2.1116261,2.3563094
Toulon,43.116669,5.93333,2.0463269e-05,3.8594007e-06,0.0,1.658996e-05,282.0876,286.51117,294.89435,288.90082,285.12244,280.16208,290.66724,282.81458,297.47607,291.2832,294.7467,282.78333,0.001528736,0.00172743,0.0012589653,0.002764555,5.447718,4.893286,4.2553043,5.1239734
Varna,43.216671,27.91667,0.00049352384,3.3254095e-05,0.0,0.00022338564,275.912,283.54065,294.73,286.20755,279.21216,272.85684,290.37344,275.2203,297.18124,292.5179,294.98038,277.9368,0.0014580991,0.0020880115,0.0018129189,0.0018788602,4.214241,3.6560755,3.2186127,3.832627
Bilbao,43.262711,-2.92528,0.000112590526,9.6910535e-06,0.0,3.8556256e-05,281.8033,284.9591,291.38547,287.43402,285.28336,278.86197,288.87955,282.11972,293.67334,287.80737,292.42612,282.40045,0.0026391956,0.0031948832,0.002465709,0.0040719933,4.0644827,3.636581,2.8896945,3.6722722
Marseille,43.296951,5.38107,1.22626625e-05,1.9219185e-06,0.0,1.3319651e-05,281.92093,286.61768,294.99182,288.86258,285.26187,279.71646,290.93213,282.71494,297.50058,291.41153,294.78232,282.33926,0.0014713659,0.0016806443,0.0013130294,0.0026408753,5.6623383,5.2479963,4.517921,5.3369327
Donostia / San Sebastián,43.312832,-1.97499,0.000106182364,1.2683869e-05,0.0,3.7888687e-05,282.21613,285.3055,291.82748,287.89963,285.56918,279.43945,289.2977,282.4755,294.12192,288.3751,292.86948,282.7175,0.0028359466,0.0034894731,0.0029136022,0.004583714,4.7117014,4.174776,3.392228,4.2905097
Oviedo,43.360291,-5.84476,0.0004175971,0.00011567374,1.5397866e-08,0.00019316575,280.62927,283.6782,289.99316,285.9059,283.82104,278.13147,287.31287,281.29904,292.06592,286.2223,290.44055,281.34995,0.0027791103,0.003460157,0.00269322,0.004088805,3.5783226,3.3809779,2.8897424,3.3683276
Arezzo,43.461391,11.87691,0.0002887143,3.8121805e-05,0.0,0.00020157827,277.3508,284.08838,294.09943,286.03763,280.5438,274.6556,290.2478,278.95953,297.18677,290.00757,292.12704,279.5605,0.0018160767,0.0026711994,0.0019462003,0.0037749105,2.2997248,2.3004258,1.9825742,2.1905959
Santander,43.464722,-3.80444,9.476874e-05,9.149313e-06,0.0,3.4605135e-05,282.99112,285.54773,291.7879,288.30072,285.87338,280.52426,289.34457,283.10635,293.86816,288.4506,292.96616,283.97177,0.0026611222,0.0031961335,0.0025536695,0.0042920327,4.2144847,4.013361,3.3984096,4.060333
Split,43.508911,16.43915,0.00019609531,2.0545058e-05,0.0,0.000107228756,280.28107,285.6559,295.28027,288.4765,282.56607,277.66147,290.8253,280.0367,297.9558,292.47485,294.2784,282.3434,0.0023564445,0.0024231751,0.0016873943,0.005326976,3.914722,3.7636235,3.0539129,3.8266482
Aix-en-Provence,43.528301,5.44973,2.7100245e-05,3.7670136e-06,0.0,3.0724208e-05,280.18488,286.22653,295.2818,287.71158,284.14127,277.5825,291.27905,281.82462,298.07242,291.17,294.0087,280.4166,0.0014656994,0.0019111369,0.0015397443,0.002599417,4.10132,4.0820894,3.6270661,3.9669302
Gijón,43.535728,-5.66152,0.0002281891,6.3035885e-05,0.0,0.00011228919,282.1143,284.71844,290.67236,287.18216,285.17154,279.68066,288.27505,282.48624,292.5563,287.31894,291.49463,283.0025,0.0029183892,0.003550042,0.002851767,0.004427152,3.8712385,3.6930535,3.1989138,3.6920068
Livorno,43.542641,10.316,3.0982494e-05,1.2477238e-06,0.0,2.189345e-05,281.82144,286.61298,295.6391,289.6232,284.25293,279.8956,291.22324,282.25772,298.34628,292.1399,295.22275,283.90927,0.0017151858,0.0022544118,0.0018307368,0.004092092,3.7904637,3.2336955,2.7241359,3.5541663
Sochi,43.599171,39.725689,0.001718757,0.00011731452,4.3047798e-08,0.0007919239,276.87878,282.76526,293.57455,286.71454,281.02676,273.6722,289.1931,275.32837,296.18335,290.32993,294.1334,277.79877,0.0039665885,0.0034918361,0.0033979735,0.004952449,3.2506661,2.7006698,2.173027,2.6846306
Toulouse,43.604259,1.44367,0.00010417799,2.1388134e-06,0.0,2.0647049e-05,279.85394,285.6421,293.8209,286.76126,284.37732,276.28674,290.7412,281.62006,296.25977,289.44263,293.1505,279.93518,0.0018153826,0.0028529048,0.0022357185,0.0026631474,3.2036867,3.2896972,2.7043147,2.9813986
Montpellier,43.61092,3.87723,9.189248e-05,1.5417735e-06,0.0,2.4383764e-05,280.9701,286.17194,294.63498,287.8255,284.56934,278.57663,290.70752,282.18042,297.27087,290.77234,293.90918,281.47412,0.0020979226,0.0020929256,0.0020830154,0.003848374,4.4602613,4.2713704,3.7410326,4.189751
Nice,43.703129,7.26608,0.00041954254,0.00010123783,1.695421e-07,0.00024376357,279.16827,284.24573,293.03427,286.5456,282.48083,276.58557,288.79236,279.87708,295.5638,289.42657,292.065,280.86325,0.001799308,0.002767782,0.0021463183,0.00315953,2.7915483,2.5592756,2.2185884,2.685542
Pisa,43.71553,10.39659,6.4069696e-05,1.1665953e-05,0.0,5.214016e-05,280.68228,285.883,294.94504,288.55167,283.26416,278.67374,290.65552,281.3583,297.65274,291.37558,294.29843,282.78653,0.0020764165,0.0028191672,0.0022645155,0.0049019414,3.1327379,2.7215772,2.3071408,2.9436595
Firenze,43.76667,11.25,0.00019285944,3.760126e-05,0.0,0.00015344885,277.69614,284.51703,294.288,286.34274,280.9103,274.90158,290.39673,279.44174,297.2688,290.38144,292.7296,279.92703,0.0017688151,0.0026541534,0.0018212284,0.0038668173,2.2292273,2.20256,1.9257514,2.1097808
Nîmes,43.833328,4.35,6.80079e-05,4.4802826e-07,0.0,2.4404128e-05,280.4033,286.72818,295.77542,287.80554,284.58606,277.941,291.58093,282.2124,298.87427,291.47278,294.32312,280.71936,0.0018362681,0.0021150152,0.0021179041,0.0033449074,3.8543959,3.904034,3.4884577,3.6766818
Lucca,43.843571,10.50585,0.00023047924,7.387201e-05,0.0,0.0001995643,278.51865,284.60748,293.90897,286.80566,281.57797,276.18747,289.9397,279.4288,296.62314,290.32104,292.8536,280.69183,0.0020743927,0.0031998209,0.002468925,0.004805149,2.4745927,2.2599282,1.9321517,2.3243792
Sarajevo,43.84864,18.35644,0.0016494463,0.00041546326,9.0946753e-07,0.0011324103,272.39877,280.64502,290.46616,282.09784,277.16565,268.5239,287.21863,271.9347,293.6709,288.1405,289.91272,273.93665,0.002544741,0.003686595,0.0028228005,0.0035877228,1.882978,2.0201693,1.6515003,1.8089855
Prato,43.884251,11.09092,0.00027181406,6.1702725e-05,0.0,0.00023540904,277.47394,284.43994,294.1615,286.19177,280.83154,274.91992,290.29346,279.06592,297.05127,290.43018,292.55737,279.71426,0.0018122514,0.0028769572,0.0020270308,0.0039757234,2.165227,2.199212,1.9174881,2.0696397
Avignon,43.948341,4.80892,5.0870578e-05,2.6712814e-06,0.0,3.68764e-05,279.84198,286.51105,295.83588,287.5141,284.15918,277.16904,291.6941,281.81775,299.06885,291.3817,294.16638,279.9657,0.0015589615,0.0020369769,0.0018481334,0.0027125916,3.7073133,3.8732371,3.5029047,3.5821753
Rimini,44.063332,12.58083,0.00017208557,9.8635755e-06,0.0,9.110818e-05,280.17062,286.18225,296.33496,288.91177,282.25623,277.95715,291.95972,280.74414,299.1443,292.9005,294.8706,283.0038,0.0015262146,0.0021660249,0.0015568058,0.0029843808,3.6401665,3.5532908,3.1332042,3.5401967
La Spezia,44.110538,9.84339,0.00021323463,5.560865e-05,0.0,0.00017427852,280.07797,284.97153,293.83777,287.54602,282.91028,277.55896,289.63965,280.06592,296.4618,290.19714,293.08313,281.76025,0.0023087582,0.0031738004,0.0026325185,0.005282688,3.1946394,2.8106644,2.3493702,2.9939778
Constanţa,44.183331,28.65,0.00040028195,1.3198455e-05,0.0,0.00019584547,275.9206,283.5749,295.20294,286.55185,279.38165,273.04474,290.5669,275.26843,298.02722,292.73132,295.27844,278.16336,0.0012590428,0.0016899665,0.0014468471,0.0016922514,5.095925,4.4513226,3.884669,4.689677
Ravenna,44.4175,12.20111,0.00014407634,1.1703703e-05,0.0,8.288356e-05,279.25217,286.5597,296.8923,288.62216,281.7417,276.80322,292.7063,280.636,299.52646,293.26636,294.9479,282.44504,0.001368263,0.0023121727,0.00160532,0.0027916194,2.944969,3.1088831,2.8331227,2.9649322
Bucharest,44.432251,26.10626,0.0005572329,2.5629997e-05,0.0,0.000359567,273.2985,284.75717,295.73166,284.75296,278.88397,268.01376,293.14453,273.68555,298.87463,293.69836,295.55298,273.0231,0.0012123605,0.0027209162,0.0021211742,0.00168582,2.932937,2.9398255,2.3274903,2.6998236
Bologna,44.493809,11.33875,0.00023715894,4.918443e-05,0.0,0.00021471381,277.6314,286.1955,296.4882,287.28088,281.187,274.74326,292.50854,279.802,299.14478,292.57626,294.12192,280.18918,0.0014096075,0.0026905907,0.0018684015,0.002863452,2.0351944,2.3614514,2.1032143,2.0789542
Modena,44.647831,10.92539,0.0003236572,7.973959e-05,0.0,0.00029869974,276.95096,285.56543,295.67563,286.43225,280.65625,274.026,291.81226,279.1985,298.31396,291.6765,293.4226,279.44614,0.0014961998,0.0029962182,0.0022050857,0.0032114785,1.8712215,2.147631,1.8917481,1.8909888
Parma,44.802662,10.32898,0.0002546668,4.4148663e-05,0.0,0.00022284786,277.09357,285.9987,296.02628,286.51328,280.74512,273.97607,292.0746,279.77087,298.65405,291.89197,293.75305,279.63867,0.0014295558,0.0028553882,0.0022365132,0.0031653622,1.7834357,2.1165247,1.8526261,1.8358577
Belgrade,44.804008,20.46513,0.0003698137,1.3707744e-05,0.0,0.00035439397,274.839,285.4331,295.30203,285.3179,280.06406,270.30685,292.77383,276.17538,299.7938,293.2618,294.80704,276.28445,0.0013580666,0.0022105111,0.0020421029,0.00187135,2.8482974,2.978576,2.484985,3.0320296
Ferrara,44.826778,11.62071,7.7362856e-05,7.852912e-06,0.0,6.32753e-05,277.9513,287.11862,297.54065,287.98257,281.11548,274.7915,293.4574,280.84863,300.17627,293.32983,295.13208,281.12155,0.0012074908,0.0026302855,0.0019606352,0.002607868,2.1815152,2.4773183,2.2460012,2.2560146
Bordeaux,44.840439,-0.5805,2.2019942e-05,2.4835268e-08,0.0,3.832579e-06,280.4263,286.13562,293.7419,287.03564,284.92554,276.5868,291.58655,282.4757,296.45837,289.9889,293.36475,280.16653,0.0016277273,0.002407213,0.0022292137,0.0026186665,3.278851,3.158957,2.7294514,3.0320084
Ploieşti,44.950001,26.01667,0.0006877776,9.247462e-05,5.8809917e-07,0.00048914395,272.31628,282.808,293.3079,282.7205,276.9695,267.59634,291.0359,272.40524,296.5645,291.3731,292.76523,271.56506,0.0013093313,0.0033100338,0.002609472,0.0018562388,2.4354203,2.5027778,2.036801,2.2435174
Krasnodar,45.044842,38.976028,0.00055256597,3.1435932e-06,0.0,0.00030158096,274.0162,284.3712,295.76184,285.0537,279.17957,268.88116,291.7379,276.26257,298.78244,292.33908,296.28693,269.22888,0.0020734398,0.002564282,0.0018837188,0.002482732,3.8997977,3.6139524,3.0090127,3.356437
Turin,45.070492,7.68682,0.0010404488,0.0004622668,3.8802125e-05,0.0008521219,273.80304,282.41302,291.8856,282.72934,278.18616,270.21738,287.91406,276.58057,294.49353,287.80005,290.05298,275.33118,0.0023239574,0.0047404408,0.003768015,0.0036216995,1.3934323,1.4653962,1.3450478,1.3340399
Grenoble,45.166672,5.71667,0.0017534693,0.00056440633,1.5468731e-05,0.0012229144,272.77188,280.33917,289.4972,281.1817,277.42563,269.48825,286.54453,274.62003,292.74658,286.0673,288.233,272.25235,0.0033912659,0.00463899,0.0036824755,0.0045026755,1.6749594,1.792652,1.671145,1.6286964
Novi Sad,45.251671,19.836941,0.00034289624,1.4621681e-05,0.0,0.00035419068,274.62222,285.25613,295.1846,284.9799,279.81924,270.16818,293.12573,276.11075,299.46158,292.97534,293.93726,276.0328,0.00131464,0.0021960416,0.001988639,0.001965809,2.8239753,3.0034742,2.525946,2.9509783
Padova,45.415192,11.88181,0.0001098007,1.5039245e-05,0.0,7.973711e-05,277.50876,286.246,296.1766,287.13397,280.3511,274.70667,292.86584,280.20728,299.45715,292.29907,294.1975,280.38635,0.001333946,0.0032108745,0.0026542782,0.0032577077,2.1131816,2.3658788,2.1563272,2.2102797
Saint-Étienne,45.433331,4.4,0.00049920776,8.542339e-05,5.304813e-07,0.00034245302,276.0673,282.58398,291.23984,283.17242,280.98303,273.1838,288.36072,277.72375,294.59033,287.74097,289.9303,275.7732,0.0020200452,0.003345859,0.0031054735,0.0030053258,2.972546,3.0740778,2.5451324,2.7613292
Verona,45.434189,10.99779,0.00022495985,3.7409864e-05,0.0,0.00018194914,276.5931,285.57526,295.4013,286.13135,280.11606,273.64737,291.33017,279.4623,298.22852,291.3899,293.29282,279.31503,0.0013367758,0.00327638,0.0028542518,0.0031397077,1.6756742,1.9180236,1.7233348,1.7280298
Venezia,45.43861,12.32667,5.3312382e-05,1.1901061e-06,0.0,3.450811e-05,279.02087,286.3757,296.35007,288.25314,281.02734,276.77185,292.8269,280.6301,299.38684,292.79492,294.79175,282.0808,0.0013585846,0.0028413215,0.0024094582,0.0034904778,2.9534802,3.0681677,2.7979167,3.0694132
Milan,45.464272,9.18951,0.00017994245,1.5211105e-05,0.0,0.00013322632,276.87045,286.15314,295.6341,286.0407,280.23453,274.27393,291.7872,280.23267,298.3872,291.57578,293.61035,278.95596,0.0016608132,0.0036918058,0.003534762,0.0035996118,1.7062556,2.0404005,1.7889687,1.7466049
Mestre,45.49028,12.2425,6.352884e-05,1.7113157e-06,0.0,4.4965745e-05,278.37714,286.28238,296.1591,287.71484,280.55225,276.0014,292.87915,280.4406,299.36676,292.57956,294.4883,281.26038,0.0013945685,0.003062658,0.0026093589,0.0036249373,2.4546912,2.6682372,2.4512427,2.6135695
Brescia,45.52478,10.22727,0.000300554,6.824864e-05,2.8257016e-08,0.00023231948,276.08112,284.8539,294.5545,285.52106,279.14465,273.24313,290.5573,278.81107,297.30338,290.7243,292.61426,278.81638,0.0014345382,0.0034034303,0.0033281185,0.0033016556,1.5073286,1.7228119,1.5304335,1.5402541
Trieste,45.648609,13.78,0.0002460824,6.6918794e-05,3.973643e-09,0.0002430896,277.64688,284.68225,294.32147,286.21402,280.5713,275.39835,290.68594,278.11548,297.32812,290.98965,292.6791,279.2392,0.0023253865,0.0037887467,0.0036198986,0.0058649117,2.9089215,2.7240362,2.3936887,2.8828604
Braşov,45.648609,25.606131,0.0010330587,0.00024102579,4.6576065e-06,0.00070962805,270.01935,279.87375,289.94733,280.22247,273.95453,265.50156,288.0448,269.396,293.01233,288.0205,290.06702,270.23416,0.0014842332,0.0038707177,0.0033172807,0.0018243194,2.1518083,2.2222774,1.8409017,2.0735073
Bergamo,45.697979,9.66895,0.0004882127,0.0001441002,6.794929e-07,0.00035981237,274.84097,284.05707,293.48743,284.35248,278.20996,271.97568,289.8114,277.99854,296.29858,289.77148,291.4469,277.58618,0.0016466419,0.0042220354,0.0041635274,0.0036491414,1.5736604,1.7568741,1.5615172,1.5587566
Lyon,45.748459,4.84671,0.00028760964,1.74582e-05,0.0,0.00021826361,276.8999,284.15533,292.9315,284.4529,282.06967,273.6328,289.98706,279.01083,296.27783,289.69458,291.9125,276.7138,0.0022185512,0.0031838894,0.0028577433,0.0032517037,2.7847304,2.9500554,2.481778,2.5866704
Timişoara,45.753719,21.22571,0.0003482006,1.7203225e-05,0.0,0.00023979964,274.37073,284.8063,294.50928,284.57538,279.2191,270.06314,291.98093,275.82712,299.15024,292.51785,294.26218,276.27832,0.0012982934,0.002472934,0.0021503237,0.0018556629,2.4573023,2.688348,2.2447176,2.5816658
Clermont-Ferrand,45.779659,3.08628,0.0005583167,0.00010433661,7.7088674e-07,0.0003249433,276.06525,282.10217,290.38025,282.7834,280.82455,272.84082,287.86288,277.62607,293.5371,287.08716,289.42734,275.58603,0.0020850233,0.003172175,0.0027766493,0.0027174472,3.1490676,2.905529,2.3764231,2.8187985
Como,45.809978,9.08744,0.00073542295,0.00022477856,8.3292525e-06,0.0005553986,274.2355,282.8939,292.12234,283.33414,277.36218,271.5637,288.46106,276.90137,295.06824,288.40918,290.32544,276.7556,0.0019677381,0.0047436277,0.004741796,0.004055856,1.5232393,1.6154927,1.4575351,1.44265
Zagreb,45.814442,15.97798,0.0004559636,7.366075e-05,0.0,0.00065373053,274.7657,284.47,293.90616,284.20074,279.86636,270.30524,291.0647,276.72647,298.20215,291.1088,291.96085,274.93256,0.0015738434,0.0028048146,0.0027345233,0.0029247284,2.216645,2.3960068,1.9033241,2.047382
Limoges,45.831532,1.2578,0.00014418761,9.057257e-06,0.0,5.806552e-05,278.11487,283.84753,291.7973,284.48505,282.50146,275.27652,289.1393,279.75558,294.73355,287.78305,290.99594,277.72894,0.0024190347,0.0030798754,0.0026715545,0.0033995998,3.6488676,3.2875977,2.7481992,3.2900205
Ljubljana,46.051079,14.50513,0.0008655615,0.00025888017,7.0863297e-07,0.00090154144,273.00305,281.85226,291.0243,282.10117,277.5952,269.26715,287.9293,273.5587,294.80484,288.25366,288.92685,274.32382,0.001960622,0.0039225845,0.0039631,0.0043410514,1.9436158,2.0387015,1.6692977,1.7820894
Pécs,46.083328,18.23333,0.00035005674,2.9795698e-05,0.0,0.00042617123,274.19522,284.37366,293.87912,283.94412,279.46616,269.9597,291.65698,275.37997,298.1953,291.47647,292.29385,274.51865,0.0012921359,0.00232758,0.0022006142,0.0022333993,2.877912,2.9989116,2.5014105,2.7519386
Szeged,46.252998,20.148239,0.00030750036,1.2740825e-05,0.0,0.00029730663,274.0873,284.8099,294.8126,284.3413,279.48853,269.56778,292.72714,275.16464,299.26303,292.76123,293.78052,275.4114,0.0010917769,0.0020696323,0.0017638789,0.0018471559,2.8507502,3.0341728,2.5797348,2.9074543
Odessa,46.47747,30.73262,0.00040467226,2.1033816e-06,0.0,0.0001976022,273.44733,282.7235,295.02628,284.4623,276.98694,268.41797,291.0919,272.72403,298.56622,292.252,294.04648,272.9728,0.00097333064,0.001450362,0.00139791,0.001295729,4.782128,4.351566,3.9053016,4.638452
Lausanne,46.515999,6.63282,0.0016683552,0.00042149425,1.4162726e-05,0.0011528677,273.544,280.52237,289.37723,281.53033,277.5436,271.11557,286.0935,275.21573,292.91812,286.26904,288.50464,273.11304,0.0035806603,0.0049086516,0.004628266,0.0044239494,2.0422847,1.8789076,1.6707625,1.7987534
Cluj-Napoca,46.76667,23.6,0.0006905198,0.00011406408,2.556377e-06,0.00045015878,270.97958,281.49472,291.22675,281.31113,275.6329,266.49063,289.16968,271.10376,294.93814,289.08008,291.12003,271.6956,0.0012714281,0.0033993456,0.0032315096,0.0018093162,2.1446276,2.3898206,1.972304,2.2074847
Bern,46.94809,7.44744,0.0019359221,0.0006596426,9.591033e-05,0.0014752472,272.21368,279.79456,288.46756,280.18274,276.69922,269.68933,285.50378,274.16437,291.8617,285.33948,287.34827,272.09216,0.0034570456,0.0050568064,0.004856384,0.004147734,2.1140616,1.8961158,1.6844157,1.8084413
Chişinău,47.005562,28.8575,0.0005506608,9.0493095e-06,0.0,0.00027129188,272.08093,283.00873,294.01398,282.8347,276.8524,266.43057,292.2439,271.2211,297.47412,291.7317,293.05786,270.75107,0.0010313988,0.0020912753,0.0019970895,0.0012764031,3.192882,3.129968,2.7711504,3.133884
Graz,47.066669,15.45,0.0008697192,0.0002892539,3.1058987e-06,0.00085078675,271.35315,280.7767,289.8506,280.63528,276.30106,267.8484,287.43933,272.06775,293.82666,287.4536,288.06494,272.87344,0.0014826099,0.0034824053,0.0036944032,0.0025367101,1.8651313,2.1008089,1.7202398,1.7591168
Oradea,47.066669,21.933331,0.0004303366,3.3897162e-05,0.0,0.00029502064,273.5064,284.23575,294.23508,283.9386,278.57306,269.41476,292.27295,274.62683,299.36707,292.3695,293.78894,275.0802,0.0012821496,0.0024644851,0.002280593,0.002014929,2.6846433,2.8086023,2.3568788,2.5738184
Nantes,47.217251,-1.55336,3.4023655e-05,1.3245477e-09,0.0,1.5472042e-05,279.52747,284.45105,291.66116,285.66092,283.62744,275.54373,289.90054,280.8121,294.64404,287.77945,291.4476,278.28998,0.0019065248,0.0020906606,0.0017605305,0.0023586086,4.5655637,4.058673,3.6249392,4.0203547
Besançon,47.248779,6.01815,0.0005345468,6.504942e-05,0.0,0.00041880255,276.34256,283.45572,291.8255,283.5373,281.3667,273.15915,289.1298,277.85382,295.34918,288.32483,290.90887,275.7682,0.0033073989,0.0036348838,0.003182284,0.0040967907,3.4469001,2.9894576,2.5976527,2.9515822
Innsbruck,47.262661,11.39454,0.0026123445,0.0016375826,0.00028604732,0.0023827082,266.95425,275.10434,284.40176,276.04385,270.78384,264.1652,281.04272,268.5017,287.65063,280.9366,283.58472,267.183,0.0029880179,0.005680662,0.005892271,0.0036384715,1.5693198,1.4981458,1.3156266,1.454296
Dijon,47.316669,5.01667,0.00024933682,1.1205673e-05,0.0,0.00019922653,276.35587,283.47195,291.91522,283.53122,281.22787,272.91757,289.045,277.98917,295.5848,288.24805,290.8186,275.49442,0.0023272117,0.0028830261,0.0026402525,0.0030637372,3.6306555,3.3178468,2.8663173,3.2021475
Zürich,47.366669,8.55,0.0015288214,0.00041134207,3.634691e-05,0.0011084899,273.59216,281.00012,289.64618,281.41354,277.7262,270.93115,286.91553,275.03174,293.1621,286.41284,288.78174,273.87634,0.0032684566,0.004848206,0.0048057316,0.003929436,2.1553965,2.0412633,1.8061335,1.8946234
Tours,47.383331,0.68333,6.3928965e-05,1.574556e-06,0.0,3.0179819e-05,278.45712,284.29703,292.2497,285.0163,282.8629,274.40857,289.91272,280.09985,295.51318,288.05322,291.26404,277.1475,0.0018460612,0.0021014928,0.001857678,0.0022444108,4.132218,3.6707277,3.2571902,3.675388
Angers,47.466671,-0.55,4.8416194e-05,4.6359168e-07,0.0,2.5804837e-05,278.8819,284.29422,291.8797,285.22754,283.11377,274.76654,289.75668,280.3754,295.20312,287.76822,291.18472,277.57416,0.0018142647,0.0020600902,0.0016814709,0.0021222485,4.2445817,3.7711308,3.3605113,3.7680824
Budapest,47.498009,19.039909,0.0003405165,1.0470991e-05,0.0,0.00036493054,273.37006,283.81586,293.55942,283.23074,278.4031,269.55057,291.86633,274.84665,297.98465,291.25287,291.77933,274.1651,0.0010403562,0.0022128918,0.0019457217,0.0018647228,2.927651,3.0882452,2.686512,2.9252908
Debrecen,47.533329,21.633329,0.000374998,2.4576982e-05,0.0,0.0002862838,273.4585,284.5527,294.76776,284.05237,278.6998,269.38156,293.02695,275.34628,299.67593,292.79184,293.85068,275.23666,0.0010973612,0.0023019842,0.0021189689,0.0018575881,2.8839126,3.0273077,2.5839882,2.7506468
Basel,47.558399,7.57327,0.0006571045,9.885182e-05,0.0,0.000503016,274.82278,282.36893,290.7391,282.1652,279.68433,271.55106,288.03638,276.30786,294.2953,287.63867,289.594,274.371,0.0027604182,0.0039791386,0.0037131151,0.0036028365,2.618911,2.3562174,2.0714133,2.21483
Mulhouse,47.75,7.33333,0.00050497055,5.9782797e-05,0.0,0.00041039122,275.086,282.62384,291.08218,282.417,279.95444,271.32953,288.25,276.48886,294.65543,287.92294,289.91074,274.44754,0.002633042,0.0034639994,0.0031581137,0.0034523248,2.7585282,2.4540431,2.1682174,2.337426
Salzburg,47.799412,13.04399,0.0022772984,0.0006918907,4.7887694e-05,0.0017499606,270.8624,279.3117,288.52643,279.7812,274.91287,267.90158,286.13977,272.19885,291.8796,285.17245,287.49548,271.40817,0.0036313904,0.005484701,0.0060391957,0.003975865,1.9185429,1.9205297,1.6369766,1.7742132
Orléans,47.902889,1.90389,8.188288e-05,1.6614795e-06,0.0,4.516244e-05,277.8507,284.0288,292.12155,284.54294,282.34607,273.60843,289.51868,279.5149,295.54993,287.6582,291.33398,276.58328,0.001702253,0.0020173232,0.0019236446,0.0021599631,4.1931496,3.7028153,3.293034,3.7166388
Freiburg,47.995899,7.85222,0.0007038196,9.756551e-05,0.0,0.00055004226,274.641,282.24963,290.76318,282.09232,279.70297,270.81326,288.00015,275.58472,294.39404,287.57715,289.86533,273.78836,0.0029166194,0.0035566965,0.0031349608,0.0036811007,2.817684,2.4929292,2.20858,2.4090486
Le Mans,48.0,0.2,5.8980782e-05,4.953808e-07,0.0,4.329549e-05,278.282,283.88092,291.51712,284.64276,282.33984,274.16464,289.22983,279.76846,295.06967,287.22446,290.6184,277.0237,0.0018693234,0.0020726575,0.0017633279,0.002188484,4.1135087,3.6796794,3.242213,3.6589975
Rennes,48.11198,-1.67429,4.5135617e-05,4.6690306e-07,0.0,1.919667e-05,279.09167,283.8461,290.759,285.02698,283.0238,275.1964,288.90808,280.1754,293.96204,286.95642,290.55432,277.82193,0.0019406299,0.0023098588,0.0017745217,0.002213337,4.258821,3.8121421,3.3456838,3.7995057
München,48.137428,11.57549,0.0009083718,0.00020418267,2.087156e-06,0.0006769553,273.31985,281.65668,290.2643,281.49655,277.68506,270.2616,287.922,274.39246,293.94177,286.9242,289.19678,273.44925,0.0023385524,0.004038866,0.0038810372,0.0028359154,2.833753,2.704777,2.2823832,2.5087779
Bratislava,48.148159,17.106741,0.00036583742,3.307859e-05,0.0,0.000357231,273.8009,283.71274,293.31747,283.29474,278.574,269.21756,291.02832,275.32568,298.01733,290.68164,291.2539,274.5093,0.0011797488,0.002354439,0.0022791226,0.0017622293,3.4914756,3.5467734,3.1174083,3.42417
Vienna,48.208488,16.37208,0.00046050415,7.4986616e-05,0.0,0.00036454137,273.6094,283.10562,292.54456,282.71326,278.34253,269.29227,290.16318,274.74014,297.35498,289.91367,290.41382,274.19427,0.0012799952,0.0024390856,0.0025366254,0.0017178536,3.569035,3.5589898,3.1237738,3.4172695
Augsburg,48.366669,10.88333,0.0005716463,8.49997e-05,1.09275184e-08,0.00042790623,273.90125,282.01697,290.52655,281.71747,278.39246,270.08047,288.0935,274.8169,294.36963,287.22754,289.53625,273.46585,0.0020034055,0.0033445994,0.0030356883,0.0025415798,3.2767317,2.9828923,2.5332017,2.8454375
Brest,48.400002,-4.48333,1.3899803e-05,1.1523564e-07,0.0,4.7776434e-06,282.1307,283.80563,288.9521,286.50375,284.46198,279.09024,287.33755,281.47778,291.16586,286.25406,289.6411,282.3785,0.0030085484,0.0021807034,0.0019445313,0.0036625147,8.017221,6.4824033,5.3684373,6.790947
Strasbourg,48.58342,7.74296,0.00027254026,1.051161e-05,0.0,0.00025617218,275.56882,283.2617,291.79935,282.9912,280.6229,270.47308,288.89102,276.61972,295.598,288.36752,291.21933,274.48578,0.00241842,0.0027803155,0.0025356081,0.0031138235,3.1426277,2.74101,2.4014096,2.6949697
Košice,48.713951,21.25808,0.00062010024,7.0006754e-05,8.8303176e-10,0.0004654028,271.58554,281.93655,291.61093,281.34406,275.99078,267.14474,289.68536,274.12616,295.4063,289.54184,289.87546,273.04813,0.0011611549,0.0026450192,0.002496027,0.0017121173,2.4688575,2.684404,2.3641279,2.3692923
Stuttgart,48.782318,9.17702,0.0005052156,3.448261e-05,0.0,0.00037588144,274.3317,282.1187,290.60925,281.9261,279.41226,270.64365,287.88174,274.77255,294.48535,287.2256,290.0564,273.39578,0.002339493,0.0030283877,0.0026599197,0.0028676854,3.271013,2.8439853,2.4408798,2.80878
Paris,48.853409,2.3488,8.803805e-05,3.3448139e-06,0.0,7.407864e-05,277.55164,283.5826,291.35724,284.09085,281.78247,273.17007,288.61646,278.72656,295.20703,287.03088,290.78992,276.19742,0.0017053406,0.0020861547,0.0018643062,0.0021259964,4.21169,3.6657243,3.2344298,3.7108362
Karlsruhe,49.004719,8.38583,0.00034986204,1.2893147e-05,0.0,0.00029295683,275.1855,283.00522,291.62302,282.7514,280.30908,270.32236,288.7211,275.8772,295.50406,287.95654,291.13632,273.97162,0.0024007824,0.002679719,0.0025020493,0.00298921,3.3921862,2.9390874,2.5913315,2.9153583
Regensburg,49.014999,12.09556,0.00046751235,4.37061e-05,0.0,0.000335296,273.56308,282.2458,291.0125,281.80087,277.58853,268.77255,288.9244,274.45694,295.37598,287.6608,290.18857,274.0211,0.0018115097,0.0025557466,0.0026182758,0.002281907,3.1202917,2.9836886,2.5211174,2.8037143
Metz,49.11911,6.17269,0.00021019677,8.651117e-06,0.0,0.0002130727,275.62137,282.7538,291.12753,282.71292,280.24792,270.35147,288.16992,276.54346,295.35022,286.79187,290.49744,274.60342,0.0022236605,0.0023085554,0.0022569697,0.0028954009,4.1664863,3.561022,3.1539617,3.6043096
Brno,49.195221,16.60796,0.00045236747,5.2779913e-05,1.09275184e-08,0.00034388155,272.9004,282.27756,291.86383,281.8799,277.15213,268.33377,289.87378,273.23804,296.5946,289.18286,290.2002,273.44937,0.0011524002,0.0023688078,0.002395892,0.0015822708,3.4400623,3.4138494,2.9342804,3.2794616
Reims,49.25,4.03333,0.00013108784,3.3908423e-06,0.0,0.00011377512,276.8566,283.28815,291.2077,283.5663,281.11322,272.93494,288.51413,277.7835,295.46594,286.8487,290.80927,275.73367,0.0020113697,0.0022146155,0.0019650918,0.0025140375,4.2089734,3.6261504,3.166165,3.7042305
Heidelberg,49.407681,8.69079,0.00026101273,5.662938e-06,0.0,0.0002223745,275.27106,283.15323,291.8325,282.85764,280.11414,269.84488,288.96033,276.20508,295.7312,288.042,291.37805,274.26688,0.0021300812,0.002270162,0.0021961888,0.0026770234,3.392844,2.976063,2.624413,2.9418116
Rouen,49.44313,1.09932,8.19534e-05,3.349781e-06,0.0,4.858275e-05,277.8088,283.05273,290.2712,283.98996,281.6084,273.52762,287.84656,278.50708,293.5509,286.29358,290.0829,276.57877,0.0018649678,0.0022996862,0.001966691,0.0022624454,4.5837374,3.931819,3.4593887,4.01748
Nürnberg,49.454208,11.07752,0.0005377041,3.0167897e-05,0.0,0.00034203596,273.7198,281.91946,290.5865,281.56686,278.10757,269.50565,288.56323,274.33896,295.16016,287.09048,290.052,273.49506,0.0020523865,0.002555328,0.002479283,0.0024666362,3.4915428,3.1275852,2.6736822,3.0637782
Le Havre,49.493801,0.10767,7.110702e-05,1.66893e-06,0.0,2.0229816e-05,279.24484,283.20554,289.87613,285.24225,282.46777,275.29193,287.19376,279.15063,292.73804,286.29868,290.3855,278.47226,0.002332237,0.002334139,0.0022830644,0.0033021637,5.982688,4.9762263,4.370475,5.324243
Mannheim,49.496712,8.47955,0.00021151436,3.7387565e-06,0.0,0.00019333186,275.36282,283.2569,291.99872,282.9526,280.12885,269.60812,289.10095,276.34274,295.8752,288.12906,291.50568,274.34195,0.0019960299,0.0020840538,0.0020661743,0.0025500297,3.3804858,2.987586,2.6472776,2.941474
Plzeň,49.747471,13.37759,0.000536063,6.47717e-05,0.0,0.00037134025,272.61322,281.03223,290.01532,280.74414,276.87466,268.36014,287.93042,272.6039,294.37662,286.68814,289.3689,272.4962,0.0014319763,0.0022523033,0.002295298,0.0017102506,3.6668236,3.1902506,2.7145932,3.1497984
Trier,49.75565,6.63935,0.00035575763,3.1619602e-05,0.0,0.00029111237,274.79758,281.88858,290.10608,281.7868,279.05484,270.5473,287.25693,275.59058,294.53076,285.59537,289.76196,273.84628,0.0023502535,0.0023162416,0.002288066,0.0029166273,3.9944575,3.4695332,3.0711415,3.4838727
Ostrava,49.834648,18.28204,0.00071701605,0.00010816521,0.0,0.0005101899,272.53934,281.47406,290.75214,281.41568,277.85513,267.61826,288.6793,271.72647,295.25504,288.25244,289.56876,272.96167,0.0016165918,0.002846808,0.0030497445,0.0019317124,3.9129777,3.3617294,2.7784219,3.452952
L'viv,49.838261,24.023239,0.00075832475,0.00012556315,0.0,0.00052903563,271.4965,281.449,291.0977,281.01822,277.0402,265.64786,289.86987,270.39005,294.36182,289.21426,290.1923,270.22504,0.0014226198,0.0027182368,0.00310643,0.0018030644,4.307177,3.6901414,2.9797332,3.836945
Amiens,49.900002,2.3,8.50598e-05,3.732244e-06,0.0,7.262726e-05,277.4278,282.96204,290.27863,283.76276,281.22986,273.06668,287.94666,277.88452,293.8169,286.19788,290.2749,276.1442,0.0018274407,0.0022689858,0.001916488,0.0022763351,4.6217594,3.9534743,3.4948566,4.032836
Mainz,49.984192,8.2791,0.00024436138,1.0679387e-05,0.0,0.00021610966,274.95004,282.64005,291.2233,282.38342,279.38904,269.45795,288.45422,275.77698,295.20398,287.01102,291.02954,273.919,0.0017225231,0.0020788475,0.002120555,0.002243494,3.4097548,3.0712674,2.7282364,3.0013616
Kraków,50.061432,19.936581,0.0008017073,0.00016970784,7.450581e-09,0.00054589956,272.12277,281.20416,290.4855,280.9775,277.4491,266.62714,288.57617,271.31726,294.60156,288.16675,289.2832,272.47098,0.001682961,0.0029283524,0.0030534347,0.0019037564,3.865637,3.3978233,2.7942042,3.3237894
Wiesbaden,50.082581,8.24932,0.00027730202,1.4346838e-05,0.0,0.00023699204,274.80927,282.44064,290.93317,282.21368,279.16748,269.5063,288.2229,275.58292,294.96533,286.6875,290.84726,273.80252,0.001800108,0.0021203465,0.0021794427,0.002304946,3.456077,3.1048982,2.7466688,3.0434458
Prague,50.088039,14.42076,0.00043162107,4.277428e-05,0.0,0.00030649354,273.3089,281.7375,290.9019,281.46643,277.74304,268.27676,289.0785,273.3811,295.396,287.59204,290.37378,273.07376,0.001319615,0.0021805365,0.0021866441,0.0015426318,3.557327,3.2235727,2.7564266,3.1488779
Frankfurt am Main,50.11552,8.68417,0.00027748843,1.1406839e-05,0.0,0.00023427805,274.86673,282.57394,291.11166,282.3312,279.2865,269.74734,288.3767,275.64087,295.1255,287.00854,291.05322,273.87894,0.0019235392,0.0021337508,0.002178339,0.0024261712,3.4698331,3.0863073,2.7275817,3.046491
Katowice,50.258419,19.02754,0.00071225164,9.8378565e-05,0.0,0.00043945227,272.55673,281.66254,290.90222,281.49792,278.0182,267.49484,289.04495,271.47424,295.1344,288.4359,289.92883,272.93008,0.0017667983,0.0026657952,0.0029731325,0.0019164685,4.263701,3.6689284,3.016099,3.7008362
Plymouth,50.371529,-4.14305,4.594624e-05,4.0471555e-06,0.0,1.5094876e-05,280.3082,282.61914,288.4723,285.05145,282.34155,277.0664,286.19763,279.47327,291.76978,285.32446,288.5144,280.93533,0.0027253607,0.0023206195,0.0021878162,0.0033474644,6.949571,5.6576567,4.9016232,5.9824286
Kiev,50.454659,30.5238,0.0007147118,4.7777317e-05,2.746229e-07,0.00053368235,270.27454,281.4268,292.10355,280.42154,275.58328,262.9312,291.4519,269.8701,295.5148,289.24402,290.6526,267.2122,0.0013096032,0.0023526861,0.0027042106,0.0016358835,3.9900806,3.582195,3.1289318,3.7081378
Namur,50.4669,4.86746,0.00018058883,1.2143453e-05,0.0,0.00013046133,276.35446,282.58823,290.1123,282.97998,280.44824,272.28183,287.73218,276.41983,294.31918,285.7855,290.3502,275.2641,0.0021796385,0.0024153974,0.0022642454,0.002532747,4.7922134,3.924391,3.4295542,4.155371
Lille,50.632969,3.05858,8.067389e-05,6.566445e-07,0.0,6.239315e-05,277.50247,283.10477,290.35776,283.88876,281.2975,272.98587,288.20422,277.3789,293.85815,286.1942,290.45227,276.2299,0.0018319587,0.0022359292,0.0020804047,0.0022647977,4.6574078,3.954323,3.4972808,4.042021
Liège,50.633732,5.56749,0.00031968852,3.102869e-05,0.0,0.00021719733,275.8678,282.292,289.91312,282.58542,280.04602,271.60184,287.58447,275.80237,294.24756,285.50024,290.21436,274.88675,0.0024544438,0.0024894078,0.0024621685,0.0027959566,4.6856465,3.8265376,3.3458328,4.0554714
Bournemouth,50.720482,-1.8795,5.3048134e-05,1.3748803e-06,0.0,1.8970171e-05,279.71146,282.67963,289.10843,285.15134,282.01138,276.1959,286.56436,278.8518,292.5974,285.48486,289.4996,280.2623,0.0021848837,0.001997545,0.0021170299,0.0029856574,6.5231295,5.3097534,4.6654325,5.693384
Bonn,50.734379,7.09548,0.00033073293,3.0063919e-05,0.0,0.00024503734,275.5534,282.37585,290.32748,282.50107,279.81528,271.22845,287.9371,275.73038,294.75146,285.82877,290.7434,274.49896,0.0024460289,0.002320708,0.002558475,0.0029194725,4.1443677,3.46816,3.0108957,3.6225522
Eastbourne,50.768711,0.28453,4.5504396e-05,1.6406731e-06,0.0,2.190802e-05,279.83267,282.55505,288.9501,285.55292,282.25064,275.94345,285.98752,278.68802,292.04538,285.09195,290.06058,280.00232,0.0021155924,0.001744228,0.0020403122,0.003367915,7.703511,6.0918245,5.351052,6.7439885
Aachen,50.776642,6.08342,0.0003856129,3.652374e-05,0.0,0.00025530325,275.74353,282.22867,289.92508,282.51666,280.0184,271.11307,287.64755,275.5193,294.25522,285.506,290.31943,274.72665,0.0023927954,0.002464787,0.0025035222,0.0027017992,4.6923857,3.8089294,3.3382769,4.0465765
Brighton,50.828381,-0.13947,4.9080452e-05,3.4819047e-06,0.0,2.5128325e-05,279.46832,282.55475,289.09305,285.1327,281.88037,275.6526,286.16956,278.44727,292.1654,285.22754,289.82483,279.62894,0.0019933262,0.001784881,0.0020317514,0.0029666524,6.949817,5.590119,4.8939342,6.0591874
Chemnitz,50.833328,12.91667,0.00076472363,8.604477e-05,1.6887983e-08,0.000516508,273.3656,281.03183,289.75443,280.988,278.46106,268.60858,287.50354,272.80945,294.08557,286.46143,289.8379,271.8107,0.002080941,0.0026298524,0.0026699463,0.002121051,4.059699,3.3660398,2.8865342,3.453564
Maastricht,50.848331,5.68889,0.00022148092,1.4445683e-05,0.0,0.00014989873,276.34683,282.77963,290.39658,283.07422,280.5725,271.65433,288.1825,276.25122,294.81482,285.99866,290.7567,275.24942,0.0022764604,0.0023727457,0.0023691256,0.0026201368,4.5752544,3.737394,3.2916565,3.936029
Brussels,50.850449,4.34878,0.00010555585,2.09411e-06,0.0,7.2444476e-05,277.0074,283.08926,290.49496,283.5926,281.03638,272.52396,288.2832,276.90808,294.5166,286.26282,290.73816,275.8688,0.001970011,0.0022507033,0.0022141496,0.0023147485,4.6903014,3.8855054,3.4297323,4.036295
Leuven,50.879589,4.70093,0.00011645423,3.426605e-06,0.0,8.3364386e-05,276.8306,283.03836,290.50696,283.4604,280.93198,272.30478,288.2771,276.7561,294.7334,286.2251,290.77402,275.678,0.0020205048,0.0023017616,0.0022559643,0.0023714623,4.656842,3.8380892,3.3815508,4.0055537
Southampton,50.90395,-1.40428,5.3407748e-05,1.6629696e-06,0.0,2.5176008e-05,279.34897,282.62067,289.21426,284.878,281.7566,275.82495,286.57654,278.50964,292.60657,285.44238,289.5077,279.73734,0.0020532906,0.0019593397,0.0020758628,0.002808698,6.268784,5.1688976,4.548078,5.4521685
Köln,50.933331,6.95,0.0003023227,2.6182333e-05,0.0,0.00021896462,275.7998,282.51816,290.3874,282.6867,280.09937,271.20706,288.07617,275.84705,294.86206,285.93127,290.79102,274.72,0.0023683629,0.002361842,0.002570673,0.0028184832,4.3249707,3.579519,3.1215103,3.7622192
Erfurt,50.978699,11.03283,0.00049559807,3.2139706e-05,0.0,0.00035182195,273.55093,281.11636,289.692,281.1202,278.47803,268.69965,287.1925,273.13702,293.92493,286.11496,290.01913,272.0824,0.001696901,0.00215038,0.0022279033,0.0019091218,3.9439878,3.2986321,2.8472857,3.3582742
Leverkusen,51.0303,6.98432,0.00025729602,1.651976e-05,0.0,0.00019230314,276.0427,282.80487,290.67084,282.9444,280.34738,271.41846,288.4219,276.18323,295.2819,286.18527,291.10962,274.99496,0.0025653804,0.002371696,0.0026301418,0.003086627,4.248632,3.5357404,3.080411,3.7155812
Gent,51.049999,3.71667,8.371671e-05,5.933974e-07,0.0,5.576169e-05,277.35135,283.1796,290.46405,283.85684,281.21457,272.64197,288.3772,277.09924,294.0805,286.25125,290.61633,276.18787,0.0018779436,0.00224206,0.0021890781,0.0022639344,4.684413,3.9422653,3.5017228,4.0359273
Dresden,51.050892,13.73832,0.00058736006,6.4392225e-05,1.3245477e-09,0.00038938722,273.70227,281.54413,290.383,281.3848,278.6442,268.63242,288.25513,273.19507,294.8037,287.0638,290.17407,272.5115,0.0018741555,0.0024841733,0.0024817945,0.0018722243,3.9584537,3.3458815,2.8821058,3.3951936
Wrocław,51.099998,17.033331,0.000492492,4.16504e-05,0.0,0.00027067328,273.6133,282.07333,291.34726,281.78354,278.8566,268.44897,289.48398,273.26865,295.84912,288.21582,290.2369,273.32498,0.0015280909,0.002053282,0.0023712264,0.0015152454,4.0462565,3.590363,3.1068556,3.5905583
Neuß,51.198071,6.68504,0.00019303958,8.973479e-06,0.0,0.00013836424,276.34363,282.98453,290.77707,283.18863,280.6964,271.27664,288.57642,276.33154,295.31665,286.36365,291.20605,275.18216,0.002233561,0.0022714813,0.002457261,0.002673628,4.374115,3.6042848,3.166311,3.7827804
Brugge,51.20892,3.22424,6.847735e-05,6.9053084e-07,0.0,4.28394e-05,277.98105,282.84567,290.1002,284.54605,281.32828,273.09576,287.55368,277.14157,293.64557,285.88797,290.76825,277.1165,0.0019009061,0.0021328114,0.0023340224,0.0026814637,6.051759,4.997764,4.5105023,5.314664
Antwerpen,51.219891,4.40346,8.360015e-05,9.549989e-07,0.0,5.5056145e-05,277.17285,283.223,290.6066,283.7765,281.13623,272.36664,288.67343,276.93857,294.6437,286.3457,290.8308,276.04745,0.0018815862,0.0022173456,0.0022731463,0.0023029672,4.7049856,3.9311736,3.489648,4.0163126
Düsseldorf,51.221722,6.77616,0.00017281639,5.423581e-06,0.0,0.00012705238,276.4042,283.10806,290.91687,283.28802,280.72934,271.3297,288.74982,276.47144,295.60852,286.47174,291.3709,275.30246,0.0023485078,0.0022739342,0.0024988316,0.002839576,4.330362,3.5970504,3.1674852,3.7633579
Lublin,51.25,22.566669,0.0006336265,0.00011289649,0.0,0.00040126246,271.99408,281.34735,291.01892,280.8156,277.8063,266.4187,289.35294,270.81827,294.3478,288.70352,288.77432,270.16806,0.0014710744,0.0024141418,0.002544509,0.001577833,4.095682,3.5488653,2.9580204,3.6969573
Wuppertal,51.270271,7.16755,0.00031234155,1.9490719e-05,0.0,0.00022555722,275.8322,282.65082,290.4694,282.7808,280.12613,271.2327,288.34726,275.99326,295.20557,285.99365,290.97812,274.82806,0.0028067536,0.0025040838,0.002788263,0.0032931832,4.4039183,3.6509893,3.2048764,3.8309696
Kassel,51.316669,9.5,0.0004532125,2.8269158e-05,0.0,0.00033484964,274.249,281.44913,289.61423,281.42007,278.8838,269.5875,287.20337,274.03555,294.14453,285.55176,289.9957,273.074,0.0020481905,0.0022494844,0.0023745166,0.002391659,3.9273608,3.2875738,2.8627717,3.3675299
Krefeld,51.339211,6.58615,0.0001565069,4.1246412e-06,0.0,0.000110961,276.43414,283.10394,290.87323,283.29416,280.75696,271.35648,288.7943,276.43396,295.5205,286.45276,291.32898,275.28262,0.002247242,0.0022610864,0.002464203,0.002698801,4.340226,3.6001256,3.1813767,3.7470794
Leipzig,51.339619,12.37129,0.0003267606,2.459536e-05,0.0,0.0002523601,274.7305,282.27698,291.08023,282.24994,279.93384,269.341,288.75684,274.10962,295.4591,287.67603,291.25977,272.91397,0.0016141812,0.0020292243,0.0021583757,0.0017662565,3.9926414,3.3441164,2.907875,3.4197936
Hagen,51.360809,7.47168,0.00043169656,3.3621658e-05,0.0,0.0002989676,275.351,282.23074,290.07715,282.3487,279.6849,271.0263,288.00058,275.43417,294.8068,285.63705,290.6661,274.30106,0.0029435344,0.0025949266,0.0028829416,0.0033410892,4.4563975,3.667224,3.224725,3.8449183
Bath,51.377949,-2.35907,8.093814e-05,5.069375e-06,0.0,4.3722986e-05,278.35065,282.34668,289.05,283.78006,281.0702,274.8993,286.6814,277.98938,292.8634,285.23413,288.56604,278.3716,0.002015861,0.0021768967,0.002067526,0.0023983459,4.926801,4.3341446,3.7725406,4.2127986
Duisburg,51.432468,6.76516,0.00016503202,4.84652e-06,0.0,0.000118658274,276.38434,283.08762,290.88025,283.2623,280.70718,271.39316,288.7958,276.4148,295.58676,286.44092,291.3435,275.262,0.002317974,0.0022775808,0.002501011,0.0027875556,4.336381,3.5996907,3.177858,3.750994
Mülheim (Ruhr),51.433331,6.88333,0.00020207564,8.498132e-06,0.0,0.00014492273,276.22232,282.95993,290.76413,283.11984,280.5453,271.3583,288.67957,276.27856,295.4995,286.31348,291.2484,275.12003,0.0024476568,0.0023359894,0.002577289,0.0029146692,4.3629975,3.6168885,3.1908574,3.7729259
Eindhoven,51.44083,5.47778,0.00010650688,9.3645525e-07,0.0,7.2174604e-05,276.78766,283.19513,290.78714,283.51358,280.95767,271.7535,288.84317,276.60654,295.25766,286.43555,291.14902,275.6072,0.0020039664,0.0022310151,0.0023057673,0.0023892932,4.4423604,3.6785026,3.2664804,3.787455
Bristol,51.455231,-2.59665,9.048913e-05,5.853176e-06,0.0,4.7164493e-05,278.443,282.40637,289.0751,283.87592,281.1255,274.9633,286.6967,278.0634,292.89786,285.28482,288.5753,278.46494,0.0021295946,0.0022042063,0.0021124152,0.002535531,4.9909024,4.377319,3.816933,4.254027
Reading,51.456249,-0.97113,7.242803e-05,6.3790217e-06,0.0,5.0161503e-05,278.0394,282.33798,289.34158,283.65848,280.7975,274.67783,286.8783,277.52765,292.51587,285.22498,288.92276,277.919,0.001650291,0.0019355845,0.0019104852,0.0020290234,4.9017425,4.296007,3.7431707,4.197541
Essen,51.45657,7.01228,0.0002120442,8.779985e-06,0.0,0.00015076356,276.11224,282.86932,290.6596,283.02145,280.45544,271.3362,288.6376,276.15808,295.47525,286.22543,291.19296,275.00842,0.0025210558,0.0024077592,0.0026624186,0.0029617134,4.4485316,3.6651812,3.2407382,3.8259861
Oberhausen,51.47311,6.88074,0.00019187662,6.973081e-06,0.0,0.00013507604,276.21646,282.94363,290.71518,283.10895,280.54492,271.3575,288.70255,276.24033,295.47836,286.29312,291.22437,275.1059,0.0024290853,0.0023725033,0.002613486,0.0028699848,4.4177794,3.6476808,3.2266896,3.8017995
Cardiff,51.48,-3.18,0.00011619859,1.0916259e-05,0.0,5.4607124e-05,278.59952,282.2415,288.7604,284.0177,281.05664,275.13257,286.42953,278.09497,292.52954,285.14355,288.42734,278.78705,0.0026339027,0.0024428526,0.0024773967,0.0032068014,5.4851165,4.6979246,4.136814,4.7173033
Bochum,51.481651,7.21648,0.00028169242,1.6358163e-05,0.0,0.00019986718,275.81445,282.6198,290.4334,282.75293,280.19568,271.18582,288.39456,275.8829,295.2426,286.01166,290.99915,274.68506,0.0026819229,0.002498217,0.0027786961,0.0030886969,4.5093412,3.6934464,3.2622445,3.864641
Gelsenkirchen,51.5075,7.12283,0.00024856196,1.3003747e-05,0.0,0.00017589066,275.9648,282.74307,290.54242,282.88913,280.32553,271.2537,288.511,276.0188,295.32944,286.1227,291.08652,274.84628,0.0025839515,0.0024502012,0.0027166577,0.0030050464,4.473356,3.6742837,3.2467182,3.840569
London,51.50853,-0.12574,6.863144e-05,8.6082355e-06,0.0,4.6389632e-05,278.13156,282.50363,289.59897,283.8553,280.9232,274.63144,287.00967,277.49942,292.94205,285.4331,289.37344,277.97293,0.001563488,0.0018340588,0.0018719514,0.0019131502,4.874875,4.2590976,3.725185,4.1767325
Dortmund,51.514938,7.466,0.00035671834,2.5335064e-05,0.0,0.0002453239,275.55307,282.38483,290.22034,282.5243,279.96848,271.04193,288.15845,275.59903,294.96722,285.83936,290.82336,274.40598,0.0027340113,0.002530882,0.0028076102,0.003098682,4.5200467,3.6826444,3.247822,3.8659067
Tilburg,51.555511,5.0913,9.133319e-05,1.0550023e-06,0.0,6.373028e-05,276.85394,283.0594,290.52728,283.51404,280.896,271.98038,288.7506,276.51953,294.87085,286.23486,290.88037,275.705,0.0019475679,0.0022586822,0.002374057,0.0023778637,4.6238503,3.850161,3.4139407,3.9156992
Breda,51.586559,4.77596,8.438164e-05,1.1033482e-06,0.0,5.7315825e-05,276.98898,283.03714,290.4333,283.61038,280.9437,272.12558,288.671,276.5997,294.60727,286.1582,290.76523,275.8476,0.0018983072,0.0022485626,0.0023842016,0.0023787287,4.7679873,3.9760382,3.5279505,4.0311046
Łódź,51.75,19.466669,0.0005609795,6.513596e-05,0.0,0.00031892635,272.68378,281.37686,290.89993,281.08292,278.0848,267.95007,289.09875,271.8241,294.9158,288.10455,289.47116,271.16684,0.0015470221,0.0021676875,0.0023316985,0.0015920568,4.5172715,3.873403,3.3272808,4.0351124
Oxford,51.75222,-1.25596,8.963479e-05,9.287728e-06,0.0,6.543089e-05,277.90613,282.19415,289.1973,283.51566,280.62863,274.55823,286.724,277.43497,292.4076,285.0475,288.7561,277.7749,0.0016513435,0.0019453331,0.0019338749,0.0019931474,5.0119295,4.3909807,3.819831,4.296958
Nijmegen,51.842499,5.85278,0.000104945895,1.6729037e-06,0.0,6.876886e-05,276.56058,282.92178,290.50305,283.29736,280.70032,271.7631,288.7555,276.21033,294.97168,286.1952,290.95642,275.37772,0.0019949516,0.002263844,0.00238386,0.0023978313,4.578829,3.7988544,3.3731267,3.880511
Luton,51.879669,-0.41748,8.5611144e-05,9.722511e-06,0.0,5.2057705e-05,277.97656,282.39154,289.52585,283.70895,280.74268,274.6797,286.9253,277.37708,292.93396,285.2821,289.24585,277.855,0.0015667916,0.001859804,0.0018490393,0.0018568834,4.992772,4.364578,3.7977579,4.2864532
Cork,51.897968,-8.47061,4.015234e-05,2.4987594e-06,0.0,5.188253e-06,280.01645,282.3525,287.77206,284.28973,281.69504,277.85654,285.73145,279.4436,291.1259,285.4608,287.8877,280.75528,0.0029327075,0.0022501152,0.002459102,0.0031797567,6.19156,5.1621575,4.5464306,5.3718877
Rotterdam,51.922501,4.47917,7.951127e-05,8.927451e-07,0.0,4.536046e-05,277.24863,282.76907,290.15125,283.90866,280.92953,272.366,288.2211,276.49893,293.89682,285.8854,290.73657,276.19135,0.0019212033,0.002192635,0.0025138485,0.0026331982,5.5289645,4.5443683,4.065416,4.706572
Münster,51.96236,7.62571,0.00019652181,1.17805275e-05,0.0,0.00013105603,275.88568,282.66272,290.58463,282.80893,280.40918,271.2491,288.57382,275.63437,295.42905,286.24643,291.22226,274.5932,0.002264775,0.0022523669,0.0024795108,0.0026106278,4.414192,3.6260226,3.2410765,3.734028
Arnhem,51.98,5.91111,0.0001042313,2.0451016e-06,0.0,6.8536065e-05,276.508,282.82492,290.38467,283.23547,280.6229,271.82578,288.69083,276.09335,294.83658,286.09537,290.8502,275.32596,0.0019995822,0.002278524,0.0023940194,0.0024012935,4.643725,3.8498406,3.4176548,3.9240928
Bielefeld,52.033329,8.53333,0.00032890815,2.0542851e-05,0.0,0.00021864926,275.3731,282.22977,290.25552,282.37073,280.0121,270.84528,288.0009,275.03088,294.92426,286.01318,291.08337,274.1603,0.002408706,0.0023010748,0.0025512837,0.0027859616,4.430758,3.6162508,3.2198145,3.759666
The Hague,52.076672,4.29861,7.542106e-05,6.463793e-07,0.0,3.2505726e-05,277.84708,282.32016,289.71423,284.61575,281.00815,273.00888,287.15958,276.46005,293.24106,285.5166,290.9065,277.1583,0.002058175,0.0020300387,0.0026966732,0.0031723925,7.0493093,5.627736,5.0686736,6.1367726
Utrecht,52.090832,5.12222,8.850197e-05,1.4990568e-06,0.0,5.15908e-05,276.88974,282.71844,290.14453,283.55383,280.73657,272.15872,288.42932,276.14575,294.2356,285.9198,290.6925,275.7642,0.001937433,0.0022328338,0.0024588266,0.0024651785,5.1882906,4.2913365,3.8126776,4.367311
Magdeburg,52.127731,11.62916,0.00025930404,1.0498365e-05,0.0,0.0002124086,274.76154,282.17227,290.841,282.14548,279.80457,268.94672,288.3473,273.89563,295.28552,287.16077,290.8678,273.22134,0.0015309552,0.001921606,0.0020987669,0.001682798,3.9896238,3.4344118,3.0400355,3.4568176
Amersfoort,52.154999,5.3875,9.3969706e-05,2.1020571e-06,0.0,5.681614e-05,276.7386,282.74362,290.20847,283.41812,280.67798,272.03848,288.5443,276.0786,294.46094,285.96936,290.7268,275.58694,0.001959632,0.0022594293,0.0024309715,0.0024175425,4.9983745,4.145423,3.678427,4.2019672
Cambridge,52.200001,0.11667,9.0939466e-05,8.598963e-06,0.0,4.5825374e-05,277.96277,282.42303,289.61612,283.78488,280.77554,274.69653,286.9358,277.18042,293.04102,285.3597,289.5193,277.96805,0.0015472784,0.0018434578,0.0018223603,0.0018154039,5.136375,4.4702225,3.8896868,4.426493
Apeldoorn,52.209999,5.96944,0.00010958424,3.860615e-06,0.0,6.642342e-05,276.39084,282.6385,290.19485,283.11923,280.50864,271.79932,288.54474,275.83862,294.60004,285.93875,290.71814,275.15295,0.0020156754,0.0023347854,0.002458975,0.0024006525,4.791967,3.9634054,3.5163467,4.0283284
Warsaw,52.229771,21.01178,0.00050216954,4.8614434e-05,0.0,0.00029061723,272.59668,281.49463,291.0344,280.97165,278.0785,267.30707,289.7333,271.7466,294.70856,288.48627,288.85245,270.82654,0.0014445164,0.0022788083,0.0023572287,0.0015867974,4.084303,3.5695927,3.0488336,3.6977565
Northampton,52.25,-0.88333,0.000109333465,1.3120969e-05,0.0,7.642375e-05,277.73648,282.1324,289.22818,283.43213,280.45328,274.43106,286.64902,277.1692,292.58398,284.9567,288.90698,277.5826,0.0015926705,0.0019594883,0.0019104693,0.0018964132,5.194847,4.556177,3.9474282,4.4735937
Braunschweig,52.265942,10.52673,0.00037471278,2.0180809e-05,0.0,0.00027772321,274.58398,281.82376,290.1838,281.86212,279.45935,269.13562,287.62936,273.80933,294.58484,286.25256,290.60028,273.33936,0.0019683945,0.0021155109,0.0022730015,0.002132988,4.251858,3.5624983,3.1632924,3.6258523
Osnabrück,52.27264,8.0498,0.00022704867,1.4248601e-05,0.0,0.00014780716,275.69577,282.4919,290.4482,282.63135,280.28186,271.0729,288.43167,275.2642,295.16275,286.17007,291.1615,274.4509,0.0022494916,0.0022853569,0.0024893584,0.0025854288,4.398451,3.6323822,3.2539399,3.729266
Hoofddorp,52.302502,4.68889,8.1273916e-05,6.62605e-07,0.0,3.467401e-05,277.58545,282.26474,289.67276,284.33035,280.84583,272.8887,287.33386,276.17163,293.22632,285.51318,290.7693,276.82913,0.0020421406,0.0020644625,0.0026655516,0.003011789,6.7784677,5.4351187,4.8628817,5.8386865
Hannover,52.370522,9.73322,0.0003254533,2.0158292e-05,0.0,0.00022741887,275.05176,282.0635,290.28162,282.15683,279.90723,269.78458,287.7416,274.3842,294.67075,286.22055,290.92358,273.8372,0.0020606439,0.0021859487,0.002388207,0.002322062,4.2549467,3.5430677,3.1554666,3.623421
Amsterdam,52.374031,4.88969,8.56181e-05,1.0242064e-06,0.0,4.010101e-05,277.27982,282.39642,289.82468,283.9986,280.75098,272.60184,287.75586,276.06482,293.40564,285.64832,290.70508,276.37186,0.002012223,0.002142648,0.0025996089,0.0027900913,6.1867695,5.0194426,4.480982,5.2713227
Haarlem,52.38084,4.63683,8.1273916e-05,6.62605e-07,0.0,3.467401e-05,277.58545,282.26474,289.67276,284.33035,280.84583,272.8887,287.33386,276.17163,293.22632,285.51318,290.7693,276.82913,0.0020421406,0.0020644625,0.0026655516,0.003011789,6.7784677,5.4351187,4.8628817,5.8386865
Potsdam,52.398861,13.06566,0.00027541717,1.7229717e-05,0.0,0.00020713508,274.58542,282.34525,291.25418,282.17227,279.7893,268.9051,289.34448,273.82385,295.713,287.65747,291.19568,273.2924,0.0015954555,0.0020425757,0.0020397424,0.0016073068,4.07875,3.5342796,3.1385584,3.5658972
Coventry,52.406559,-1.51217,0.000120079516,1.6568769e-05,0.0,9.750525e-05,277.7183,282.05603,289.00604,283.33948,280.41782,274.3251,286.50693,277.22403,292.24893,284.83267,288.69052,277.53412,0.0016936726,0.0020329794,0.001963573,0.0020231644,5.1103764,4.519279,3.9085479,4.408429
Poznań,52.406921,16.92993,0.0004481127,2.3596485e-05,0.0,0.00023333232,273.54,281.83777,291.09662,281.51886,278.67395,268.41425,289.58533,273.1234,295.05334,287.71155,290.396,272.43924,0.0015296916,0.001911072,0.0022287646,0.0014735241,4.252131,3.7283804,3.289531,3.809582
Birmingham,52.481419,-1.89983,0.0001281831,1.9002622e-05,0.0,0.00010333327,277.76422,282.07584,288.92032,283.33493,280.54037,274.47177,286.45093,277.30038,292.29776,284.82895,288.5922,277.52826,0.0017601411,0.0021088708,0.0019775974,0.0021034002,4.915067,4.3761373,3.7815192,4.249492
Berlin,52.524368,13.41053,0.00028608242,1.6399224e-05,0.0,0.00020999179,274.47937,282.2643,291.2214,282.0934,279.6704,268.83472,289.41318,273.6967,295.70932,287.62222,291.1124,273.33847,0.0016034127,0.002051629,0.0020358667,0.0015946415,4.127054,3.5869486,3.1972418,3.6202748
Wolverhampton,52.585468,-2.12296,0.00014767647,2.1000207e-05,0.0,0.00010954042,277.71497,281.96378,288.70358,283.23013,280.5668,274.5658,286.2484,277.23328,292.0979,284.69836,288.39563,277.4456,0.0018607994,0.002155471,0.0019760013,0.0021819114,4.8477945,4.3273187,3.7344089,4.1974134
Norwich,52.627831,1.29834,0.0001000921,3.5325686e-06,0.0,3.069242e-05,278.32614,281.88223,288.928,284.27014,280.64957,275.25284,285.7582,276.73462,292.04556,285.11392,289.59512,278.9617,0.0016774442,0.0017309242,0.0019333998,0.002110211,6.4941335,5.4123864,4.6819715,5.7224984
Leicester,52.638599,-1.13169,0.00012978911,1.3168653e-05,0.0,9.7618504e-05,277.6586,282.026,289.03607,283.3216,280.53458,274.38696,286.45898,277.02026,292.24524,284.8413,288.78772,277.50626,0.0016264479,0.001980722,0.0019150177,0.0019625723,5.259783,4.6328015,4.001203,4.535621
Luimneach,52.664719,-8.62306,8.237262e-05,5.5809815e-06,0.0,2.3812056e-05,278.7991,282.05124,287.53976,283.27435,280.73392,276.66187,285.9215,278.55774,291.09436,285.10876,287.3158,279.3036,0.0031396071,0.0026105603,0.0026559115,0.0032071015,4.5977607,4.0530124,3.6142128,3.969774
Derby,52.922771,-1.47663,0.00019442772,2.2850434e-05,0.0,0.00013669863,277.43625,281.7187,288.56326,283.00638,280.48245,274.2665,286.07724,276.7338,291.59717,284.50293,288.36777,277.23788,0.0018654584,0.0021447341,0.002011442,0.002182298,5.200437,4.6135592,3.9642644,4.486854
Nottingham,52.953602,-1.15047,0.00015979608,1.2216965e-05,0.0,0.00011063549,277.64227,281.95663,288.90378,283.27203,280.75296,274.54483,286.28784,276.85083,291.93018,284.8047,288.7125,277.5081,0.0016571336,0.0019646646,0.0019033115,0.0020002497,5.3079724,4.670738,4.0157194,4.570087
Toruń,53.013748,18.598141,0.0004808611,3.724098e-05,0.0,0.00026329624,272.98038,281.27457,290.7215,281.1011,278.26547,267.62332,289.25903,271.78183,294.47818,287.48422,289.63486,271.0434,0.0014242755,0.0019916533,0.0021482257,0.0014716043,4.31235,3.7807894,3.3101974,3.9345465
Bremen,53.075161,8.80777,0.00022355716,1.1565288e-05,0.0,0.00012249946,275.5287,282.08487,290.0765,282.42093,280.10352,270.37482,287.79504,274.6361,294.31824,285.91895,290.95544,274.44608,0.0020514547,0.0022319278,0.0024614334,0.0022757251,4.409957,3.736126,3.3372838,3.7738001
Bydgoszcz,53.123501,18.00762,0.00048287577,2.8150613e-05,0.0,0.00025762053,273.03586,281.1544,290.53964,281.0346,278.2653,267.76913,289.00723,271.73853,294.38754,287.19775,289.71558,271.33133,0.0014234171,0.0020007398,0.0021119225,0.0013920175,4.3706923,3.8247306,3.3659136,3.9561324
Groningen,53.21917,6.56667,0.00013986827,3.4319028e-06,0.0,6.1803396e-05,276.3283,281.8377,289.49234,283.17465,280.18945,271.6295,287.33945,274.96524,293.25146,285.35825,290.49356,275.3494,0.0020784244,0.0023001353,0.0028819453,0.002587888,5.989367,4.9679437,4.4159617,5.1213565
Dublin,53.333061,-6.24889,0.00011389123,7.606215e-06,0.0,5.3373973e-05,279.1342,281.9526,287.69574,283.72012,281.2453,276.886,285.01822,278.64365,290.58994,285.0355,287.4576,279.7335,0.0024240254,0.0023461925,0.0024177074,0.0027941517,5.9381485,5.0184655,4.2582626,5.176092
Sheffield,53.382969,-1.4659,0.00028971964,3.0365916e-05,0.0,0.00016867982,277.27762,281.41403,288.14825,282.73526,280.62192,274.33,285.57788,276.34546,291.031,284.23877,288.06552,277.01215,0.0020752351,0.0022034696,0.0020507337,0.0023342026,5.226997,4.624911,3.948653,4.480946
Liverpool,53.41058,-2.97794,0.00016377898,2.056294e-05,0.0,7.6801254e-05,278.42252,281.95755,288.2529,283.74164,281.1924,275.71915,285.7185,277.58243,291.4392,284.8413,288.2556,278.21918,0.0026571222,0.0024382062,0.0024537353,0.0032766103,5.7316766,4.8898396,4.2406654,4.9891214
Szczecin,53.42894,14.55302,0.00036746362,2.4958452e-05,0.0,0.00021674336,274.11478,281.49252,290.57364,281.80798,279.0265,268.96124,288.82727,272.9879,294.88562,287.015,290.35657,273.43765,0.0016649564,0.0021327336,0.0022116145,0.0016025623,4.656545,3.9974902,3.6022418,4.151752
Manchester,53.480949,-2.23743,0.00029942725,3.6508947e-05,0.0,0.00014371518,277.24615,281.3131,287.71866,282.58234,280.43396,274.50226,285.42798,276.57538,290.67688,284.0221,287.69794,276.97433,0.0029508343,0.0025836308,0.0024865963,0.0031294927,4.971894,4.448342,3.7823615,4.288625
Hamburg,53.575321,10.01534,0.00029266145,1.4085239e-05,0.0,0.00016046896,274.9767,281.5296,289.85577,281.9886,279.63004,269.7732,287.08163,273.81583,294.39404,285.75992,290.59805,274.0953,0.0020196172,0.0022425386,0.0024023904,0.0021501542,4.450998,3.8275323,3.4422748,3.8413014
Hull,53.744598,-0.33525,0.00014101929,5.9147674e-06,0.0,6.678767e-05,277.99246,281.73773,288.50818,283.59152,280.93182,275.37167,285.33374,276.93857,291.2855,284.736,288.78232,278.4892,0.0017157899,0.0018388272,0.0019137647,0.0020646309,6.0238414,5.2097554,4.434735,5.2531295
Preston,53.76667,-2.71667,0.00020502057,2.4383156e-05,0.0,7.2887204e-05,278.227,281.74863,288.02365,283.53406,280.9652,275.63614,285.56384,277.37357,291.094,284.641,288.0864,278.09827,0.0033590035,0.0026045835,0.0028465837,0.0039742966,5.9274936,5.029351,4.3275237,5.127303
Olsztyn,53.779949,20.49416,0.00071447337,7.0605456e-05,0.0,0.00035649582,271.87567,280.34375,289.99207,280.30457,277.56723,266.1925,288.88934,270.7388,293.69684,287.04855,288.224,269.9659,0.0016241603,0.0023539367,0.0024354581,0.0017190509,4.5409403,3.8356798,3.3533125,4.0900297
Bradford,53.793911,-1.75206,0.00039912682,4.6145473e-05,0.0,0.0002043777,276.9827,280.9414,287.5088,282.29654,280.39337,274.18127,284.9106,275.9825,290.36298,283.74908,287.54822,276.62277,0.0025661292,0.0023347503,0.0022070357,0.0026954757,5.179141,4.5790057,3.8947585,4.405075
Leeds,53.796478,-1.54785,0.00032171144,3.3096916e-05,0.0,0.00017016199,277.32916,281.34515,288.02493,282.7011,280.82175,274.51355,285.2928,276.31345,290.9893,284.1935,288.0328,276.9774,0.0021382368,0.0021296889,0.0019855641,0.0023235816,5.168923,4.5726085,3.8931987,4.405906
Blackpool,53.816669,-3.05,0.00018046796,2.035449e-05,0.0,5.1947434e-05,278.80957,281.6767,287.88235,284.10837,280.99026,276.25183,285.2434,277.6931,290.9525,284.74866,288.1682,279.07767,0.0036001583,0.0026596228,0.0030064464,0.004495873,7.1806192,5.8301086,5.076865,6.2633286
Lübeck,53.868931,10.68729,0.00030678013,1.4709433e-05,0.0,0.00016828925,274.92383,281.2484,289.84857,282.06348,279.4392,269.83063,286.8169,273.44275,294.1349,285.83264,290.46216,274.33267,0.0018733144,0.0021634817,0.0022955935,0.0020344157,4.983232,4.263173,3.8614485,4.3548245
York,53.95763,-1.08271,0.00022600757,1.8560224e-05,0.0,0.000119304656,277.5829,281.585,288.321,283.0189,281.02655,274.91577,285.3453,276.698,291.25626,284.4437,288.43466,277.46884,0.0018451717,0.0019551807,0.0018319924,0.0020502065,5.231477,4.6436157,3.9498866,4.4951334
Harrogate,53.99078,-1.5373,0.0003199012,3.3910186e-05,0.0,0.00016639498,277.30978,281.25323,287.90106,282.62802,280.82803,274.6036,285.05298,276.31107,290.84323,284.0746,287.95923,276.91812,0.002125493,0.0020516077,0.001903308,0.0022410357,5.1540174,4.566045,3.8797457,4.381582
Rostock,54.088699,12.14049,0.00032697816,1.4571348e-05,0.0,0.00016862353,274.9069,280.9537,289.991,282.3065,279.18762,269.8461,286.864,273.13086,294.2943,286.12476,290.1787,274.62503,0.001725787,0.002042695,0.0023288012,0.0019481818,5.730005,4.846475,4.4263015,5.0868826
Kiel,54.321331,10.13489,0.000316902,1.2319287e-05,0.0,0.00016272366,275.2149,280.9102,289.61197,282.3453,279.33643,270.33694,286.1671,273.40137,294.10657,285.57507,290.25378,275.11258,0.0020432512,0.0020143152,0.0023606142,0.0022747219,5.543939,4.7285333,4.302686,4.882553
Gdańsk,54.352051,18.64637,0.00061363576,5.5296223e-05,0.0,0.00027720927,273.5568,279.99994,289.84714,281.57465,278.42285,268.17862,287.38757,271.90625,293.28442,286.41077,289.19885,272.38943,0.0016149421,0.0021782755,0.002433435,0.0018951932,5.8151526,4.7413783,4.275742,5.1872087
Gdynia,54.51889,18.531879,0.00064132834,6.1149956e-05,0.0,0.0002813657,273.62436,279.8407,289.6959,281.57452,278.4203,268.3201,287.17343,271.93216,293.24756,286.2263,289.11633,272.6573,0.001636883,0.002196432,0.0024750887,0.0019055508,5.995402,4.858716,4.394489,5.3147254
Belfast,54.583328,-5.93333,0.00011869073,1.5806158e-05,0.0,2.8294326e-05,279.1894,281.59857,286.9993,283.76617,281.56424,277.15515,284.38135,278.55865,289.667,284.4441,287.36914,280.0692,0.0028319538,0.00252496,0.0026471098,0.0034421564,6.610696,5.503181,4.616623,5.7413154
Vilnius,54.689159,25.2798,0.0009969618,8.893742e-05,0.0,0.0006064303,270.28848,279.6766,289.94836,279.19162,276.41568,264.7187,288.6057,269.47208,293.4537,286.96802,286.89462,267.91318,0.0018288136,0.0022719912,0.002648412,0.00187286,4.3989973,3.742553,3.226491,3.9773028
Kaliningrad,54.70649,20.51095,0.0007072502,5.4696757e-05,0.0,0.0003280419,273.03006,280.26797,290.19086,281.2088,278.2343,267.80707,288.778,271.52353,293.79144,286.94568,288.58032,270.68985,0.0018324605,0.0022412548,0.0024553866,0.002125567,4.972884,4.05259,3.64614,4.4074244
Kaunas,54.900002,23.9,0.00081149937,6.1707695e-05,9.934108e-10,0.0004642591,271.2991,280.17444,290.2228,279.8773,277.33923,265.4418,289.07007,270.17566,293.73438,287.27844,287.48535,269.14066,0.0017469823,0.002175331,0.0024192096,0.0018595775,4.2339435,3.5895581,3.1272771,3.80176
Newcastle upon Tyne,54.973282,-1.61396,0.0002788504,4.4494205e-05,0.0,0.00013369719,277.8208,281.02625,287.4597,282.84924,281.03598,275.64542,284.24927,276.7714,290.19028,283.98145,287.73038,277.6202,0.0020285845,0.0021281294,0.001953427,0.0023312303,5.9764266,5.0720806,4.2408,5.0697274
Malmö,55.605869,13.00073,0.00046968326,2.9328134e-05,0.0,0.00019736025,274.55136,279.8831,289.25995,281.83743,278.59668,269.83865,285.98184,272.9641,293.79623,285.02084,289.12656,275.05722,0.0017193583,0.0019400384,0.002309476,0.0020671075,5.7350183,4.9501085,4.399402,5.167573
Copenhagen,55.675941,12.56553,0.0004380554,2.3992856e-05,0.0,0.00017962804,274.7792,280.034,289.41443,282.058,278.74292,270.01968,286.12085,273.01978,294.0432,285.21863,289.35815,275.25073,0.0016809563,0.0019347271,0.0022622426,0.0020350157,5.91582,5.075369,4.5260167,5.3265533
Moscow,55.75222,37.615559,0.0012065,0.00013408462,1.8280081e-05,0.000826937,266.69125,278.67734,290.24338,277.21014,272.9204,260.78067,288.8544,268.7942,294.42896,287.04712,286.80737,263.95923,0.0014761819,0.002013005,0.0026996455,0.0017824279,4.1008854,3.593185,3.1001394,3.658868
Glasgow,55.86515,-4.25763,0.00065199134,0.00010156764,1.3245477e-09,0.00026926066,277.16934,280.70258,286.71094,282.04736,280.68344,273.95648,284.379,276.80524,289.4288,283.89957,286.60815,277.08295,0.0045676627,0.0029066403,0.0029830881,0.0043754205,4.7199235,4.1827936,3.5397918,3.9323056
Edinburgh,55.952061,-3.19648,0.000378663,7.149246e-05,0.0,0.00016645722,277.529,280.84103,287.02982,282.44092,281.01645,275.2999,284.03232,276.9991,289.39258,284.11508,287.24472,277.47113,0.00260476,0.0023064613,0.0022562821,0.0027950048,5.467344,4.705558,3.9450364,4.5337734
Århus,56.156738,10.21076,0.00043282905,4.173252e-05,0.0,0.00020602411,275.28644,280.0778,288.97345,282.3013,278.96274,270.67636,285.69736,273.3334,293.4982,285.11655,289.5193,275.74585,0.0018376986,0.0018580595,0.0020899188,0.0020856857,6.286217,5.316915,4.8044,5.6599965
Riga,56.945999,24.10589,0.00091127655,7.744034e-05,0.0,0.00048767775,271.5012,279.14713,289.9369,279.9908,277.14124,264.11218,287.84973,270.46387,293.13306,286.44263,287.739,269.02588,0.0017750601,0.0021699588,0.0024086158,0.002119436,4.9776835,4.099161,3.6488776,4.4867077
Aberdeen,57.143688,-2.09814,0.00030067266,3.4451485e-05,0.0,8.1972285e-05,278.26074,280.41443,286.19406,283.00424,281.02225,276.50403,283.1754,277.37732,288.93665,283.14087,286.95972,279.0989,0.0021092952,0.0020180305,0.0020975668,0.0026235422,7.12914,5.8604765,4.7370844,6.1903567
Yaroslavl',57.629871,39.87368,0.0012740672,0.00015442619,5.058249e-05,0.0009584099,265.31897,277.6982,289.60516,276.23288,272.45715,258.95703,286.77588,268.59604,293.94104,286.81104,285.85156,263.16602,0.0015330116,0.0022680997,0.0028020977,0.0018167614,4.0424814,3.6013541,3.052299,3.6562424
Göteborg,57.707161,11.96679,0.0006041721,9.952033e-05,0.0,0.0003679452,274.02725,279.7475,288.89716,280.99893,278.3554,268.61987,286.88632,273.38855,293.4177,284.72238,288.39435,273.41772,0.0021945494,0.0022583501,0.0029315737,0.0025566667,5.007143,4.237581,3.772692,4.436697
Stockholm,59.332581,18.064899,0.0007106731,0.00014282564,0.0,0.00040842692,272.24017,278.02585,288.7589,279.97977,277.1261,266.05545,284.73352,271.78784,292.792,284.5287,288.07043,272.97607,0.0013153056,0.0016818047,0.0022286375,0.0016634365,5.0742245,4.2860823,3.7415326,4.5489244
Tallinn,59.436958,24.753531,0.0010178367,0.00012349818,3.7087332e-08,0.0006031103,270.52307,277.01376,288.63187,279.31305,275.23062,261.89395,284.78067,269.615,292.15347,284.5917,286.50253,269.1241,0.0017044332,0.0017430623,0.0023975957,0.0020447571,5.3219724,4.3556037,3.968856,5.0218635
Saint Petersburg,59.89444,30.26417,0.0011657622,0.00021573834,6.238619e-07,0.00084628596,267.9339,277.10733,288.77094,277.24384,274.19498,259.72208,285.92603,267.67227,292.5599,284.80313,285.32275,266.11322,0.00161216,0.0019537767,0.00224798,0.0018927574,4.1741285,3.5088236,3.1452146,3.7667363
Oslo,59.912731,10.74609,0.0013343825,0.0002784802,1.7311837e-06,0.00096258917,270.08685,278.46487,288.69656,278.92267,276.2798,263.441,286.08505,271.4332,293.34277,284.33447,286.9563,272.20645,0.0019395908,0.0022623488,0.0028008036,0.0024880965,2.9021485,2.824863,2.5739386,2.7013485
Helsinki,60.169521,24.93545,0.0011502594,0.00014397354,0.0,0.0006909008,270.03986,276.00095,288.17178,279.3556,274.39734,261.18628,283.22217,268.32477,291.51038,283.9879,286.4082,271.37674,0.001713421,0.0015339733,0.0022194863,0.002249525,5.7777815,4.630373,4.3617916,5.6212974
Espoo,60.2052,24.652201,0.0012424852,0.00015360647,0.0,0.00073019665,269.77435,276.28284,288.35513,278.91544,274.09244,260.8147,284.19083,268.3878,291.81705,284.45084,286.05118,270.93985,0.0017654499,0.0015836026,0.0022206255,0.0022161058,5.1699963,4.2126594,3.9501312,4.97955
Vantaa,60.29414,25.040991,0.0012008102,0.00014574705,0.0,0.0007218706,269.73236,276.34088,288.42514,278.9384,274.10413,260.7644,284.23917,268.62772,291.92947,284.4995,286.05884,270.9251,0.0017167904,0.0015612637,0.0021885412,0.002151673,5.228652,4.2674823,4.0187564,5.0392733
Bergen,60.39299,5.32415,0.003061068,0.0003602296,9.941558e-06,0.001273409,274.63464,278.39932,286.1615,280.36148,277.60645,270.52783,283.27637,274.6349,290.12793,282.71753,287.52222,274.01672,0.009175336,0.0042058667,0.0057266993,0.008209938,4.928797,4.1224203,3.536746,4.164406
Turku,60.451481,22.26869,0.001141949,0.00011422634,0.0,0.0005983229,270.30634,277.0485,288.63037,278.81134,274.789,260.703,285.66907,269.72253,292.0692,284.91553,286.00198,271.05618,0.0017392795,0.0016526964,0.0022595017,0.0021046286,4.405813,3.7745535,3.512813,4.118841
Tampere,61.499111,23.787121,0.0012479146,0.00022104052,0.0,0.00082387216,268.29672,276.42346,288.3111,277.3653,273.35736,258.99228,286.04016,268.14615,292.0486,284.74216,284.96008,269.4984,0.0015507168,0.0017913324,0.0024002218,0.0018742916,3.7219896,3.282141,2.9528863,3.4864779
Reykjavík,64.135483,-21.895411,0.002132525,0.00039658597,1.8927454e-05,0.0012014438,272.37857,275.7223,283.3402,277.66373,275.64185,269.8443,280.5144,270.55084,285.84485,280.91333,283.4475,270.51794,0.0047111767,0.003031071,0.0038153569,0.004583305,5.59282,4.7133007,4.0618215,4.894455
Oulu,65.01236,25.468161,0.0011064671,0.00021459085,7.064254e-07,0.00091993896,265.58463,274.2603,287.27747,275.70676,272.84674,257.9953,282.83185,265.93478,291.5182,283.00085,283.54187,266.84906,0.0012848431,0.0014794809,0.0022655276,0.0017346382,4.11162,3.5419135,3.2377346,3.9008408
