city,latitude,longitude,tp_winter,tp_spring,tp_summer,tp_autumn,sf_winter,sf_spring,sf_summer,sf_autumn,si10_winter,si10_spring,si10_summer,si10_autumn,t2m_winter,t2m_spring,t2m_summer,t2m_autumn,max_t2m_winter,max_t2m_spring,max_t2m_summer,max_t2m_autumn,min_t2m_winter,min_t2m_spring,min_t2m_summer,min_t2m_autumn
Aachen,50.776642,6.08342,0.0031457422,0.002086388,0.0024499875,0.0026806486,0.0003593575,6.529619e-05,1.6402828e-08,5.112564e-05,4.5928516,3.5758011,3.1909244,3.958367,277.61063,283.72635,291.8162,284.861,280.418,288.45422,297.15747,289.03647,274.7688,278.9242,286.40482,281.02533
Aberdeen,57.143688,-2.09814,0.002571443,0.0017630344,0.0019805382,0.002830478,0.00018776696,8.851609e-05,3.732332e-09,1.6905964e-05,6.774324,5.463084,4.505708,6.092526,278.20447,280.86456,286.88873,283.1652,280.4012,283.77716,289.95215,285.65973,275.85916,277.81253,283.6792,280.61893
Aix-en-Provence,43.528301,5.44973,0.0015790527,0.001913039,0.0008283594,0.0028543756,7.4309473e-06,1.966127e-06,4.5778398e-10,2.317743e-06,3.0319498,3.3513827,2.9142036,3.0043464,280.85242,286.91562,296.6914,289.67987,284.553,291.48648,301.7728,294.01297,277.7119,282.33612,291.32037,285.82346
Alcalá de Henares,40.482052,-3.35996,0.0010623212,0.001348722,0.000463049,0.0015546338,0.00018006662,2.0438072e-05,3.0282146e-07,2.2792057e-05,2.2133412,2.3865714,2.42129,2.1913521,279.95407,286.97076,298.61142,289.27936,285.56882,293.66772,306.68375,295.59885,274.94528,280.0864,289.95743,283.39386
Alicante,38.345169,-0.48149,0.001200642,0.0009764174,0.00022481903,0.0014922142,1.2028768e-05,2.9241312e-06,2.6852585e-09,6.246442e-07,2.7750983,2.5652952,2.3919086,2.5310092,284.11627,289.54953,299.58807,292.7807,289.95044,295.78644,306.11798,298.66583,279.17932,283.4311,293.1955,287.60492
Almería,36.838139,-2.45974,0.0010973611,0.0007134979,0.00018660915,0.0009557804,0.00015284459,1.7756765e-05,6.664377e-10,2.2466525e-05,1.9957615,2.1031208,1.970093,1.9787371,282.54782,288.26285,298.52692,291.3483,288.248,294.09225,304.7764,297.08728,277.93546,282.29596,291.8787,286.27646
Amersfoort,52.154999,5.3875,0.0028059157,0.0019397428,0.0020645072,0.0027352755,0.0001105861,2.2594779e-05,4.5790993e-09,1.4513991e-05,4.7656837,3.9423013,3.4074776,4.0988073,278.20578,283.54602,290.9879,284.68576,280.88254,288.1665,296.08112,288.71524,275.42224,278.75006,285.54584,280.88205
Amiens,49.900002,2.3,0.0031207926,0.0020602774,0.0021346253,0.0024039217,0.0001371245,2.6220436e-05,6.147728e-09,2.4616596e-05,4.583618,3.7577908,3.3969295,3.8962922,278.97766,284.1753,291.9243,286.02924,281.4335,288.30396,296.62375,289.87955,276.45456,279.9766,287.06042,282.39526
Amsterdam,52.374031,4.88969,0.0029372752,0.0020761103,0.002097302,0.0032253154,8.0659425e-05,1.2696386e-05,6.5557493e-09,4.807419e-06,6.2015195,5.0796614,4.367123,5.3967657,278.3192,283.1191,290.3957,285.15662,280.43372,286.56104,293.99835,288.1971,276.06955,279.50952,286.3812,282.1954
Angers,47.466671,-0.55,0.0027756486,0.0017366111,0.0014074808,0.0022814851,1.991634e-05,3.8731446e-06,1.2130151e-08,1.0391808e-06,4.053416,3.4908938,3.2396832,3.4156775,279.72342,285.03268,293.36386,287.13504,282.93286,290.1173,299.13333,292.08496,276.57092,279.88397,287.4443,282.5377
Antwerpen,51.219891,4.40346,0.0027158682,0.0017330179,0.0021343909,0.0023877488,9.547488e-05,2.045348e-05,9.306057e-09,1.7742423e-05,4.5593543,3.7213101,3.31557,3.930642,278.74823,284.1059,291.9344,285.37683,281.48837,288.5957,296.92096,289.41486,275.9188,279.5074,286.77496,281.61224
Apeldoorn,52.209999,5.96944,0.0029019343,0.0019963626,0.0022457305,0.0028535468,0.0001073288,1.9637835e-05,4.3644124e-09,1.4393345e-05,4.641033,3.884217,3.3663945,4.0476317,278.21652,283.4993,290.7869,284.61,280.76773,288.09125,295.80133,288.53317,275.56348,278.73862,285.39395,280.90317
Arezzo,43.461391,11.87691,0.0017345988,0.0019842722,0.0011760683,0.003055903,0.00032378433,2.338357e-05,2.8875935e-09,0.00012510236,2.195658,2.1956,1.9083922,2.0506501,277.7803,284.37543,295.20474,286.7962,280.99094,288.7108,300.56665,290.82904,274.9653,280.0787,289.82916,283.18597
Arnhem,51.98,5.91111,0.0028319662,0.0019053608,0.0022027493,0.0027286396,0.00012270128,2.5555059e-05,8.905504e-09,1.5449015e-05,4.4862576,3.7161534,3.2547061,3.9027839,278.3247,283.68103,291.17926,284.7614,280.9271,288.32465,296.3507,288.75372,275.63492,278.89572,285.73865,281.01343
Athens,37.97945,23.716221,0.0022595348,0.0008904628,0.00018731845,0.0012823085,3.2150765e-05,1.888671e-05,5.425197e-10,9.945945e-06,2.6744401,2.404121,2.5537467,2.3936875,282.9274,288.6466,300.62985,292.2185,286.66345,293.89532,306.40472,297.0646,279.40942,283.55368,294.50922,287.81674
Augsburg,48.366669,10.88333,0.0020700356,0.002511662,0.0031679585,0.0022416164,0.0005986512,0.00017042064,1.8632312e-08,8.3271865e-05,3.1336412,2.667224,2.2850509,2.5495954,275.09113,283.50946,292.9844,283.93494,278.12744,288.69495,298.84076,288.6803,272.20706,278.60364,287.3769,279.74985
Avignon,43.948341,4.80892,0.0016672161,0.001931125,0.0009783974,0.003351563,7.762883e-05,1.9868192e-05,3.900844e-09,9.417399e-06,3.1951911,3.2779,3.107236,3.0076947,280.05807,286.65298,296.67816,288.91608,283.99667,291.79672,302.54095,293.61435,276.71454,281.63763,290.7559,284.7797
Barcelona,41.38879,2.15899,0.0007757468,0.0014618819,0.0011429163,0.00304647,1.6401902e-05,7.6525413e-07,3.3094902e-09,4.7643275e-06,2.1729352,2.2141309,2.0118299,1.9527414,282.298,287.5325,297.36993,290.66187,286.99704,292.5721,302.49005,295.5371,278.3902,282.70016,292.39362,286.54602
Bari,41.117729,16.851179,0.0019999063,0.001211489,0.0004838255,0.0016940739,1.3758798e-05,2.2744234e-06,1.3097363e-09,1.0804779e-05,3.7938898,3.439012,2.9109497,3.2092433,282.6699,288.34976,299.4953,291.742,286.43964,293.19257,305.13037,296.38153,279.1887,283.63046,293.70938,287.66678
Basel,47.558399,7.57327,0.0035279857,0.003509383,0.0032888043,0.0031559926,0.0007461708,0.00020249365,2.2771276e-06,8.6951695e-05,2.2912903,2.038462,1.7371819,1.8495629,275.99783,283.976,292.67743,284.38312,278.58826,288.82532,298.36945,288.84518,273.5969,279.41376,287.226,280.54037
Bath,51.377949,-2.35907,0.0029661336,0.0019236036,0.001614163,0.0028558217,0.00012273392,2.3439585e-05,4.179059e-09,1.4052572e-05,4.45219,3.9403834,3.3951008,3.9033256,278.53787,282.54486,290.0182,284.74487,281.36636,286.79242,294.7786,288.40363,275.51404,278.26526,285.11322,281.1249
Belfast,54.583328,-5.93333,0.0038354143,0.0025917399,0.0020544962,0.0037933732,0.00012545807,2.6574791e-05,4.060029e-09,2.8040178e-05,5.7592297,4.75566,3.8253093,5.0890436,278.5072,281.42432,287.8657,283.63022,281.15213,285.0964,291.90146,286.78522,275.77246,277.74274,283.74188,280.4772
Belgrade,44.804008,20.46513,0.0014109272,0.0015880556,0.0021141456,0.0015785992,0.00029715683,3.0257565e-05,9.104965e-09,3.6473026e-05,2.8456306,2.7650294,2.4664745,2.7852855,276.8435,286.92206,298.41986,287.7492,280.13205,292.2306,304.62735,292.8504,273.62082,281.54987,292.0843,283.10123
Bergamo,45.697979,9.66895,0.00146647,0.0030350313,0.002661341,0.003045321,0.00021254335,6.378708e-05,1.2544758e-07,2.5946294e-05,1.5291202,1.6747822,1.4775035,1.4791799,277.455,286.55887,296.82492,287.21005,281.1362,291.60297,302.26443,291.80145,274.52252,281.66306,291.502,283.10736
Bergen,60.39299,5.32415,0.011704492,0.0062180366,0.0053355666,0.011076386,0.0050563347,0.0015724361,1.0399672e-06,0.0010259241,3.3580568,3.0657296,2.5755873,3.145926,276.02527,280.06592,287.30038,281.6222,277.55286,282.92288,290.33707,283.7947,274.1603,276.6542,283.69894,279.23264
Berlin,52.524368,13.41053,0.0017326765,0.0016041441,0.0020201348,0.0015701104,0.00017372103,4.3498312e-05,8.576036e-09,3.0645846e-05,3.8764715,3.2365906,2.976264,3.5716774,276.76028,284.25473,292.82465,284.69452,279.23547,289.10388,298.02533,288.49,274.19968,279.2548,287.43268,281.03156
Bern,46.94809,7.44744,0.00379526,0.0042042746,0.004176177,0.0036324225,0.0015924512,0.00081460516,3.4819743e-05,0.00045704487,1.8860968,1.6972841,1.4605529,1.5675766,274.81406,282.4255,291.25745,283.21942,277.4157,286.95285,296.62936,287.42648,272.38077,278.0775,286.05566,279.53476
Besançon,47.248779,6.01815,0.0035305256,0.0032578532,0.0028566355,0.003676194,0.00046510517,0.000115976145,1.2034855e-06,4.2600794e-05,3.2478187,2.7028074,2.3501189,2.644027,276.81464,284.38434,293.22238,285.1873,279.73596,289.35895,298.9815,289.9022,274.04132,279.54248,287.5981,281.01343
Bielefeld,52.033329,8.53333,0.0029082673,0.0020241146,0.0025655238,0.0026821909,0.0002707106,5.0862487e-05,1.4908792e-08,4.3073836e-05,4.1208286,3.3493323,3.0018744,3.6449306,277.1686,283.4002,291.33813,284.3117,279.48798,288.00806,296.36066,288.02567,274.73993,278.72552,286.21927,280.85114
Bilbao,43.262711,-2.92528,0.0036716724,0.0026634622,0.0015683096,0.0035263628,6.424475e-05,1.5798387e-05,4.4177204e-09,1.0335381e-05,2.9744544,2.4978669,2.2117572,2.5217915,281.24313,285.51138,292.99338,288.9385,285.55713,290.8213,299.0728,294.29974,277.24826,280.10352,287.13318,284.16434
Birmingham,52.481419,-1.89983,0.0022620275,0.0018065756,0.0018759326,0.0023766912,0.00019198596,2.6522475e-05,1.0616889e-08,7.1670984e-06,4.722241,4.069339,3.5863101,4.2026224,278.24973,282.42517,289.7636,284.29913,281.1457,286.77426,294.86688,288.13348,275.23947,278.07346,284.5672,280.58057
Blackpool,53.816669,-3.05,0.0041424274,0.0024255943,0.002317644,0.0040122042,0.00026448898,7.186915e-05,1.33903315e-08,3.6424226e-05,5.546182,4.536058,3.9742825,5.0362816,278.09372,281.71817,288.64423,283.75034,280.74777,285.46063,292.65292,286.94373,275.35535,277.81647,284.33432,280.51865
Bochum,51.481651,7.21648,0.0033684904,0.0021868374,0.002820414,0.0031167876,0.00034347794,6.954662e-05,1.25440565e-08,5.5995864e-05,4.2836676,3.460256,3.0626137,3.7571747,278.07843,284.1502,292.0315,285.1482,280.3801,288.48102,296.85797,288.66846,275.71872,279.7802,287.1607,281.88654
Bologna,44.493809,11.33875,0.0016521103,0.00197263,0.0014532486,0.002340174,0.00037491947,5.464288e-05,4.229186e-09,0.00018352673,2.0488071,2.2240427,2.0418758,2.0350258,278.10876,286.9256,297.76028,288.28854,281.67453,291.77756,303.1478,292.64163,275.17145,282.23444,292.44427,284.4467
Bonn,50.734379,7.09548,0.0025306046,0.0019467929,0.002445266,0.0024207276,0.0002999059,5.6972225e-05,1.719484e-08,5.6113873e-05,4.0608845,3.2268703,2.8290265,3.5412517,277.60748,284.16132,292.32925,285.0335,280.05975,288.751,297.50626,288.93137,275.1137,279.5562,287.17087,281.51468
Bordeaux,44.840439,-0.5805,0.002616422,0.0020496456,0.001683566,0.002458301,6.3252596e-06,3.352531e-06,7.681375e-09,3.826227e-08,3.049022,2.847338,2.6741288,2.7501693,280.79797,286.56848,294.84302,288.98627,284.86356,292.08218,300.71182,294.40137,277.16904,281.1988,289.0287,284.29913
Bournemouth,50.720482,-1.8795,0.0030640913,0.0018714375,0.0013640386,0.0028813453,4.8051585e-05,1.1020108e-05,7.6292156e-10,3.858433e-06,5.2073474,4.4077997,3.8892555,4.60568,279.27753,282.8256,290.1035,285.47443,282.1841,286.92657,294.73346,289.1649,276.11594,278.63092,285.31104,281.75208
Bradford,53.793911,-1.75206,0.003412252,0.0022559897,0.0023296198,0.0029701283,0.00065807777,0.0001822476,1.9045846e-08,6.201887e-05,5.0037627,4.2384167,3.7443593,4.4795694,277.67197,281.5528,288.70575,283.59534,280.2536,285.30627,293.05243,286.82657,275.12057,277.78296,284.2204,280.461
Braga,41.55032,-8.42005,0.005119256,0.0034910203,0.00110494,0.0041165072,8.463943e-06,3.2556375e-06,5.2403935e-09,2.432436e-08,2.9297526,2.7648904,2.819185,2.4647214,282.36044,286.88992,293.5019,289.43442,286.95227,292.14914,299.68066,294.69336,278.4373,281.8325,287.52515,285.05304
Bratislava,48.148159,17.106741,0.0012822995,0.0018497116,0.0022162572,0.0017466765,0.00038910573,5.7375706e-05,2.142604e-08,9.7291326e-05,3.42083,3.2970264,3.0722704,3.1427047,275.93692,285.40408,295.47583,285.3769,278.5602,290.46118,301.15558,289.73834,273.3728,280.28595,289.74564,281.30124
Braunschweig,52.265942,10.52673,0.0021732172,0.0018929625,0.0024069932,0.00200955,0.00020912591,4.122724e-05,2.0051328e-08,3.2329994e-05,3.8886607,3.171079,2.895836,3.4790807,277.08392,283.34015,291.54483,284.31232,279.51956,287.9474,296.31055,288.0065,274.5024,278.6256,286.65527,280.81696
Braşov,45.648609,25.606131,0.0016520916,0.0023678471,0.003043454,0.0014550412,0.0011723292,0.00044287377,1.0280491e-08,0.00035835113,1.8497467,1.9074711,1.6396853,1.6896172,272.8098,281.89453,292.6524,282.9012,277.18173,287.7771,299.25406,289.00543,268.56143,275.92093,286.02155,277.3844
Breda,51.586559,4.77596,0.0027417545,0.0017815694,0.0021250835,0.0025081537,0.000112932066,2.2720025e-05,1.1749364e-08,1.5503536e-05,4.6017666,3.771497,3.3445714,3.9609947,278.61096,283.83777,291.5585,285.1151,281.38577,288.41678,296.62384,289.15918,275.7392,279.1114,286.25803,281.31158
Bremen,53.075161,8.80777,0.0026727577,0.0018848177,0.0025109446,0.0024599507,0.00019721086,2.0928186e-05,2.336664e-08,2.528392e-05,4.009708,3.373087,3.0734398,3.6031508,277.455,283.3362,291.20694,284.53604,279.8363,288.00516,296.2471,288.2793,274.9535,278.62906,286.05948,280.96286
Brescia,45.52478,10.22727,0.0015994913,0.0030644392,0.0026434865,0.003109532,0.00046736852,0.00027711302,1.9575437e-07,0.00017789139,1.4494333,1.4946231,1.3568966,1.395355,275.95364,285.09616,295.5523,286.01166,279.76392,289.91257,300.64215,290.39203,272.7399,280.25797,290.51016,282.0324
Brest,48.400002,-4.48333,0.0041817296,0.0024857481,0.0013970217,0.0029258213,1.1489959e-05,4.4311987e-06,3.88985e-09,1.4156625e-06,6.161825,5.146122,4.435411,5.0354605,281.04504,283.66165,290.16574,287.06155,283.40887,287.0936,293.97125,290.18253,278.48486,280.15985,286.3879,284.0082
Brighton,50.828381,-0.13947,0.0024988875,0.001634143,0.001513176,0.0025614726,0.0001268122,2.6778804e-05,1.2503754e-09,1.6806283e-05,4.9304357,4.238856,3.7225971,4.362165,279.10104,283.00204,290.25473,285.68927,281.8241,286.9953,294.63422,289.3294,276.22214,278.91888,285.70697,282.07623
Bristol,51.455231,-2.59665,0.0029661336,0.0019236036,0.001614163,0.0028558217,0.00012273392,2.3439585e-05,4.179059e-09,1.4052572e-05,4.45219,3.9403834,3.3951008,3.9033256,278.53787,282.54486,290.0182,284.74487,281.36636,286.79242,294.7786,288.40363,275.51404,278.26526,285.11322,281.1249
Brno,49.195221,16.60796,0.0011611427,0.0018224843,0.0022819904,0.0014037847,0.00045303098,0.00011720085,2.8692327e-08,0.00012086636,3.3041968,3.140319,2.8320112,3.0021002,275.02936,283.94446,293.74176,284.12152,277.4819,288.90277,299.42636,288.35083,272.55447,278.8677,287.98334,280.07303
Brugge,51.20892,3.22424,0.0028437064,0.0019288289,0.0022027446,0.0026474702,7.590544e-05,1.424981e-05,2.8672105e-09,9.289239e-06,5.5010376,4.501443,4.039071,4.810337,278.68173,283.5397,291.1603,285.9334,281.015,287.149,295.08313,289.30286,276.27948,279.862,287.03668,282.73163
Brussels,50.850449,4.34878,0.002745102,0.0018094443,0.0021508548,0.002312547,0.00010575895,2.1785245e-05,1.0109801e-08,2.523697e-05,4.6211014,3.7186627,3.3177528,3.9718862,278.5784,284.11453,291.98813,285.39462,281.3069,288.59335,297.04352,289.42645,275.78436,279.52228,286.7569,281.63464
Bucharest,44.432251,26.10626,0.0019478619,0.0018040981,0.0019897989,0.0013848052,0.0007333227,0.00015420854,1.549234e-08,0.000121149,2.721476,2.6987004,2.22915,2.4424553,275.88522,285.95728,298.15802,286.98062,279.5767,292.0915,305.21762,293.12064,272.30542,279.69165,290.94577,281.22037
Budapest,47.498009,19.039909,0.0012617047,0.0014563566,0.0018181244,0.001431892,0.00032336355,3.94453e-05,8.253758e-09,0.000109252986,2.8538268,2.7538397,2.6329267,2.6662595,275.1104,285.30768,295.79663,285.46054,278.6497,291.36615,302.46875,291.0421,271.49988,279.09283,288.71735,280.09247
Burgos,42.349998,-3.7,0.0017714446,0.0017815257,0.00086158497,0.0019910927,0.00031415527,8.9407826e-05,2.0452926e-07,5.4965938e-05,2.9535103,2.7872005,2.6379817,2.7161562,277.74948,283.44867,292.74414,286.5016,282.28723,289.4065,300.62018,292.57437,273.57162,277.55667,285.36746,281.10812
Bydgoszcz,53.123501,18.00762,0.0015534561,0.0014598303,0.0022197184,0.0013646339,0.00038534767,0.00012163537,9.600328e-09,4.044176e-05,3.850209,3.1719317,3.003731,3.600721,275.98572,283.30023,292.37982,283.88907,278.23407,287.96915,297.28455,287.5179,273.52316,278.30927,287.1181,280.27692
Cagliari,39.207378,9.13462,0.0022051062,0.0012145439,0.00018229205,0.0023204864,1.3372212e-05,8.4165706e-08,9.491765e-10,9.540878e-08,3.0048678,3.1054194,2.7549908,2.7700653,283.8751,288.3764,298.5091,292.91208,287.6622,292.86368,303.59607,297.10193,280.60397,284.23352,293.5617,289.2274
Cambridge,52.200001,0.11667,0.0015836357,0.0013821928,0.0016517406,0.0018156909,9.092241e-05,1.7031163e-05,5.838028e-09,8.150147e-06,5.0326824,4.302346,3.765725,4.497421,278.38495,282.81662,290.07788,284.8422,281.33664,287.33017,295.27603,288.8405,275.34726,278.322,284.84662,281.01498
Cardiff,51.48,-3.18,0.0037018901,0.0022192397,0.0018292576,0.0034551143,0.00016167242,3.741206e-05,2.908076e-09,1.2647429e-05,4.56982,3.9940772,3.4677963,3.9886348,278.6079,282.3746,289.71353,284.72894,281.3874,286.49176,294.30658,288.29834,275.6294,278.21918,284.9491,281.18005
Cartagena,37.605122,-0.98623,0.0010715821,0.000698543,0.00013233206,0.0009087437,3.3507067e-06,1.4237463e-08,7.489156e-10,4.6459687e-07,4.0504756,4.054988,3.7542267,3.9924786,285.80743,289.86694,298.50552,293.85385,289.42343,293.36108,301.84897,297.22183,282.83102,286.31064,295.01984,290.89337
Catania,37.502129,15.08719,0.002104123,0.0008132734,0.00016292841,0.0018410025,4.9856702e-05,2.5396566e-05,9.06659e-11,2.4988395e-07,2.345632,2.2245302,1.6740595,1.853906,284.15848,288.537,299.46964,293.17685,286.88733,291.8937,303.38654,296.25342,281.76123,285.30908,295.49902,290.5063
Chemnitz,50.833328,12.91667,0.0021236439,0.0021562488,0.0023520007,0.0021435055,0.0006124454,0.00020070405,1.5975761e-08,0.00010972911,3.9586802,3.1566377,2.8114352,3.4823482,275.66458,283.58295,292.6525,283.97797,278.2736,288.564,298.19467,288.15558,273.01947,278.52298,286.9167,280.0146
Chişinău,47.005562,28.8575,0.0014723063,0.0012694268,0.0016801415,0.0011130406,0.00060907955,0.00012009656,8.971955e-09,0.0001271625,3.139274,3.0716577,2.8408341,3.0774274,274.68784,284.69275,297.0105,285.49063,277.29276,289.55838,302.48727,289.81754,271.8476,279.6062,291.08847,281.1535
Clermont-Ferrand,45.779659,3.08628,0.0022091414,0.002370739,0.0024742293,0.00259871,0.00030588868,0.000104358165,1.0540944e-08,5.599254e-05,2.9552398,2.6874022,2.289141,2.6014836,276.5641,282.8645,292.05432,284.94458,280.66592,288.6156,298.49362,290.4608,272.90494,277.23383,285.68246,280.0346
Cluj-Napoca,46.76667,23.6,0.0016625173,0.0019953074,0.0025837782,0.0014543843,0.0008704925,0.00018559047,9.440513e-08,0.00019956117,1.9608096,2.1226723,1.8876747,1.847245,272.88782,282.89133,293.38806,283.4844,276.63647,288.60913,299.67102,289.1882,269.04883,276.98926,286.7874,278.2906
Coimbra,40.205639,-8.41955,0.0034087724,0.002072373,0.0006617113,0.0024511751,5.7394084e-07,8.932633e-08,8.599406e-09,1.6491205e-08,3.2636087,3.1274812,3.2358375,2.7282734,284.35513,288.90656,295.64572,291.508,289.25345,294.5992,302.67316,297.23682,280.31454,283.61914,289.3056,286.98184
Como,45.809978,9.08744,0.0020156407,0.004998113,0.004386704,0.0045570186,0.0010863395,0.0010136985,1.2277048e-05,0.00037307333,1.3898082,1.3657293,1.2492298,1.2390566,274.79843,282.03046,292.23734,283.58698,278.22403,286.29913,296.99084,287.64398,271.83908,277.7614,287.4577,279.8763
Constanţa,44.183331,28.65,0.0011113073,0.0011441677,0.0010895586,0.0015030198,0.0002875112,0.00010334427,2.8685028e-09,5.5398792e-05,4.21597,3.6911876,3.2569714,3.6529052,277.2595,285.48917,297.59082,287.74365,280.37958,289.9239,302.67206,292.1694,274.15408,281.07367,292.3521,283.59534
Copenhagen,55.675941,12.56553,0.0016682085,0.0014262142,0.0021914497,0.002199727,0.00027446751,3.7131176e-05,5.9719705e-09,2.269439e-05,5.441374,4.521613,4.168339,5.1580315,276.27853,282.2442,290.74228,284.12125,278.3219,285.96176,294.57156,287.0636,273.95938,278.1876,286.32187,281.06732
Cork,51.897968,-8.47061,0.0044622435,0.0028915475,0.0019716118,0.0039080856,5.378388e-05,1.8114097e-05,6.147117e-09,1.1521901e-06,4.9927545,4.379819,3.5595386,4.407808,279.36353,281.97717,288.79254,284.6088,282.04828,285.60587,292.68076,287.77017,276.6332,278.31824,284.78088,281.46808
Coventry,52.406559,-1.51217,0.001964208,0.0016709806,0.0018386988,0.0021486434,0.00016191344,2.2607315e-05,1.3130894e-08,7.4475197e-06,4.975257,4.270177,3.7699535,4.435279,278.30267,282.5561,289.92633,284.46252,281.25397,286.97852,295.1241,288.35614,275.25464,278.16742,284.69263,280.70074
Córdoba,37.883331,-4.76667,0.0018237353,0.0012819303,0.00022713433,0.0016233895,2.0215233e-05,1.7853906e-06,1.303409e-09,8.8022155e-08,2.612051,2.5386672,2.3910775,2.3430235,282.6987,290.0147,300.95364,292.2176,288.92532,297.60187,309.82236,299.18427,277.4186,282.40836,291.58997,285.874
Debrecen,47.533329,21.633329,0.0012681019,0.0015266452,0.0016576115,0.0013078853,0.0002665162,1.7782391e-05,6.555612e-09,5.3421314e-05,2.7227733,2.6995401,2.4515648,2.4721751,275.2012,285.75043,296.40808,285.99164,278.4795,291.5478,302.74692,291.2995,271.85062,279.9258,289.78632,281.05075
Derby,52.922771,-1.47663,0.0023183208,0.0018343715,0.001985694,0.0023908836,0.00030976484,6.2265215e-05,9.261205e-09,2.0942438e-05,5.0543017,4.3195,3.818502,4.5095944,278.01837,282.13223,289.4151,284.04398,280.77527,286.2502,294.25162,287.62476,275.2293,278.06766,284.54245,280.61124
Dijon,47.316669,5.01667,0.0028667261,0.002389518,0.0021716065,0.002787917,0.00023169405,3.2330187e-05,3.1910766e-08,3.0371792e-05,3.4795227,2.9935896,2.6568732,2.9305778,277.43024,284.74176,293.87518,285.66058,280.5111,289.78943,299.62415,290.37494,274.40152,279.6413,288.12173,281.38055
Donostia / San Sebastián,43.312832,-1.97499,0.004514137,0.00332479,0.002060915,0.0041853585,5.340783e-05,9.320391e-06,1.9983712e-08,3.5790795e-06,4.577884,3.7831016,3.4022794,3.9122715,283.2037,286.5488,293.8952,290.45392,286.09842,289.8811,297.40472,293.7521,280.55692,283.23102,290.5133,287.4897
Dortmund,51.514938,7.466,0.003522522,0.0022223564,0.002831019,0.0031919908,0.00044028013,8.887525e-05,1.5461612e-08,6.9900634e-05,4.2764173,3.4372497,3.0427432,3.7509549,277.66446,283.84128,291.76434,284.78253,279.97382,288.2035,296.61365,288.3085,275.28036,279.43207,286.8651,281.51788
Dresden,51.050892,13.73832,0.0022328196,0.0022309825,0.0024932073,0.0021449162,0.00065670157,0.00021910286,1.306393e-08,0.00013051876,3.7119238,3.0450912,2.708589,3.2891076,275.5853,283.7338,292.93,284.08856,278.22888,288.75214,298.45157,288.22034,272.90485,278.54956,287.14822,280.07712
Dublin,53.333061,-6.24889,0.0033570759,0.0024372,0.0017898676,0.0031444088,0.00011960852,1.8090752e-05,8.573524e-09,1.9078202e-06,5.0635986,4.2605567,3.4540868,4.433499,279.15225,281.91132,288.69623,284.29526,281.89813,285.63818,292.94122,287.63666,276.40005,278.2687,284.4577,281.01544
Duisburg,51.432468,6.76516,0.0027667861,0.0018689269,0.0024739874,0.0026896212,0.00018180342,2.6264368e-05,7.763807e-09,1.9097568e-05,4.189352,3.4045963,3.0200264,3.668694,278.50632,284.37692,292.22357,285.403,280.92673,288.83173,297.23706,289.10696,276.04837,279.9011,287.1904,282.00165
Düsseldorf,51.221722,6.77616,0.0028458103,0.001968412,0.0026131503,0.0027098372,0.00019754622,2.5054536e-05,1.1060391e-08,1.9700823e-05,4.173521,3.3706164,2.9909322,3.6630948,278.53513,284.6748,292.62216,285.6654,280.94193,289.1194,297.6472,289.38678,276.0991,280.22208,287.62766,282.2818
Eastbourne,50.768711,0.28453,0.0028774485,0.0017444998,0.0015999094,0.002877166,0.00011250796,2.8928542e-05,2.7282931e-10,2.1237716e-05,5.2185345,4.4450293,3.934951,4.634246,279.8638,283.28854,290.43613,286.44296,282.1686,286.60565,293.89706,289.4267,277.40457,279.85718,286.78476,283.4273
Edinburgh,55.952061,-3.19648,0.0027484822,0.0018842341,0.0019402296,0.0028343643,0.00051157374,0.00014840011,7.0254425e-09,5.751956e-05,5.0397053,4.318899,3.655145,4.5758142,277.23276,280.9396,287.63593,282.74112,279.98303,284.84274,291.93292,286.04034,274.4522,276.9521,283.20966,279.49164
Eindhoven,51.44083,5.47778,0.002746602,0.001825952,0.002083809,0.0024344537,0.00013008824,2.9046278e-05,9.760358e-09,2.385422e-05,4.404234,3.5830326,3.1817737,3.7882023,278.44095,283.94293,291.6623,284.98883,281.2772,288.70987,297.0626,289.19485,275.52405,279.01727,286.0564,281.0438
Elche,38.26218,-0.70107,0.0006171862,0.0006255817,0.00020080371,0.0008411094,7.125089e-06,2.1615633e-06,3.9924766e-09,1.0688897e-07,2.6902616,2.5655224,2.456432,2.4471097,285.21628,290.5708,300.26395,293.7846,291.37357,296.9961,306.68167,299.72754,280.0426,284.3681,294.0306,288.558
Erfurt,50.978699,11.03283,0.002029615,0.0019421965,0.0020625724,0.0020137527,0.00045144753,0.00012012274,1.366772e-08,7.559941e-05,3.7621887,3.0697713,2.7104313,3.313229,275.69827,282.85718,291.56256,283.52664,278.27258,287.6184,296.61652,287.51035,273.02917,277.97217,286.32648,279.7772
Espoo,60.2052,24.652201,0.002891015,0.0012835099,0.0026598074,0.0032803614,0.0017317283,0.00032154674,5.07854e-08,0.00014662932,4.3412204,3.5283322,3.3904939,3.9603195,272.3566,279.5986,290.37805,281.1729,274.44894,284.226,295.1689,284.1385,269.83554,274.39667,284.68912,277.9178
Essen,51.45657,7.01228,0.003067638,0.0020278825,0.002647201,0.0029032044,0.00026264068,4.7905498e-05,1.0153933e-08,3.7546713e-05,4.23651,3.4324265,3.0413203,3.712934,278.2924,284.26358,292.12753,285.27563,280.65344,288.65634,297.04752,288.88776,275.88348,279.84064,287.17554,281.94406
Ferrara,44.826778,11.62071,0.0013328288,0.00198219,0.0016798591,0.0020536822,0.00019413438,5.053207e-05,4.585546e-09,0.00011269711,2.0294328,2.1354876,1.9444294,2.041617,278.1457,287.8814,298.60236,288.67,282.10315,293.0329,304.16254,293.36102,274.94666,282.9084,293.16324,284.52127
Firenze,43.76667,11.25,0.0020681946,0.002167203,0.0013420343,0.0030540447,0.00027967608,2.0624799e-05,2.6816065e-09,9.2032e-05,2.0752623,2.0238204,1.7443464,1.9386057,279.21164,286.26678,296.8403,288.3745,282.86984,291.15854,302.6955,292.90762,276.03555,281.3322,290.82138,284.2367
Frankfurt am Main,50.11552,8.68417,0.0022575606,0.0019419806,0.002226703,0.0022681728,0.00026266498,4.6692327e-05,1.370482e-08,3.8996885e-05,3.2795584,2.7769313,2.4467216,2.8071408,276.65695,284.42197,293.08673,284.64676,279.43195,289.59976,298.72052,288.99335,273.8342,279.2438,287.5068,280.76974
Freiburg,47.995899,7.85222,0.0036756843,0.003385552,0.0033184655,0.0032418575,0.00081543386,0.0002104996,5.2567685e-07,7.8789904e-05,2.5795405,2.186632,1.8748261,2.058062,275.79932,283.41132,292.52594,284.04773,278.4045,288.0618,297.96423,288.3124,273.30002,278.95612,287.26764,280.3708
Gdańsk,54.352051,18.64637,0.0022769172,0.0014950017,0.0023241066,0.0022470949,0.0005787156,0.00014574121,1.181659e-08,5.062481e-05,5.512753,4.2627263,4.0834894,5.075621,275.53912,282.56992,291.42487,283.7332,277.6685,286.4412,295.41928,286.84784,273.21564,278.11493,286.68655,280.5636
Gdynia,54.51889,18.531879,0.0022769172,0.0014950017,0.0023241066,0.0022470949,0.0005787156,0.00014574121,1.181659e-08,5.062481e-05,5.512753,4.2627263,4.0834894,5.075621,275.53912,282.56992,291.42487,283.7332,277.6685,286.4412,295.41928,286.84784,273.21564,278.11493,286.68655,280.5636
Gelsenkirchen,51.5075,7.12283,0.003067638,0.0020278825,0.002647201,0.0029032044,0.00026264068,4.7905498e-05,1.0153933e-08,3.7546713e-05,4.23651,3.4324265,3.0413203,3.712934,278.2924,284.26358,292.12753,285.27563,280.65344,288.65634,297.04752,288.88776,275.88348,279.84064,287.17554,281.94406
Gent,51.049999,3.71667,0.0026768206,0.0018278656,0.0020612653,0.0023654627,0.000104989944,2.6129459e-05,4.370118e-09,8.9424575e-06,4.7213674,3.8717904,3.4396663,4.089673,278.3485,283.83334,291.6288,285.64044,280.88586,288.04886,296.33453,289.43457,275.78543,279.55066,286.7242,282.0855
Gijón,43.535728,-5.66152,0.0037125193,0.0027640224,0.0016624145,0.003418597,0.00031046162,0.00014634055,4.1045382e-07,2.7174567e-05,2.5967882,2.3309126,2.296427,2.257589,281.4001,285.36063,292.85773,288.61142,285.69363,290.5292,298.596,293.59644,277.48068,280.14276,287.07883,283.9477
Glasgow,55.86515,-4.25763,0.006161118,0.003451075,0.0025524856,0.005462442,0.0011211348,0.00032987,8.983365e-09,0.00014498783,4.3677607,3.9163566,3.2376056,3.9727178,276.6139,280.31448,286.9749,282.03693,278.8975,284.02155,291.05707,284.9434,274.27765,276.41522,282.6335,279.0998
Granada,37.188171,-3.60667,0.001612398,0.001014983,0.00020422398,0.0013486652,0.00014709256,1.5054694e-05,5.6935184e-10,1.1240619e-05,1.6876274,1.7747791,1.5598661,1.6794252,281.29166,287.64316,298.52637,290.41925,287.02396,293.90985,305.69183,296.57977,276.41776,280.8669,290.24875,284.70096
Graz,47.066669,15.45,0.0015711808,0.0024417192,0.0036913652,0.0023804095,0.0009193679,0.00024836377,1.7724928e-07,0.0002582019,1.7623624,2.0014672,1.6679271,1.6219227,274.01624,283.40045,293.18375,283.70084,277.44495,288.88983,298.85376,288.63843,270.99582,277.94623,287.48895,279.2306
Grenoble,45.166672,5.71667,0.0028033606,0.0029724254,0.0024447397,0.0036630381,0.0012544999,0.00047188066,1.0418642e-06,0.00025626848,1.562779,1.6619323,1.6566461,1.5386074,275.56238,281.96112,291.91348,283.99265,278.8262,286.4597,297.11328,287.9893,272.50012,277.28516,286.2826,280.1638
Groningen,53.21917,6.56667,0.002852337,0.0019357409,0.0024587424,0.0030920084,0.00019055176,2.8174769e-05,2.0603041e-09,1.7922677e-05,5.0172553,4.288622,3.800274,4.4709954,277.7676,282.83685,290.20392,284.40924,280.33105,287.24884,294.9743,288.25192,275.10062,278.25912,285.0046,280.752
Göteborg,57.707161,11.96679,0.0030708218,0.0021172136,0.0026800637,0.0035088859,0.0007271022,0.00018739757,1.2604228e-08,4.733682e-05,4.462221,3.6922042,3.5921025,4.368982,275.4099,281.1706,289.99832,282.9734,277.44852,285.0279,293.8619,285.75546,272.98477,276.954,285.5356,280.07855
Haarlem,52.38084,4.63683,0.0029184544,0.001986604,0.0019816034,0.003365649,6.3428924e-05,1.0072128e-05,4.0640966e-09,4.6738255e-06,6.9573073,5.6061296,4.8345275,6.1259317,278.7786,283.00177,290.242,285.61984,280.73785,286.01044,293.40997,288.37854,276.69406,279.83505,286.68115,282.9112
Hagen,51.360809,7.47168,0.003522522,0.0022223564,0.002831019,0.0031919908,0.00044028013,8.887525e-05,1.5461612e-08,6.9900634e-05,4.2764173,3.4372497,3.0427432,3.7509549,277.66446,283.84128,291.76434,284.78253,279.97382,288.2035,296.61365,288.3085,275.28036,279.43207,286.8651,281.51788
Hamburg,53.575321,10.01534,0.002678587,0.0019216004,0.0026590968,0.0024516308,0.00030604764,3.273645e-05,1.493968e-08,2.659755e-05,4.0886064,3.448579,3.1833618,3.721206,277.29706,283.00327,291.10077,284.4699,279.5834,287.3829,295.71417,287.9678,274.8732,278.53522,286.28665,281.08868
Hannover,52.370522,9.73322,0.0025794862,0.0019169071,0.0024617189,0.0022239825,0.00022471957,3.6257705e-05,1.491361e-08,3.8926406e-05,3.9172423,3.2479477,2.9600723,3.5065637,277.10266,283.24213,291.3155,284.3063,279.55917,288.0108,296.41577,288.10822,274.5016,278.3947,286.08185,280.68164
Harrogate,53.99078,-1.5373,0.0025309036,0.0018300548,0.0018623093,0.0023640064,0.000424587,0.00010848179,1.0158265e-08,4.3451924e-05,5.027261,4.300601,3.7153096,4.5107813,277.47733,281.49658,288.55777,283.46356,280.2342,285.39166,293.05048,286.9388,274.75302,277.54636,283.87637,280.09888
Heidelberg,49.407681,8.69079,0.0023671652,0.0020668088,0.0022585716,0.002387806,0.00028012786,4.0919072e-05,1.6656873e-08,3.6052832e-05,3.2446382,2.6823196,2.3762317,2.6920457,276.95047,284.8994,293.87787,285.11386,279.88867,290.1948,299.70367,289.70905,273.98874,279.69464,288.15765,281.0633
Helsinki,60.169521,24.93545,0.0029526553,0.0012103223,0.0023804326,0.0033859522,0.001518106,0.00026077856,2.345806e-08,0.000103828075,5.8116093,4.413036,4.3488607,5.4400916,273.16425,278.7965,290.28003,282.22238,274.6376,281.94766,293.3271,284.27606,271.4325,275.2722,286.73285,279.97366
Hoofddorp,52.302502,4.68889,0.0029184544,0.001986604,0.0019816034,0.003365649,6.3428924e-05,1.0072128e-05,4.0640966e-09,4.6738255e-06,6.9573073,5.6061296,4.8345275,6.1259317,278.7786,283.00177,290.242,285.61984,280.73785,286.01044,293.40997,288.37854,276.69406,279.83505,286.68115,282.9112
Hull,53.744598,-0.33525,0.0015923027,0.0014553143,0.0016758594,0.0017964875,0.00011774792,9.382185e-06,6.757255e-09,1.7551174e-05,5.37644,4.6486626,3.9980915,4.9083357,278.21112,282.27728,289.42627,284.3883,281.01273,286.14258,293.9973,287.94165,275.49045,278.43817,284.81012,281.02002
Innsbruck,47.262661,11.39454,0.0027600923,0.0038335244,0.0056956876,0.0030034564,0.0024692332,0.0018832963,9.474755e-05,0.00088213896,1.3266635,1.2833662,1.0843512,1.2049515,271.2821,277.8194,288.39145,280.1811,274.32773,281.6752,292.8375,284.02475,268.25708,273.98456,284.0562,276.70572
Jerez de la Frontera,36.686451,-6.13606,0.0026539206,0.0011495593,0.00018883651,0.0018572767,2.9510256e-06,2.0481671e-08,4.1174175e-10,4.0862275e-08,3.6519027,3.7162662,3.3700192,3.4934742,286.0133,291.09042,298.93204,294.05676,291.22122,296.9676,305.2921,299.51144,281.51443,285.27924,292.6166,289.2898
Kaliningrad,54.70649,20.51095,0.0027045594,0.0015228142,0.0025612041,0.0029870959,0.0006271603,0.00014584303,6.7099877e-09,3.2425603e-05,4.4689393,3.529243,3.412756,4.167056,274.9779,282.1937,291.77264,283.49066,276.89627,286.4328,295.9845,286.49274,272.84747,277.54785,287.00302,280.42163
Karlsruhe,49.004719,8.38583,0.0030342543,0.002518483,0.002523779,0.002775524,0.00045415762,8.483111e-05,1.890267e-08,5.7779234e-05,3.1724374,2.572082,2.2687032,2.5705993,276.67215,284.48953,293.60266,284.91766,279.57138,289.61795,299.35306,289.53064,273.75208,279.47815,287.98843,280.85565
Kassel,51.316669,9.5,0.002697231,0.0020359426,0.002440563,0.0025650174,0.00038908896,8.25836e-05,1.432429e-08,6.183791e-05,3.7919118,3.094198,2.7157273,3.3522232,275.7108,282.44995,290.81866,283.28455,278.00082,286.9598,295.67603,286.91455,273.32556,277.8565,285.87955,279.88916
Katowice,50.258419,19.02754,0.002090108,0.002278863,0.0027831804,0.0019262715,0.00086850894,0.00018456377,1.727859e-08,0.00020194857,3.7663245,3.0433788,2.707384,3.268198,275.2572,283.53833,292.9694,283.9079,278.01706,288.8285,298.62576,288.3317,272.25925,278.0495,287.06448,279.68286
Kaunas,54.900002,23.9,0.0021017839,0.0015715795,0.0024116794,0.0019890186,0.00081109063,0.00016804782,1.0168362e-08,5.681687e-05,3.8971395,3.1832108,3.0188384,3.6103752,273.7004,282.10394,292.17096,282.52997,275.55292,286.91595,297.25928,285.8355,271.53894,276.71295,286.4751,279.05792
Kiel,54.321331,10.13489,0.0027380278,0.001689715,0.002544087,0.002926064,0.00029541185,3.3363038e-05,4.5365924e-09,2.2345583e-05,4.917553,4.1802397,3.9002557,4.535146,277.04178,282.61453,290.5105,284.39755,279.0079,286.3081,294.41116,287.29987,274.92328,278.8228,286.2804,281.5224
Kiev,50.454659,30.5238,0.0016753606,0.0014430992,0.0022315434,0.0013490869,0.0006428543,0.000111230576,1.6335951e-08,0.00017037643,3.8469114,3.317194,3.0542176,3.5408237,273.2184,283.99222,295.47705,283.6912,275.20715,288.565,300.4301,287.30255,270.9032,278.96753,289.98294,279.95
Košice,48.713951,21.25808,0.0016323504,0.0020801998,0.0026053675,0.0018615376,0.0008127847,0.00010093979,1.48929775e-08,0.00023632994,2.3931978,2.4748404,2.2800593,2.1503532,272.85504,282.73242,292.8608,282.95026,275.5814,288.19843,298.91934,287.917,270.10245,277.17072,286.4391,278.26315
Kraków,50.061432,19.936581,0.0018116585,0.0025564367,0.0030416516,0.0019343207,0.0009429353,0.00036275265,1.4535584e-08,0.00025149493,3.2546418,2.7400594,2.4819524,2.8013794,273.9285,282.58362,292.30984,282.99817,276.97107,288.01013,298.23447,287.7753,270.66354,276.96027,286.11432,278.4638
Krasnodar,45.044842,38.976028,0.002767412,0.002509233,0.0016050512,0.0025812814,0.00043420724,0.0001656751,7.48075e-09,4.304403e-05,3.7901487,3.443721,2.8478358,3.1311677,277.4447,285.27304,299.12823,288.15674,280.3552,289.38202,303.8506,292.29535,274.52658,281.02222,294.14813,284.32214
Krefeld,51.339211,6.58615,0.0027091962,0.001815371,0.0023756442,0.0026242698,0.00015447411,2.4367484e-05,1.2674126e-08,1.7248069e-05,4.190415,3.408247,3.028257,3.6581128,278.51633,284.3003,292.1347,285.32455,281.02148,288.86777,297.26874,289.1706,275.963,279.6883,286.9499,281.78326
Köln,50.933331,6.95,0.0029482895,0.0020804442,0.0026595937,0.0027487953,0.00031261114,5.7181944e-05,1.4225735e-08,5.1506486e-05,4.1515436,3.3219001,2.9249132,3.6348686,277.96823,284.34576,292.403,285.2674,280.36575,288.82312,297.44977,289.01767,275.52902,279.84982,287.37604,281.86395
L'viv,49.838261,24.023239,0.0015384599,0.0021017096,0.0023578212,0.001840117,0.00065425126,0.0002357087,1.0085162e-08,0.00017604379,4.168009,3.3751888,2.9561226,3.5764651,273.61642,283.2637,293.62637,283.40973,275.9994,288.2241,299.0601,287.68085,270.93747,277.97784,287.74835,279.27597
La Spezia,44.110538,9.84339,0.0027449678,0.002536759,0.0013199216,0.0040371288,0.0001485379,5.484606e-05,1.9241828e-08,0.000121333534,2.7756712,2.4396968,2.022426,2.5558815,280.6554,285.99744,295.81744,288.96906,283.42276,289.27542,299.38925,292.09503,278.26367,282.68445,292.07596,286.07007
Lausanne,46.515999,6.63282,0.0049592704,0.004428564,0.0036459197,0.0043748403,0.00188585,0.00074642344,1.1498459e-05,0.00035905602,1.9452924,1.7538023,1.5504643,1.6750866,275.0443,282.48987,291.4776,283.43616,277.66147,287.213,297.2807,287.84024,272.5968,277.88638,285.7871,279.47037
Le Havre,49.493801,0.10767,0.0032489086,0.0019357927,0.0019237169,0.0030145529,5.418805e-05,6.6517905e-06,1.2584808e-08,6.2921695e-06,5.6584835,4.55243,4.1158867,4.880154,280.27533,283.8183,291.17047,286.91522,282.56122,287.11716,294.81827,290.18124,277.97073,280.5273,287.43127,283.855
Le Mans,48.0,0.2,0.0031115687,0.0019008623,0.0015742967,0.0024643121,4.2578566e-05,3.6161614e-06,8.579881e-09,3.569102e-07,3.957789,3.4014602,3.1249135,3.338195,279.2883,284.52914,292.78427,286.55783,282.41882,289.58313,298.52545,291.39868,276.19275,279.4306,286.87964,282.0284
Lecce,40.357029,18.17202,0.0021420224,0.0011326701,0.00035374402,0.002252806,2.7923627e-07,1.6041937e-06,1.372118e-10,7.6157703e-06,3.9661963,3.649969,3.142303,3.4483883,283.80176,289.09103,300.36758,292.77722,287.45422,293.68814,305.63348,297.1217,280.33124,284.59854,295.06577,288.9602
Leeds,53.796478,-1.54785,0.0025090307,0.0018804045,0.0019932175,0.0023553502,0.00042085888,0.00011252945,1.238889e-08,4.1740852e-05,4.9617243,4.2316475,3.717308,4.4621954,277.84186,281.82373,288.98444,283.8225,280.5659,285.71466,293.51056,287.24506,275.19122,277.93158,284.34665,280.54132
Leicester,52.638599,-1.13169,0.0017485559,0.0015544466,0.0016908264,0.00195024,0.00012937759,1.6777685e-05,1.1535433e-08,1.1935436e-05,5.108612,4.363797,3.8498578,4.559744,278.19098,282.53973,289.8866,284.4438,281.199,287.0768,295.232,288.46674,275.10422,278.05304,284.54538,280.58234
Leipzig,51.339619,12.37129,0.0016095587,0.0016490571,0.0018367358,0.0016279025,0.00025829033,6.792635e-05,2.0177305e-08,4.0756207e-05,3.9030619,3.1644053,2.8466916,3.4652295,276.56616,284.2606,293.12082,284.65347,279.16275,289.30045,298.63245,288.84167,273.9337,279.1435,287.46307,280.69498
Leuven,50.879589,4.70093,0.0027021985,0.0018076506,0.0021447067,0.0022572584,0.00011226049,1.9766583e-05,9.788324e-09,2.6356414e-05,4.5756764,3.6645417,3.2688117,3.9265506,278.43283,284.09854,292.04358,285.31195,281.18005,288.69507,297.2243,289.39948,275.6142,279.35556,286.66724,281.49323
Leverkusen,51.0303,6.98432,0.0029482895,0.0020804442,0.0026595937,0.0027487953,0.00031261114,5.7181944e-05,1.4225735e-08,5.1506486e-05,4.1515436,3.3219001,2.9249132,3.6348686,277.96823,284.34576,292.403,285.2674,280.36575,288.82312,297.44977,289.01767,275.52902,279.84982,287.37604,281.86395
Lille,50.632969,3.05858,0.0028704838,0.002041057,0.0020373487,0.0023435287,0.00012758675,2.9500234e-05,4.4162247e-09,1.6645421e-05,4.6602182,3.83752,3.422418,4.0380354,278.38943,283.72403,291.3011,285.5265,280.97195,288.01,296.17596,289.51364,275.7678,279.36642,286.2708,281.75748
Limoges,45.831532,1.2578,0.0031840957,0.002511825,0.0023029211,0.0027835816,4.6537538e-05,8.251852e-06,1.6633951e-08,4.9828914e-06,3.5044641,2.9607012,2.6446183,3.0387526,278.80106,284.904,293.80536,286.9969,282.6448,290.55682,300.1783,292.52982,275.39133,279.35745,287.4322,282.08374
Lisbon,38.716671,-9.13333,0.0021042537,0.001264527,0.00034891703,0.0019621688,5.53264e-07,1.0774459e-08,6.678161e-11,1.7617146e-09,3.6995814,3.7950377,4.2969446,3.3241508,285.73434,290.21674,296.46918,292.87665,290.09177,295.3182,302.5881,297.62476,282.07755,285.64594,291.30075,289.10263
Liverpool,53.41058,-2.97794,0.0030244226,0.001978214,0.002042085,0.00309597,0.00014817412,3.3073906e-05,8.838631e-09,1.5167441e-05,5.225082,4.33956,3.811135,4.673934,278.34216,281.99335,289.00204,284.03137,281.00006,285.758,293.1482,287.33643,275.57855,278.1289,284.68652,280.78073
Livorno,43.542641,10.316,0.0019304882,0.0019324694,0.0010141308,0.0030309358,4.0210936e-05,2.7219241e-06,3.3346388e-09,2.2584507e-05,2.7148294,2.3925068,2.0252252,2.4832392,281.16208,287.33734,297.59476,290.02676,285.05515,292.0783,303.04938,294.55206,277.72644,282.4794,291.9033,285.7614
Liège,50.633732,5.56749,0.0032481367,0.0021440976,0.0024289633,0.0026200404,0.00035944718,6.5200125e-05,1.4159778e-08,4.9463204e-05,4.6724224,3.655014,3.247987,3.995856,277.5438,283.60266,291.6884,284.68628,280.64813,288.54855,297.3167,289.2585,274.4082,278.52893,285.89185,280.44656
Ljubljana,46.051079,14.50513,0.003210932,0.0035127164,0.004032053,0.0045923283,0.0012173833,0.00021203814,9.871051e-08,0.00025869673,1.9142174,1.9272196,1.666506,1.8205429,274.6262,283.1413,293.0675,284.16763,278.19006,288.38678,299.05255,289.07703,271.324,277.96365,287.24542,279.73276
London,51.50853,-0.12574,0.0020847335,0.0015448814,0.0015019996,0.0021976156,0.00014581527,3.1229047e-05,2.1793567e-09,1.629793e-05,4.7716174,4.1364303,3.6203213,4.2111664,278.52502,282.86322,290.22015,285.10773,281.5212,287.42523,295.43805,289.227,275.41125,278.29428,284.94196,281.12595
Lublin,51.25,22.566669,0.0017679521,0.0019703216,0.002180381,0.0017311852,0.0006699601,0.00026133278,1.0866854e-08,0.000147326,3.7475936,3.078275,2.7876883,3.3285499,274.52972,283.26382,293.16043,283.29947,276.86707,288.3227,298.49625,287.24237,271.93484,277.8465,287.4002,279.34274
Lucca,43.843571,10.50585,0.0023874023,0.0022480595,0.0013596753,0.0035620905,0.00024342985,8.120714e-05,2.3798195e-09,0.00020622637,1.949211,1.8482214,1.5973737,1.822583,278.41696,284.7353,295.0429,287.25864,281.92484,288.98618,299.80682,291.24643,275.42252,280.48807,290.14157,283.62198
Luimneach,52.664719,-8.62306,0.00436165,0.002775104,0.0019524206,0.0038901619,8.645213e-05,2.082894e-05,1.1234245e-08,1.043605e-06,4.3317227,3.868217,3.2148857,3.842706,278.89746,281.76334,288.57587,284.17773,281.76086,285.68634,292.80972,287.56888,276.0321,277.88223,284.25424,280.81854
Luton,51.879669,-0.41748,0.0018041536,0.0015403879,0.0015838786,0.0020162628,0.00011340512,2.061708e-05,7.523858e-09,1.5634087e-05,4.834875,4.167906,3.6570785,4.291079,278.37488,282.75134,290.11005,284.81952,281.35318,287.33868,295.39996,288.86664,275.3039,278.21213,284.8205,280.93872
Lyon,45.748459,4.84671,0.002107012,0.0025169214,0.0021466925,0.003240149,0.00016807609,4.668907e-05,9.640869e-09,3.706038e-05,2.5889463,2.6299796,2.3508568,2.3443213,277.79346,285.19858,294.92215,286.49173,281.27704,290.5201,301.0089,291.3109,274.54385,279.90665,288.86044,282.09686
Lübeck,53.868931,10.68729,0.0026648606,0.0018266119,0.002680738,0.002541119,0.00028675396,3.0601608e-05,9.278675e-09,2.3334826e-05,4.6741986,3.9102225,3.6416423,4.2995086,277.38235,282.81335,290.95212,284.68198,279.3784,286.5125,294.7874,287.62064,275.25745,279.01422,286.878,281.83286
Maastricht,50.848331,5.68889,0.0028252874,0.0019344334,0.0022283702,0.0023997,0.00018512133,3.416184e-05,1.1870041e-08,3.4574263e-05,4.4604096,3.5387032,3.1586688,3.8224647,278.221,284.0989,292.0058,285.17627,281.09103,288.85428,297.4339,289.4711,275.29654,279.20108,286.4154,281.17865
Madrid,40.4165,-3.70256,0.0011476799,0.0013603469,0.00046401742,0.001673948,0.0002145103,2.9724324e-05,4.1135058e-07,3.6771213e-05,2.075171,2.2777665,2.3118675,2.0648952,279.6087,286.56168,298.35934,288.9483,285.07443,293.0192,306.13544,295.03067,274.78702,279.94003,290.06097,283.3488
Magdeburg,52.127731,11.62916,0.001678257,0.0016070517,0.0019471042,0.0016036953,0.0001963452,4.8404334e-05,1.47239785e-08,3.2419768e-05,3.749863,3.1114984,2.817388,3.3605328,276.83185,283.65305,292.14627,284.4457,279.33063,288.3031,296.9655,288.25793,274.22296,278.84067,287.13974,280.81973
Mainz,49.984192,8.2791,0.0020204172,0.001767277,0.0020727606,0.0020595805,0.00024016616,4.075578e-05,1.7055024e-08,3.8354738e-05,3.258196,2.7768564,2.4545293,2.7887022,276.84674,284.41608,293.06027,284.67322,279.5001,289.44217,298.593,288.91006,274.14038,279.372,287.58633,280.89755
Malmö,55.605869,13.00073,0.001856905,0.0015141892,0.0022616303,0.0023784426,0.0003632372,5.9145113e-05,5.698624e-09,2.8558023e-05,5.168965,4.353662,3.9861488,4.920468,275.74365,282.19952,290.76035,283.77164,277.8901,286.22888,294.84872,286.89932,273.31165,277.8214,286.04025,280.53665
Manchester,53.480949,-2.23743,0.003718438,0.002437514,0.0025271513,0.0035448838,0.00044389654,9.797979e-05,7.1470674e-09,4.6658442e-05,4.720537,4.0940695,3.5638871,4.2285414,278.08713,282.0396,289.09824,283.89246,280.62708,285.7956,293.2752,287.09418,275.5054,278.2186,284.7763,280.76752
Mannheim,49.496712,8.47955,0.0023671652,0.0020668088,0.0022585716,0.002387806,0.00028012786,4.0919072e-05,1.6656873e-08,3.6052832e-05,3.2446382,2.6823196,2.3762317,2.6920457,276.95047,284.8994,293.87787,285.11386,279.88867,290.1948,299.70367,289.70905,273.98874,279.69464,288.15765,281.0633
Marbella,36.51543,-4.88583,0.0031441534,0.0013247771,0.00014228368,0.0020665834,1.4525808e-05,1.4653456e-07,9.1176056e-10,1.5703549e-08,3.6665614,3.496079,3.013862,3.2848694,285.83224,290.3457,298.14374,293.215,290.1445,295.2337,303.21347,297.50598,282.16205,285.46454,292.97394,289.41486
Marsala,37.796638,12.43518,0.0022824758,0.0009212316,8.102179e-05,0.0021397062,2.6093437e-06,3.1799208e-09,0.0,2.3331688e-09,4.276026,4.1633987,3.3597813,3.739593,285.73566,290.02206,300.09113,294.6772,288.7167,293.92377,304.7299,298.27228,282.80823,286.1184,295.33096,291.46786
Marseille,43.296951,5.38107,0.0016617778,0.001802459,0.0006589859,0.0027318846,1.3362519e-06,1.123191e-06,7.0064404e-10,4.2788187e-08,3.4511042,3.676886,3.1747668,3.3893552,281.63635,287.51544,297.21362,290.427,285.38358,292.08356,302.2646,294.8239,278.43698,282.96902,291.93335,286.50235
Messina,38.193272,15.54969,0.0022934943,0.0010650466,0.00028086486,0.00200941,2.3959687e-05,1.4778331e-05,0.0,1.07216e-06,2.7007113,2.4935818,2.0581799,2.1847012,284.60617,288.78552,299.7563,293.33926,287.25516,292.1501,303.64978,296.52246,282.22507,285.59897,295.8443,290.6474
Mestre,45.49028,12.2425,0.0015761863,0.0026886943,0.002310622,0.0029053455,0.00017059314,2.389183e-05,3.7597253e-08,7.691665e-05,2.118285,2.0838292,1.9635729,2.1304595,278.3765,287.14154,297.48965,288.15674,282.19687,291.68353,302.43793,292.61362,275.00653,282.52887,292.4645,284.03452
Metz,49.11911,6.17269,0.0030412807,0.0020701133,0.002262369,0.0027049198,0.00022624145,2.3328661e-05,9.739688e-09,3.967678e-05,3.9700243,3.1721215,2.7628653,3.1789653,277.20316,284.0861,292.752,284.76324,280.16013,288.98743,298.38852,289.41718,274.24078,279.11542,287.104,280.56903
Milan,45.464272,9.18951,0.0014543899,0.0032404598,0.0026083572,0.003307141,0.00010986598,3.2965745e-05,1.4808896e-07,1.8042421e-05,1.5317615,1.7130432,1.5213817,1.4854105,277.90408,286.84317,297.09995,287.50092,282.15408,292.271,302.92307,292.55618,274.5622,281.71924,291.58624,283.1504
Modena,44.647831,10.92539,0.0018534549,0.0021514876,0.0015522301,0.00264773,0.00039411007,8.276797e-05,5.250135e-09,0.00022510109,1.8086318,1.9551251,1.7654247,1.792854,277.3735,285.8327,296.67615,287.35507,280.8371,290.54483,301.88907,291.50482,274.54886,281.30142,291.56207,283.69446
Montpellier,43.61092,3.87723,0.0017474015,0.0019378677,0.0008381065,0.0033034557,1.6302873e-05,4.4452545e-06,5.5444103e-09,2.4920819e-06,4.473791,4.116145,3.6858742,4.0543385,281.79385,287.6878,297.29285,290.36664,285.5845,292.22632,302.2591,294.65735,278.54138,283.2735,292.33167,286.59723
Moscow,55.75222,37.615559,0.0017454885,0.0012445636,0.002385336,0.0023099096,0.0012780481,0.0003043666,5.4043216e-08,0.0002701489,3.7483077,3.1502395,2.892876,3.419192,270.32776,281.45084,293.0692,281.08023,272.2656,285.76855,297.86154,283.98898,268.0566,276.47122,287.6142,277.9167
Mulhouse,47.75,7.33333,0.003393094,0.0032173526,0.0029094054,0.003064271,0.00054917304,0.00012391065,2.058941e-06,6.387746e-05,2.4270608,2.121733,1.8259646,1.9621384,276.01593,283.96527,292.6269,284.32938,278.56985,288.82538,298.2956,288.7999,273.66516,279.38528,287.1589,280.48938
Murcia,37.987041,-1.13004,0.0007575909,0.00065768743,0.00014820264,0.0008243147,5.877347e-06,7.961874e-07,1.4497439e-09,2.1037415e-07,2.635996,2.6388953,2.5045745,2.484058,283.9648,289.62637,299.46454,292.82196,290.1526,295.91156,305.85544,298.80084,278.84918,283.3637,293.02982,287.58563
Málaga,36.720161,-4.42034,0.0020727394,0.0009747817,7.9563775e-05,0.0016440321,1.7979213e-05,2.0183868e-06,1.1484975e-11,3.8223247e-09,2.3351,2.1838727,1.8693813,2.06109,284.5929,290.18137,299.02435,292.7531,290.15393,296.2605,305.24673,298.33008,279.96503,283.8846,292.2305,287.8479
Mülheim (Ruhr),51.433331,6.88333,0.003067638,0.0020278825,0.002647201,0.0029032044,0.00026264068,4.7905498e-05,1.0153933e-08,3.7546713e-05,4.23651,3.4324265,3.0413203,3.712934,278.2924,284.26358,292.12753,285.27563,280.65344,288.65634,297.04752,288.88776,275.88348,279.84064,287.17554,281.94406
München,48.137428,11.57549,0.0024533398,0.0034099296,0.0048500043,0.0027579083,0.001193991,0.00051370583,6.3958294e-07,0.00020201558,2.5135176,2.2478464,1.926903,2.0563812,274.49655,282.75043,292.80658,283.67963,277.76044,287.73236,298.42178,288.41537,271.3735,278.00873,287.44644,279.53833
Münster,51.96236,7.62571,0.0029073025,0.0019303799,0.0024584772,0.0027518603,0.0001993417,4.1926345e-05,1.0322627e-08,4.0546995e-05,4.19511,3.4550483,3.0847087,3.7029362,277.85843,283.7151,291.37772,284.7087,280.2449,288.17673,296.3172,288.3638,275.3906,279.18643,286.29782,281.2804
Namur,50.4669,4.86746,0.003100468,0.0020668446,0.002308403,0.0024258713,0.00023224586,3.9365998e-05,1.1986778e-08,3.687857e-05,4.6859274,3.6759095,3.2708015,4.001622,277.87756,283.84033,291.93893,285.00986,280.9557,288.82895,297.6275,289.6376,274.77725,278.71436,286.0526,280.6896
Nantes,47.217251,-1.55336,0.003501454,0.0020043172,0.0014789839,0.00285966,9.253606e-06,4.543098e-06,9.67755e-09,2.4518304e-08,4.3371654,3.7653518,3.4969049,3.6382957,280.35275,285.23453,293.46143,287.64502,283.57742,290.05722,298.91043,292.33844,277.15442,280.35287,287.9359,283.25934
Napoli,40.833328,14.25,0.003088605,0.0022531056,0.00065175805,0.0027554533,0.00010498499,2.0264564e-05,3.8596246e-09,1.2252005e-05,2.5885832,2.0942862,1.710427,2.142021,282.50192,287.92337,299.00436,291.4492,286.56473,292.61664,304.35028,296.24207,278.85696,283.11832,293.22662,287.07053
Neuß,51.198071,6.68504,0.0027174517,0.0018965944,0.0024017973,0.002511838,0.00023816853,4.3520595e-05,1.5707354e-08,3.280691e-05,4.282784,3.4028125,3.0231667,3.7284617,278.00397,284.1619,292.1922,285.17514,280.5897,288.83096,297.44238,289.15866,275.37976,279.46075,286.9312,281.54398
Newcastle upon Tyne,54.973282,-1.61396,0.0019737165,0.0016564226,0.0015945438,0.002113063,0.00027462564,8.142229e-05,1.439051e-09,2.8972336e-05,5.514728,4.6066103,3.87952,4.9285126,277.89716,281.49115,288.1832,283.67853,280.5026,285.02594,292.18893,286.90292,275.30872,277.83002,283.9825,280.50577
Nice,43.703129,7.26608,0.0026871117,0.002581558,0.00105626,0.003691782,0.0003272064,9.647936e-05,2.6021985e-08,0.00015046002,1.4278041,1.6145723,1.352243,1.431744,281.02588,286.2722,295.76376,289.25992,284.79413,289.81015,299.23685,292.9815,278.19296,282.56406,291.61795,286.18015
Nijmegen,51.842499,5.85278,0.0028319662,0.0019053608,0.0022027493,0.0027286396,0.00012270128,2.5555059e-05,8.905504e-09,1.5449015e-05,4.4862576,3.7161534,3.2547061,3.9027839,278.3247,283.68103,291.17926,284.7614,280.9271,288.32465,296.3507,288.75372,275.63492,278.89572,285.73865,281.01343
Northampton,52.25,-0.88333,0.0017716367,0.0015531024,0.001696221,0.0019983372,0.00011433179,1.556318e-05,1.2358198e-08,9.4241805e-06,5.043712,4.3119383,3.8011844,4.4981036,278.25363,282.61954,290.02573,284.56558,281.27704,287.22693,295.44333,288.6217,275.12357,278.06415,284.61823,280.65918
Norwich,52.627831,1.29834,0.0017330702,0.0013928026,0.0016871348,0.0018671978,9.0169786e-05,8.566983e-06,4.906064e-09,1.5273716e-05,5.773696,4.824629,4.1125474,5.164646,278.65567,282.8521,289.93433,285.2037,281.4094,286.74182,294.44702,288.87866,275.79883,278.90094,285.26776,281.60474
Nottingham,52.953602,-1.15047,0.0017543132,0.0015490369,0.001729659,0.0019013721,0.00016761829,2.5050493e-05,7.758517e-09,1.687576e-05,5.134809,4.383004,3.8635726,4.600241,278.05264,282.32263,289.60037,284.20596,280.97903,286.64142,294.70624,288.06042,275.1101,278.06143,284.48053,280.54108
Novi Sad,45.251671,19.836941,0.0013127577,0.0015557966,0.0019964983,0.001513991,0.00025857787,2.620849e-05,7.0590453e-09,3.8714013e-05,2.8607495,2.7798457,2.5194907,2.7669296,276.57352,286.75836,298.05627,287.48453,279.9534,292.26917,304.32608,292.78506,273.25955,281.15012,291.52948,282.6136
Nîmes,43.833328,4.35,0.0018778897,0.0020294737,0.0010367826,0.0038960795,4.508995e-05,8.475165e-06,5.1420215e-09,3.8227868e-06,3.3107977,3.2908711,3.1249092,3.0677066,280.73764,287.50766,297.55707,289.59946,285.0099,293.0703,303.83026,294.6967,277.1626,282.22012,291.42117,285.2076
Nürnberg,49.454208,11.07752,0.002353707,0.0021330325,0.0022780737,0.0022952857,0.0005189776,0.00011438747,1.2959896e-08,7.3937896e-05,3.3010283,2.7999868,2.4283693,2.8007777,275.11713,283.05566,292.41287,283.50214,278.03455,288.26126,298.20584,288.1064,272.2631,277.96634,286.5904,279.36224
Oberhausen,51.47311,6.88074,0.003067638,0.0020278825,0.002647201,0.0029032044,0.00026264068,4.7905498e-05,1.0153933e-08,3.7546713e-05,4.23651,3.4324265,3.0413203,3.712934,278.2924,284.26358,292.12753,285.27563,280.65344,288.65634,297.04752,288.88776,275.88348,279.84064,287.17554,281.94406
Odessa,46.47747,30.73262,0.0012712112,0.00090955256,0.001235549,0.0010273434,0.00033212273,9.428935e-05,3.1888863e-09,7.7989636e-05,4.0045776,3.7786458,3.5794168,3.9449258,275.26672,284.44232,297.58002,286.02292,277.69427,288.31625,302.1754,289.51608,272.65854,280.36288,292.5786,282.44452
Olsztyn,53.779949,20.49416,0.0020102484,0.0016944237,0.0024049587,0.0018513392,0.000697731,0.0002567805,1.996344e-08,6.355706e-05,4.126306,3.2868392,3.1318364,3.830325,274.9561,282.5418,292.10214,283.143,276.8901,287.15338,296.9223,286.54922,272.81583,277.51758,286.8015,279.6937
Oradea,47.066669,21.933331,0.0016882751,0.0018713924,0.0021013306,0.001621939,0.00045210647,4.9755887e-05,1.2450026e-08,7.20264e-05,2.4455833,2.4265018,2.1656995,2.2040448,275.00415,285.34103,296.05396,285.75266,278.30948,290.9939,302.25354,291.07654,271.65045,279.60385,289.5246,280.77917
Orléans,47.902889,1.90389,0.002423843,0.0018615093,0.0016806035,0.002143823,5.2932635e-05,2.9504856e-06,1.1814554e-08,3.909929e-06,4.134376,3.4204316,3.1547432,3.4173305,279.01318,284.96054,293.54303,286.62997,281.99576,290.04022,299.38153,291.47397,276.0929,279.84262,287.50146,282.1425
Oslo,59.912731,10.74609,0.0027679964,0.002152936,0.0028833298,0.0034774118,0.0018556445,0.00055380573,1.9500467e-08,0.00027374766,2.755372,2.5584693,2.4806213,2.7121625,271.81915,279.1551,289.04184,280.0724,273.88284,283.49722,293.78,283.14813,269.40417,274.44214,283.85037,276.90015
Osnabrück,52.27264,8.0498,0.0029782907,0.0019365022,0.0025085963,0.0026788323,0.00019285911,2.9188031e-05,8.911741e-09,3.316864e-05,4.057766,3.3867898,3.057457,3.6248176,277.63318,283.5161,291.14285,284.50217,279.99063,288.04358,296.13547,288.20615,275.1565,278.93716,286.02975,281.04385
Ostrava,49.834648,18.28204,0.0018887572,0.00242559,0.002985659,0.001855365,0.0008110438,0.00021666249,1.4150965e-08,0.00017254002,3.6234725,2.960848,2.629426,3.17696,274.87527,283.26324,292.92206,283.7505,277.5745,288.4716,298.7663,288.24484,272.01318,277.8537,286.80972,279.39917
Oulu,65.01236,25.468161,0.001740377,0.0010134458,0.0022895013,0.0019722567,0.0014587312,0.0004031498,9.4519635e-07,0.00039904966,3.8759873,3.4178917,2.9916034,3.6557527,268.1706,277.0349,289.25436,278.17203,271.06253,281.0856,293.18646,280.86945,264.82013,272.07544,284.201,275.19366
Oviedo,43.360291,-5.84476,0.003564051,0.0026326515,0.0016655984,0.00313017,0.00022202908,8.635504e-05,5.8629513e-07,1.9597492e-05,2.7704766,2.4367101,2.376577,2.366011,281.15076,285.04443,292.41922,288.25043,285.46768,290.24554,298.22186,293.2791,277.20636,279.7795,286.58224,283.5872
Oxford,51.75222,-1.25596,0.0019887688,0.0016383954,0.0014928755,0.0021246593,0.00016398392,2.6987982e-05,4.5052095e-09,1.4869263e-05,4.724228,4.105121,3.5780644,4.145116,278.51505,282.81314,290.32486,284.99432,281.36722,287.25424,295.41138,288.86752,275.54666,278.40906,285.17535,281.24936
Padova,45.415192,11.88181,0.0015517455,0.0027244329,0.0024758233,0.002860674,0.0002818311,7.177191e-05,2.4448227e-08,0.00011919257,1.8940631,1.9216735,1.7910807,1.9142805,277.7061,286.675,297.02512,287.5651,281.66187,291.36914,302.0805,292.0896,274.27103,281.89386,291.86102,283.33832
Palermo,38.115822,13.35976,0.00283124,0.0013887144,0.00014307414,0.002629829,1.6817161e-05,1.374035e-05,0.0,1.1744994e-06,2.751829,2.6416297,2.071412,2.287702,284.49734,288.76947,299.28085,293.46198,287.1681,292.21817,303.3898,296.62335,282.05276,285.4163,295.16544,290.76367
Palma,39.569389,2.65024,0.0018298108,0.0014342535,0.00034559364,0.0029295033,4.896827e-06,1.1233069e-06,2.1075797e-09,1.2662986e-06,4.6963696,3.9209247,3.120528,4.079127,285.69357,289.2069,298.3885,293.90225,288.1274,291.85995,301.26178,296.59702,283.32162,286.41147,295.5417,291.4345
Pamplona,42.816872,-1.64323,0.00389989,0.0033178437,0.0018099897,0.0037477396,0.00026994935,4.625842e-05,5.827859e-07,2.6786205e-05,2.5884063,2.4995604,2.40716,2.4458547,279.55438,284.97516,294.01874,288.1319,283.96732,290.52817,300.7146,293.56006,275.56293,279.41464,287.59216,283.30026
Paris,48.853409,2.3488,0.0025576865,0.0018604553,0.0018030296,0.0020555805,9.296038e-05,6.499249e-06,1.1262146e-08,1.7492368e-05,4.1372533,3.3802104,3.0879202,3.401561,279.59137,285.3896,293.6641,286.75,282.0586,289.73212,298.59784,290.72516,277.07907,280.95367,288.5262,283.0036
Parma,44.802662,10.32898,0.0015022039,0.0023706625,0.0016435323,0.0025596763,0.00023228933,8.66419e-05,7.042666e-09,0.00012804387,1.6651398,1.8306373,1.6398516,1.6682885,277.67386,287.54898,298.33734,288.30542,281.6241,292.90555,304.097,293.03363,274.49118,282.41962,292.81766,284.15848
Perpignan,42.697639,2.89541,0.0012981388,0.0017405465,0.00083403365,0.0030269902,5.3204596e-05,4.8761144e-06,3.1613034e-09,2.498403e-06,2.9025774,2.9816897,2.7527957,2.7655334,281.93958,287.823,297.9142,290.59927,286.944,293.2204,303.70184,295.9169,277.7547,282.4839,291.92145,286.0697
Perugia,43.112202,12.38878,0.0018159739,0.0020733215,0.0012351911,0.0031033806,0.00030555922,3.205469e-05,4.4479576e-09,8.327356e-05,2.213458,2.1585817,1.9278246,2.054512,279.11783,285.61932,296.75543,288.1794,282.7961,290.34964,302.4792,292.62323,275.88638,280.947,291.0105,284.20865
Piraeus,37.947449,23.637079,0.0021927694,0.0008874036,0.00020046644,0.001347736,5.4922853e-05,2.2192406e-05,3.8157744e-10,8.734014e-06,2.5937393,2.3194354,2.458882,2.2913764,282.77734,288.5337,300.59174,292.11655,286.65784,293.98276,306.68262,297.17105,279.09433,283.22784,294.2097,287.49036
Pisa,43.71553,10.39659,0.0020532042,0.0020590662,0.0010882906,0.0032839652,7.4577874e-05,4.82582e-06,6.672366e-10,3.9101185e-05,2.1262398,1.9519253,1.6443946,1.9618676,280.6846,287.04895,297.16196,289.59204,284.7698,291.94522,302.70667,294.30392,277.1672,282.08545,291.427,285.26492
Ploieşti,44.950001,26.01667,0.0016778455,0.00200459,0.0024719692,0.0014183086,0.00089542643,0.00024939893,1.436094e-08,0.0002878502,2.2911756,2.331081,1.9720751,2.083629,274.55426,284.1644,295.76706,285.18622,278.56497,290.13104,302.52747,291.2732,270.77246,278.02042,288.78293,279.57086
Plovdiv,42.150002,24.75,0.0019386262,0.0021010544,0.0017937984,0.0014656193,0.0007697633,0.00048046513,5.7750302e-09,0.000114618466,1.670255,1.7459266,1.6586736,1.5633929,274.7203,283.3741,295.81012,285.42352,278.66086,289.1057,302.59998,291.42526,271.035,277.36334,288.46594,279.80353
Plymouth,50.371529,-4.14305,0.004670475,0.0025126112,0.0018617332,0.003955231,5.7514862e-05,1.47217725e-05,5.3514797e-09,8.617709e-07,5.1339364,4.3855753,3.813364,4.4479766,279.73364,282.59628,289.57483,285.54373,282.3279,286.12125,293.49915,288.66507,276.93454,279.02487,285.60696,282.44434
Plzeň,49.747471,13.37759,0.001390859,0.0018772349,0.002317736,0.0015885218,0.00057783176,0.00023345315,1.0149706e-08,0.0001405849,3.4010847,2.8957317,2.525653,2.920601,274.33252,282.7735,292.20123,283.04233,277.03223,287.69547,297.79715,287.32758,271.62683,277.7006,286.3963,278.94644
Porto,41.149609,-8.61099,0.0046384768,0.0031178198,0.0009123793,0.0036181516,3.2517528e-06,6.952206e-07,6.0600023e-09,1.9377438e-08,3.1161468,2.9451776,3.0051544,2.6278355,283.5247,288.0904,294.4923,290.61554,288.34055,293.54733,300.88272,296.11853,279.4987,282.9635,288.54736,286.15985
Potsdam,52.398861,13.06566,0.0017183225,0.0015744834,0.0019802137,0.0015507622,0.00016591862,3.8645292e-05,8.776899e-09,2.775384e-05,3.803669,3.195517,2.9274251,3.504005,276.90088,284.31607,292.8285,284.79767,279.37354,289.18866,298.0085,288.6313,274.34256,279.30084,287.47598,281.11835
Poznań,52.406921,16.92993,0.0017145249,0.0015529606,0.002191971,0.0013965765,0.00036396077,0.00011654479,1.4902861e-08,3.859454e-05,3.689861,3.0838914,2.9035335,3.4530692,276.13504,283.78278,292.88867,284.09897,278.5256,288.70926,298.21774,287.95737,273.5286,278.54828,287.24893,280.26953
Prague,50.088039,14.42076,0.0014435496,0.0018154714,0.0025496944,0.001507262,0.0005110879,0.00017362047,9.396576e-09,0.000118054704,3.3326643,2.9016328,2.5614681,2.9335163,274.91916,283.43567,292.8436,283.573,277.64645,288.60107,298.62366,288.0321,272.22214,278.0628,286.9529,279.22446
Prato,43.884251,11.09092,0.0022077472,0.0022448825,0.0015105307,0.0032140478,0.00037119546,6.54036e-05,3.389212e-09,0.0002017339,1.922564,1.9468901,1.7152561,1.8287926,278.07535,285.04663,295.65198,287.26245,281.48465,289.50684,300.7936,291.33426,275.16077,280.61816,290.43625,283.57513
Preston,53.76667,-2.71667,0.003583564,0.0022230067,0.002321709,0.0035811397,0.00019391789,3.7540547e-05,1.0723918e-08,2.4425972e-05,5.2601795,4.370447,3.8049216,4.7175775,278.13107,281.8789,288.91788,283.8898,280.67654,285.48337,292.77924,287.01093,275.50583,278.1221,284.8084,280.767
Pécs,46.083328,18.23333,0.0015488024,0.0017164502,0.0019213075,0.0018422913,0.00042928776,3.19498e-05,1.3955324e-08,7.2798925e-05,2.7535582,2.6212292,2.4009776,2.4785762,275.92795,286.18976,296.70084,286.34933,279.43558,292.17365,303.31625,292.17154,272.5099,280.0345,289.74356,280.91397
Ravenna,44.4175,12.20111,0.0012819075,0.0015977,0.0012487173,0.0023310606,0.00011543447,9.715308e-06,2.527888e-11,0.000115376606,2.7808154,2.7216516,2.567697,2.6994047,279.44177,288.00253,298.54437,289.6053,282.8269,292.32745,303.25952,293.6714,276.48193,283.56628,293.6302,285.89252
Reading,51.456249,-0.97113,0.002264332,0.001699998,0.0015156365,0.002360695,0.00014852626,2.3083707e-05,3.3918586e-09,1.121118e-05,4.6609983,4.0618825,3.5443263,4.094558,278.40665,282.72113,290.12976,284.9325,281.3855,287.30347,295.36343,288.9833,275.29453,278.15674,284.8001,281.00995
Regensburg,49.014999,12.09556,0.0021431234,0.0022096667,0.0027338713,0.0021565533,0.0006303229,0.00014192025,3.5723033e-08,9.075062e-05,3.0371206,2.7248588,2.3387012,2.5924838,274.61343,283.29938,292.67792,283.43307,277.3615,288.46658,298.5556,287.88416,271.9934,278.3133,286.9188,279.41092
Reims,49.25,4.03333,0.0025984908,0.0017925787,0.0019052407,0.001937033,8.028943e-05,1.2857626e-05,1.1169183e-08,1.29078235e-05,4.0313487,3.248834,2.8848171,3.2705655,278.29938,284.35632,292.74564,285.48544,281.2989,289.37164,298.63226,290.31134,275.26913,279.2369,286.7148,280.97455
Rennes,48.11198,-1.67429,0.0033855424,0.0020432964,0.0015986997,0.002747248,3.0268111e-05,5.099598e-06,5.593522e-09,6.333191e-06,4.0850244,3.5551744,3.2779095,3.46587,279.99454,284.59903,292.46445,287.02124,283.0817,289.38446,297.93137,291.54846,276.9154,279.82892,286.93793,282.79437
Reykjavík,64.135483,-21.895411,0.006843019,0.004526791,0.0028537246,0.0047825477,0.0031491756,0.0015667016,5.7836314e-08,0.0006068261,4.949466,4.325926,3.5742557,4.1115103,273.17706,276.649,283.46014,277.6987,275.2258,278.95685,285.7146,279.56668,270.91705,274.0437,281.03244,275.68973
Riga,56.945999,24.10589,0.0023807038,0.0014417527,0.002393626,0.0026898016,0.00092100207,0.0001762908,1.4310845e-08,6.13207e-05,5.184402,4.0190725,3.920037,4.778244,274.2728,281.01898,291.5431,283.04105,275.8386,285.01215,295.4684,285.75748,272.43475,276.56976,287.0498,280.15143
Rimini,44.063332,12.58083,0.0016024216,0.0017482175,0.0013110896,0.002866414,0.00023951173,1.61349e-05,5.050965e-09,0.00013235239,2.5948677,2.5293872,2.2755876,2.4245505,278.85883,286.36188,297.14755,288.3851,282.28574,290.7022,302.08893,292.46304,275.80353,281.8757,291.90344,284.66937
Rome,41.894741,12.4839,0.0027144877,0.0022644722,0.00082064763,0.00437024,8.741146e-05,1.1013099e-05,2.2276363e-09,3.5108133e-05,2.4576163,2.3160288,2.0393734,2.2161703,282.0637,287.94452,298.64346,291.11798,286.62106,293.28772,304.80206,296.38043,278.1637,282.61746,292.27368,286.44046
Roquetas de Mar,36.764191,-2.61475,0.0010843786,0.0006230279,0.00016230953,0.00088498474,6.7140674e-05,8.8234265e-06,1.9881632e-10,1.035346e-05,1.8729976,2.0717847,2.0197563,1.9651067,284.9093,290.1665,299.43466,293.2778,290.47253,295.45337,304.71698,298.55255,280.41476,284.51883,293.5594,288.5751
Rostock,54.088699,12.14049,0.0019246467,0.0016390942,0.0023865576,0.0020195504,0.00020315604,2.3432038e-05,8.195374e-09,2.2757644e-05,4.7413073,3.9410934,3.681656,4.3827734,276.9159,282.88934,291.32153,284.53342,278.96628,286.72626,295.20648,287.6507,274.7596,278.94513,287.2416,281.5497
Rotterdam,51.922501,4.47917,0.002752172,0.0018710705,0.0020585826,0.0029153316,8.629352e-05,1.9727442e-05,6.5382393e-09,7.119236e-06,5.4525294,4.4718223,3.905747,4.7192264,278.61496,283.5082,290.889,285.17847,281.1082,287.59677,295.31857,288.79202,275.99362,279.22903,286.0433,281.7107
Rouen,49.44313,1.09932,0.0034922247,0.0022091,0.0021814774,0.0030372036,0.000102938924,1.2783479e-05,1.357382e-08,1.7046994e-05,4.649155,3.8183484,3.479498,3.9473724,279.46866,283.91968,291.66956,286.3908,281.87582,287.8298,296.0233,290.1054,277.02518,280.0163,287.17075,282.92963
Saint Petersburg,59.89444,30.26417,0.0018258218,0.001120789,0.002541753,0.0023964993,0.0011799618,0.00019436509,6.321026e-08,0.0002443567,4.092888,3.247275,3.1200886,3.6849809,271.4224,280.18335,291.54562,281.44666,273.0254,284.18387,295.26883,283.83115,269.52798,275.5862,287.05515,278.90656
Saint-Étienne,45.433331,4.4,0.0015893773,0.002088239,0.001968086,0.0028383213,0.00019688862,5.450483e-05,1.2421364e-08,8.407306e-05,2.7765348,2.7708821,2.4504457,2.515422,277.36603,284.3971,294.11218,285.96786,281.02686,289.8612,300.28043,290.8798,273.9814,279.02332,287.97995,281.49115
Salamanca,40.968819,-5.66388,0.00109007,0.0011613027,0.0005512953,0.0016505017,7.8939236e-05,2.135315e-05,5.1687454e-08,8.226809e-06,2.7141073,2.6649926,2.5152872,2.4422464,278.77826,285.8336,296.52097,288.14746,283.93942,292.49976,304.82074,294.502,274.2003,279.0146,287.85345,282.35355
Salerno,40.677971,14.76599,0.0032251016,0.0021075152,0.00061798136,0.0029064715,5.896618e-05,1.5996078e-05,7.1208865e-09,9.687524e-06,3.0524316,2.3087344,1.7942098,2.4227436,282.9946,288.13123,299.2766,291.93915,286.6029,292.3778,304.16882,296.17422,279.68878,283.65698,293.8978,287.9771
Salzburg,47.799412,13.04399,0.003671588,0.0045331735,0.0059477286,0.0036238995,0.002527956,0.0012367012,9.3389383e-07,0.00048789676,1.7380058,1.6867517,1.4596002,1.5367076,272.92422,280.2386,289.94922,281.85867,276.0405,284.61224,294.81485,286.18695,269.89938,276.0461,285.29578,278.05817
Santander,43.464722,-3.80444,0.003966317,0.0026574265,0.0015653849,0.0037168232,0.00012512841,3.2543794e-05,9.945536e-08,6.4340884e-06,3.5324097,3.0705438,2.8829548,3.056105,282.51453,286.013,293.23416,289.55145,285.95187,290.20605,297.85052,293.66885,279.2768,281.80722,288.7129,285.74786
Santiago de Compostela,42.88052,-8.54569,0.0050834273,0.0036705188,0.0014642567,0.0043116035,5.4960256e-06,7.7424863e-07,2.6107554e-09,6.285356e-08,4.1757407,3.779998,3.9300075,3.4935088,282.84174,286.15695,292.40942,289.1889,286.68973,290.7929,297.90067,293.68826,279.19537,281.74734,287.37817,285.30283
Sarajevo,43.84864,18.35644,0.0021854988,0.002357503,0.0023688027,0.0026722767,0.0010661841,0.00026126998,2.5503036e-06,0.0002717034,1.8267354,1.8096726,1.5964445,1.6468595,274.3511,282.7199,293.88788,284.303,277.78525,287.72827,300.16382,289.40836,270.9412,277.65143,287.52255,279.68796
Setúbal,38.524399,-8.8882,0.0021017282,0.001219233,0.00032310022,0.0019556654,4.1967786e-07,2.2104238e-08,1.8292667e-09,7.284322e-09,4.355505,4.339544,4.7305555,3.809119,286.13416,289.9566,295.60342,292.73395,289.7647,294.13788,300.4621,296.5809,283.04218,286.13824,291.3647,289.57422
Sevilla,37.382408,-5.97613,0.0020814983,0.0012747193,0.00021788341,0.0018606248,8.121695e-07,9.271338e-08,2.3450295e-09,5.491749e-08,2.783715,2.6834972,2.4841003,2.486628,284.48904,290.78735,300.1949,293.3865,290.5132,297.93753,308.5023,300.02713,279.55435,283.79498,291.78467,287.59906
Sheffield,53.382969,-1.4659,0.0025799836,0.0019455297,0.0020726365,0.0024950323,0.00041822053,0.00010501357,9.534356e-09,3.7746402e-05,5.021198,4.2792845,3.7700715,4.502076,277.7783,281.77264,288.99582,283.75574,280.45203,285.6679,293.55124,287.1402,275.14114,277.90897,284.36523,280.52045
Siracusa,37.085152,15.273,0.0021243256,0.00069725275,6.559857e-05,0.0019225996,2.666746e-05,4.0191644e-06,0.0,7.548215e-08,2.9346342,2.624436,1.8717266,2.2459617,286.04474,290.10687,300.61163,294.924,288.96155,293.68768,304.65576,298.217,283.47305,286.69647,296.44998,292.10675
Skopje,42.001221,21.42878,0.001382104,0.0015207196,0.0013334366,0.0017633308,0.0005516025,0.00017537597,3.4140368e-07,0.00015619502,1.6002024,1.7071148,1.6232224,1.4819089,274.798,284.05716,295.784,285.63983,278.71628,289.5772,302.7413,291.20938,271.07587,278.44482,288.8094,280.48303
Sochi,43.599171,39.725689,0.006332597,0.00447514,0.0028983688,0.005804504,0.0023190158,0.0008069761,0.0,0.00030168548,2.1040041,1.7915779,1.3348105,1.5612957,277.16788,284.60907,297.023,287.7671,280.54416,288.60605,301.4857,292.23016,273.8978,280.06525,291.91034,283.65344
Sofia,42.69751,23.32415,0.0017051343,0.0028449416,0.0022280128,0.0020782743,0.0010110167,0.00052793726,3.2554684e-07,0.00020519127,1.6452699,1.6792282,1.507088,1.5023216,273.35376,282.21994,294.02518,284.14175,277.0272,287.46707,300.2477,289.52252,269.93143,276.82428,287.63666,279.2826
Southampton,50.90395,-1.40428,0.0027395037,0.0017791986,0.001433456,0.0026979095,9.563822e-05,1.8865048e-05,1.2080026e-09,2.4467274e-06,5.0744348,4.3382072,3.8304794,4.478635,278.94754,282.82532,290.17206,285.42868,281.74045,287.00208,294.88513,289.08868,275.95743,278.59427,285.2896,281.80634
Split,43.508911,16.43915,0.0028895424,0.0020487702,0.0011810266,0.003213454,0.00029986087,4.935184e-05,1.0750243e-06,5.0959905e-05,3.1594145,2.8306298,2.3520098,2.8686259,279.7817,286.6228,297.49124,289.10583,283.4653,291.1756,302.92752,294.0332,276.16962,281.59335,291.21945,284.3261
Stockholm,59.332581,18.064899,0.0018633354,0.0012087512,0.0020686253,0.0020634946,0.00087662245,0.00019402834,5.426507e-09,8.802803e-05,4.404104,3.7269535,3.3473523,3.984628,273.92157,280.7607,290.55597,281.91364,276.0821,284.7567,294.76425,284.80853,271.42535,276.48508,285.52332,278.87564
Strasbourg,48.58342,7.74296,0.0023958588,0.0024378593,0.0026562223,0.0026533043,0.00024611058,3.8852457e-05,1.3335262e-08,2.6942096e-05,2.8045266,2.281547,1.945956,2.2179103,277.17957,285.16974,294.09525,285.46402,280.12903,290.2283,299.93427,290.10626,274.2726,280.23068,288.42377,281.38544
Stuttgart,48.782318,9.17702,0.0026450132,0.0025471866,0.0026101996,0.0025024696,0.0005150954,0.000117378695,1.2042849e-08,7.315863e-05,3.1220675,2.518032,2.186609,2.5084567,276.0653,283.83038,293.039,284.463,279.0781,288.76508,298.6253,289.20523,273.0142,278.98175,287.4987,280.23773
Szczecin,53.42894,14.55302,0.0018601121,0.0016113818,0.0021348118,0.0017376596,0.0003452459,7.009972e-05,1.6534266e-08,3.235952e-05,4.613096,3.725544,3.4869664,4.285554,276.7428,283.50174,292.25128,284.44952,279.0446,288.19363,297.14874,287.96414,274.33896,278.65533,287.0943,281.04965
Szeged,46.252998,20.148239,0.0013485424,0.0013341227,0.0017876815,0.0013273377,0.00024863528,1.9318244e-05,9.785394e-09,2.7640568e-05,2.8409967,2.7792144,2.5577672,2.6686196,276.1329,286.4737,297.3274,286.88452,279.45056,292.2552,303.59674,292.32196,272.78226,280.54034,290.66055,281.7168
Tallinn,59.436958,24.753531,0.0031035088,0.0012253535,0.0023107685,0.003404601,0.0014831141,0.00025073174,1.2394021e-08,0.000115657655,5.952382,4.486314,4.3824496,5.5020113,273.66748,279.0323,290.35236,282.5994,275.08133,281.97223,293.1705,284.61188,272.0203,275.61508,286.93723,280.4031
Tampere,61.499111,23.787121,0.0021686866,0.0011911844,0.002996123,0.002548558,0.0014697945,0.00032005744,1.2574809e-08,0.00019434815,3.7943573,3.298493,3.007011,3.535675,270.68948,278.91376,289.96704,279.8508,272.9051,283.6526,294.73788,282.65283,268.0715,273.52094,284.40668,276.80457
Taranto,40.476109,17.229719,0.0019382746,0.0011332005,0.00037721873,0.0017716184,6.752422e-06,4.023389e-06,1.863558e-09,2.1565913e-05,3.9108717,3.4304414,2.7989013,3.2780156,283.23462,288.52637,299.791,292.2281,286.9005,293.2055,305.29526,296.69025,279.73752,283.8492,294.1487,288.13943
The Hague,52.076672,4.29861,0.002646107,0.0017897089,0.002052624,0.0028903293,8.2931896e-05,1.9327848e-05,5.972378e-09,6.4449073e-06,5.659471,4.6245303,4.0578246,4.911627,278.8234,283.53778,290.9218,285.38654,281.25012,287.46548,295.19385,288.89157,276.25787,279.4163,286.2234,281.99347
Thessaloníki,40.640282,22.94389,0.0013245236,0.0012039455,0.00063361786,0.0013819203,7.827463e-05,3.501528e-05,1.4369241e-09,5.535653e-06,2.202194,2.0449624,1.9370539,1.8868382,280.09903,287.6253,300.00983,290.32288,284.3694,293.4764,306.81094,295.85004,276.0163,281.753,293.25052,285.08636
Tilburg,51.555511,5.0913,0.002734689,0.0017959978,0.0020832715,0.0024656379,0.000118574586,2.4984332e-05,1.0070143e-08,2.1761161e-05,4.5263324,3.7005467,3.281343,3.8920627,278.53558,283.88373,291.60834,285.05447,281.37717,288.58145,296.85214,289.20218,275.60214,279.02744,286.13303,281.1528
Timişoara,45.753719,21.22571,0.0014502908,0.0015934746,0.0019301424,0.0014941784,0.00030280894,3.2734173e-05,6.3298744e-09,3.425862e-05,2.4370933,2.4561396,2.1972191,2.3336177,276.13742,286.3474,297.59503,287.05307,279.42932,291.63553,303.53802,292.1031,272.89618,280.92706,291.3405,282.34146
Tirana,41.327499,19.81889,0.0033656692,0.0023027179,0.0012846031,0.003256206,0.00049092906,0.00012317547,8.431968e-09,7.84779e-05,1.7873703,1.643844,1.4232157,1.5859482,277.9735,285.4686,296.94666,287.89246,282.1962,290.71234,303.50775,293.44058,274.05118,279.92328,289.93118,282.99857
Toledo,39.858101,-4.02263,0.0009858734,0.0011176092,0.00035549366,0.0013701965,5.889471e-05,4.3315968e-06,7.411818e-08,2.9981302e-06,2.5040152,2.5590303,2.55188,2.334145,280.76532,288.35556,300.23282,290.43677,286.40808,295.1068,308.11703,296.71896,275.79675,281.40338,291.7575,284.59274
Toruń,53.013748,18.598141,0.0015356031,0.0014154201,0.0022536425,0.0013553158,0.00040332365,0.00012188028,1.1572589e-08,3.958196e-05,3.8487115,3.1586318,2.9959722,3.5855014,275.9826,283.3758,292.48398,283.90128,278.18158,288.03333,297.39288,287.52618,273.5757,278.37006,287.22272,280.2978
Toulon,43.116669,5.93333,0.0023555467,0.0020879551,0.00070803287,0.003113827,9.222828e-06,2.7972778e-06,1.648481e-09,6.6951625e-06,5.1289773,4.695082,3.9816341,4.691969,283.62262,287.935,296.97333,291.5412,286.02267,290.67963,299.99936,294.1915,281.54984,285.16956,293.7613,289.13013
Toulouse,43.604259,1.44367,0.0018451388,0.0022934396,0.0015943085,0.0017706907,7.005754e-05,2.4123208e-05,5.52028e-09,5.7681964e-06,3.0619116,2.9737878,2.6211362,2.7764292,280.53983,286.97577,296.4511,289.37903,285.23758,292.89496,303.11707,295.1364,276.40707,281.25323,289.98892,284.4345
Tours,47.383331,0.68333,0.0024572278,0.0016928732,0.001601151,0.002187491,2.4097639e-05,3.739231e-06,1.1059514e-08,2.3270482e-07,4.0033727,3.3883882,3.1246777,3.3656445,279.39236,285.0286,293.61035,286.97028,282.5591,290.2364,299.60718,292.07947,276.30652,279.7591,287.4729,282.26038
Trier,49.75565,6.63935,0.0028074963,0.0019798009,0.0023064017,0.0026044187,0.00038566889,6.368173e-05,9.124046e-09,7.632959e-05,3.8443923,3.1841817,2.7895763,3.231935,276.6404,283.73636,292.25186,284.34033,279.24353,288.4379,297.6565,288.53217,274.00037,279.0079,286.74762,280.5887
Trieste,45.648609,13.78,0.0030646918,0.0028369403,0.0027962772,0.0043820823,0.00029560793,5.1150226e-05,4.4728582e-10,0.00012343575,2.8594706,2.402741,2.1826072,2.793348,279.58746,286.79602,297.0805,288.507,283.475,291.47125,302.48547,293.1109,276.0684,282.0395,291.73444,284.31894
Turin,45.070492,7.68682,0.0010826353,0.0028563845,0.0021626796,0.0022205052,0.0005067424,0.0004192701,9.856011e-06,0.0001734008,1.1814579,1.207261,1.1081231,1.0900753,276.44397,283.91266,293.8764,285.42352,279.78735,288.24246,298.52292,289.30118,273.8237,279.72433,289.14447,281.93423
Turku,60.451481,22.26869,0.0022592198,0.0011690881,0.0027468158,0.002746958,0.0010522912,0.0001929163,1.9560895e-08,0.00010947288,4.295326,3.6137848,3.424245,3.993234,273.0535,279.79172,290.6125,281.5924,274.9475,283.8969,294.69342,284.32968,270.83438,275.14487,285.69284,278.65668
Utrecht,52.090832,5.12222,0.0027957128,0.001922095,0.0020286676,0.0028162028,9.712268e-05,1.9695704e-05,5.7771468e-09,1.1168029e-05,5.047658,4.169671,3.6116014,4.3452377,278.31717,283.49802,290.9036,284.8514,280.95145,287.9166,295.70428,288.71698,275.56885,278.89676,285.71942,281.18198
Valencia,39.469749,-0.37739,0.0012404943,0.0010826194,0.0004002576,0.002103758,8.194282e-06,2.0604646e-06,2.7902218e-09,1.1769221e-06,2.9345758,2.5297098,2.251609,2.4969132,283.7712,289.41565,299.22388,292.2954,289.5487,295.72232,305.65445,298.20758,278.88553,283.2933,292.9402,287.14447
Valladolid,41.655182,-4.72372,0.000997777,0.00096132245,0.00063898263,0.0014737246,7.866497e-05,1.05651925e-05,3.9551935e-09,5.9562635e-06,2.8408868,2.8641057,2.8166156,2.6273894,278.97952,285.8962,296.51324,288.45343,284.025,292.49908,304.69125,294.6567,274.4712,279.23785,288.11484,282.76462
Vantaa,60.29414,25.040991,0.0025247294,0.0011725125,0.0025387297,0.0030611455,0.0014812875,0.00025785566,1.1999475e-08,0.00010220862,4.428481,3.594122,3.4861903,4.058158,272.56638,279.80405,290.7312,281.3684,274.48633,284.16718,295.16397,284.20258,270.25906,274.89703,285.50284,278.25842
Varna,43.216671,27.91667,0.0011333397,0.0010597276,0.0009815639,0.0017078591,0.0003291263,0.00010715438,6.008019e-09,5.3549164e-05,4.152568,3.4101956,3.0926127,3.5305634,277.6453,285.3999,297.4983,288.05753,280.942,289.94208,302.7591,292.65314,274.3223,280.84973,292.04987,283.7116
Venezia,45.43861,12.32667,0.0019265785,0.0026532668,0.0024279053,0.0032582427,0.00015233237,1.5167105e-05,2.6467552e-08,5.163197e-05,2.6543055,2.4701066,2.3186626,2.6679647,279.69046,287.52515,298.01404,289.20923,282.9454,291.30402,302.15256,292.92468,276.81033,283.6814,293.8244,285.75555
Verona,45.434189,10.99779,0.0014239607,0.0027737732,0.0024907123,0.002682513,0.0004913201,0.00020084309,1.2080557e-06,0.00016612487,1.5097164,1.571152,1.4398035,1.5016197,275.67633,284.8807,295.21954,285.6864,279.64273,289.7146,300.3341,290.15985,272.26862,279.97205,290.0223,281.56207
Vienna,48.208488,16.37208,0.0013624094,0.0019638152,0.00243791,0.0018344059,0.00048533172,9.3480965e-05,2.1489269e-08,0.00012484155,3.4684837,3.3237445,3.046554,3.1452663,276.1863,285.35138,295.24734,285.299,278.51248,290.22913,300.70242,289.38773,273.9233,280.41656,289.79486,281.49493
Vigo,42.232819,-8.72264,0.0057724845,0.0040570195,0.001527835,0.0051593897,3.8746794e-06,1.5897515e-07,3.9619725e-09,2.8498516e-08,3.6970444,3.3598187,3.4874744,3.0867946,283.41537,287.24493,293.5391,290.04526,287.40326,291.9128,299.0187,294.5604,279.68445,282.59375,288.18735,286.00333
Vilnius,54.689159,25.2798,0.002224259,0.001687201,0.0026021672,0.0021417474,0.0011092386,0.00025696465,1.0125819e-08,0.00010932349,4.1580906,3.3842373,3.1516533,3.8002205,273.3464,282.186,292.37717,282.3552,275.0009,286.9627,297.42114,285.6542,271.4242,276.7416,286.67545,278.8847
Warsaw,52.229771,21.01178,0.0017934289,0.0014559126,0.0023008413,0.0014357243,0.0005395353,0.0001415829,9.762395e-09,7.905396e-05,3.6564066,3.0071912,2.798939,3.3557503,275.4014,283.69067,293.223,283.59753,277.67798,288.72818,298.53204,287.3669,272.92984,278.26288,287.47595,279.80154
Wiesbaden,50.082581,8.24932,0.0020204172,0.001767277,0.0020727606,0.0020595805,0.00024016616,4.075578e-05,1.7055024e-08,3.8354738e-05,3.258196,2.7768564,2.4545293,2.7887022,276.84674,284.41608,293.06027,284.67322,279.5001,289.44217,298.593,288.91006,274.14038,279.372,287.58633,280.89755
Wolverhampton,52.585468,-2.12296,0.0022620275,0.0018065756,0.0018759326,0.0023766912,0.00019198596,2.6522475e-05,1.0616889e-08,7.1670984e-06,4.722241,4.069339,3.5863101,4.2026224,278.24973,282.42517,289.7636,284.29913,281.1457,286.77426,294.86688,288.13348,275.23947,278.07346,284.5672,280.58057
Wrocław,51.099998,17.033331,0.0016252946,0.0019742635,0.0026773426,0.0015653673,0.0005050182,0.0001739816,1.0205079e-08,0.00010895894,3.4914145,2.92915,2.7283144,3.1346104,275.37463,283.49594,292.9928,283.8514,277.98,288.50296,298.6057,288.01727,272.66748,278.25323,287.0862,279.73135
Wuppertal,51.270271,7.16755,0.0033659746,0.0022140953,0.0028739213,0.003076862,0.0003253164,5.7391677e-05,1.12566285e-08,4.68991e-05,4.2422023,3.4169304,3.0207996,3.7284858,278.32898,284.53024,292.47675,285.5012,280.6718,288.89526,297.39328,289.10394,275.94434,280.14337,287.58105,282.21323
Yaroslavl',57.629871,39.87368,0.0017577026,0.0011311934,0.002446694,0.0022453638,0.0013724047,0.00030119723,1.5029075e-08,0.0002875592,3.841448,3.2760139,2.9847934,3.4625866,268.64343,280.69766,292.63007,280.47537,270.92902,285.07062,297.41415,283.39407,265.97534,275.54144,287.02753,277.33206
York,53.95763,-1.08271,0.0017513792,0.0015072327,0.0016421329,0.0019202933,0.00017983209,3.5308884e-05,5.052665e-09,2.4283148e-05,5.224985,4.5012574,3.8487592,4.7261834,277.6012,281.7257,288.76962,283.69003,280.4443,285.68793,293.43637,287.3167,274.8187,277.72385,283.932,280.21933
Zagreb,45.814442,15.97798,0.0020251155,0.0022517545,0.002780654,0.0029185351,0.0005843336,4.6544465e-05,1.681466e-08,0.00016075568,2.1949234,2.2489014,1.9178894,2.0477297,276.59897,286.24374,296.17267,286.341,279.88635,291.66962,302.14618,291.24652,273.5445,280.8393,290.2559,281.84302
Zaragoza,41.656059,-0.87734,0.0005085317,0.0010834846,0.0006300985,0.0012419791,2.8320477e-05,1.2950628e-05,6.912482e-08,1.6214772e-05,3.4157517,3.3837447,3.2157638,3.0118456,279.678,287.107,297.92014,289.1885,285.1388,294.1696,306.34247,295.73532,274.9243,280.23676,289.79843,283.40628
Zürich,47.366669,8.55,0.0038320085,0.0039766477,0.004254681,0.0032585058,0.0014040761,0.0005853245,3.0263145e-06,0.00017056931,2.1430826,1.9617621,1.6781187,1.718051,275.6465,283.2015,293.15543,284.0644,278.00122,287.6439,298.46094,288.003,273.44638,279.06815,288.14642,280.74677
Århus,56.156738,10.21076,0.0018996898,0.001401195,0.0021344726,0.002492531,0.0002895033,5.5950473e-05,1.1051959e-08,2.152653e-05,5.5797043,4.6702337,4.4696603,5.297931,276.02695,281.88815,290.02008,283.53912,278.22964,285.8528,294.3336,286.5937,273.58597,277.6661,285.1867,280.35294
Łódź,51.75,19.466669,0.0018947617,0.0018499754,0.0024633377,0.0014920513,0.0006375931,0.00020387734,8.212956e-09,9.1227725e-05,4.080212,3.2666297,3.0520873,3.6421142,275.44296,283.38583,292.86954,283.6584,277.8433,288.30313,298.1429,287.64636,272.87012,278.1371,287.18787,279.68332
