city,latitude,longitude,sf_winter,sf_spring,sf_summer,sf_autumn,t2m_winter,t2m_spring,t2m_summer,t2m_autumn,max_t2m_winter,min_t2m_winter,max_t2m_spring,min_t2m_spring,max_t2m_summer,min_t2m_summer,max_t2m_autumn,min_t2m_autumn,tp_winter,tp_spring,tp_summer,tp_autumn,si10_winter,si10_spring,si10_summer,si10_autumn
Marbella,36.51543,-4.88583,1.0969903e-05,0.0,0.0,8.736717e-06,284.91953,287.19876,294.68997,290.59235,286.82404,283.41727,290.10483,284.5049,296.8558,291.28305,295.13998,285.6433,0.0025650105,0.0014792442,0.00040933292,0.002737363,4.359142,4.1954803,3.4622083,3.8431673
Jerez de la Frontera,36.686451,-6.13606,1.39077505e-08,0.0,0.0,0.0,285.587,288.36816,296.06366,291.74432,288.04782,283.6096,291.62354,285.78625,298.61584,292.2329,297.625,285.99863,0.0028107285,0.0014662624,0.00035966636,0.0023221096,4.299484,4.1313615,3.5878296,3.9218524
Málaga,36.720161,-4.42034,2.4231274e-05,6.794929e-07,0.0,2.1784836e-05,283.9826,286.75494,294.7733,290.03574,285.9443,282.3023,290.16147,283.68588,296.96176,291.20767,294.95425,284.58798,0.0021755907,0.0014531984,0.0003680229,0.0022803517,3.6927805,3.5076163,2.7644002,3.1469047
Roquetas de Mar,36.764191,-2.61475,5.5428347e-05,5.953842e-06,0.0,4.5259792e-05,284.59406,287.24393,295.4005,290.80087,286.42316,283.00418,290.6522,283.92548,297.77676,292.08203,295.97885,285.31113,0.0013664643,0.0010511504,0.00036119355,0.0017432637,4.569746,4.532565,3.8305738,4.118082
Almería,36.838139,-2.45974,0.00010434522,1.7870798e-05,0.0,7.786618e-05,283.46796,286.5644,295.16806,289.93054,285.38004,281.7244,290.38705,282.84848,297.61206,291.84848,295.5023,283.9309,0.0013221105,0.0012264993,0.0004958312,0.0017657254,4.054773,4.0491805,3.4740877,3.665426
Siracusa,37.085152,15.273,5.68231e-07,0.0,0.0,1.5497208e-06,285.61533,288.00217,296.81195,292.18686,287.3586,284.2462,291.69077,284.39633,299.8606,293.7089,297.1892,287.2698,0.0020918238,0.0007552571,0.00070705416,0.002718976,4.5764556,3.9763935,2.9077148,3.722549
Granada,37.188171,-3.60667,0.00026415786,3.508081e-05,0.0,0.00015062094,280.26288,284.23425,293.97748,287.48083,282.78842,277.66318,288.8695,280.03226,296.68384,289.70276,294.40283,280.41156,0.0024324774,0.0020132463,0.0005923629,0.002115659,2.6088548,2.5690885,2.0473557,2.2235994
Sevilla,37.382408,-5.97613,1.013279e-06,0.0,0.0,6.622739e-09,283.91443,288.15823,297.6646,291.403,286.00494,281.2131,292.48593,284.6783,301.15137,292.0944,298.81314,284.08762,0.0024226056,0.0015177091,0.0003929986,0.00198364,2.9216225,2.8356524,2.4447753,2.490863
Catania,37.502129,15.08719,5.8829784e-05,7.1790487e-07,0.0,1.1650721e-05,283.80652,286.8539,296.04572,290.64084,285.58844,282.3788,291.38623,282.5765,299.0748,293.121,296.06412,285.35263,0.0025715907,0.0011217515,0.00093741954,0.003099341,3.2716544,2.9701903,2.3712294,2.7247937
Cartagena,37.605122,-0.98623,4.6094257e-07,0.0,0.0,3.3775964e-07,285.5759,288.28268,296.36877,292.05206,287.38043,284.01584,291.4038,285.0811,299.24033,293.3378,296.8934,286.7815,0.001023282,0.00085874397,0.00046304066,0.0016102844,4.385406,4.279829,3.764091,3.98024
Marsala,37.796638,12.43518,1.5894573e-08,0.0,0.0,0.0,286.21066,288.11,296.31284,292.4784,288.01828,284.53116,291.28207,284.84586,299.7872,293.38925,296.95435,287.9908,0.0024211751,0.0009032514,0.0008161491,0.0027544075,6.3847904,5.821959,4.47424,5.474157
Córdoba,37.883331,-4.76667,2.8059218e-05,7.947286e-09,0.0,7.56979e-06,282.17712,287.0205,297.48746,290.1302,284.6917,278.76437,291.6787,282.46146,300.55142,292.18115,297.90152,282.20026,0.0023594566,0.0017064228,0.0004389127,0.0019334687,2.6992605,2.657564,2.337981,2.3001235
Piraeus,37.947449,23.637079,4.7913192e-05,0.0,0.0,1.3080239e-05,283.40143,288.3451,298.0669,291.2923,285.97653,281.43732,293.5089,283.3169,300.00732,295.90833,297.0995,285.6592,0.0020081142,0.00070784293,0.00036458173,0.001709489,3.6735525,3.039931,3.0022292,3.38663
Athens,37.97945,23.716221,5.983953e-05,0.0,0.0,1.5122802e-05,282.9854,288.4266,298.3594,291.01584,285.7937,281.02234,294.05984,282.97202,300.4518,296.25085,297.09576,285.39996,0.0020196915,0.0007994193,0.00041299043,0.0016738256,3.3359005,2.86567,2.8928308,3.1458282
Murcia,37.987041,-1.13004,9.6360845e-06,3.0464594e-08,0.0,3.93788e-06,283.4592,287.89532,297.03748,290.5884,285.7087,280.69016,292.0503,283.63348,299.9182,293.97128,296.69205,284.13467,0.0010551717,0.001110432,0.00059719087,0.0014926221,2.8699942,2.94498,2.61092,2.5620015
Palermo,38.115822,13.35976,9.846687e-06,6.9538753e-09,0.0,2.8947989e-06,284.4458,287.07208,295.97638,291.05594,286.2938,282.77377,291.1787,283.24658,299.45898,292.98438,296.07642,286.1757,0.0025806527,0.0013220946,0.00088895165,0.0026968638,4.2969947,3.8636923,2.884706,3.5830371
Messina,38.193272,15.54969,1.2392467e-05,3.973643e-08,0.0,8.477105e-07,284.81357,287.1596,295.7624,291.25302,286.72433,283.32315,291.0083,283.47592,298.84677,292.69034,295.97452,286.5823,0.0035773437,0.0014133983,0.0012602753,0.0036663401,4.2240376,3.9393275,3.199863,3.4641724
Elche,38.26218,-0.70107,2.0113697e-05,1.0684685e-07,0.0,6.4637925e-06,283.5965,287.692,296.72318,290.55676,285.7618,281.00635,291.65787,283.43204,299.6528,293.66983,296.52734,284.3139,0.001068744,0.001183478,0.0006753639,0.0014091491,3.2361023,3.1845024,2.767008,2.793735
Alicante,38.345169,-0.48149,2.9579798e-05,9.60297e-08,0.0,9.257264e-06,283.82187,287.2374,296.061,290.55576,285.7153,281.6796,290.8711,283.16458,298.9485,293.01157,296.20752,284.66837,0.0012414694,0.0013513009,0.0008138498,0.0017376661,3.6128273,3.455851,2.9825318,3.1138597
Setúbal,38.524399,-8.8882,4.7418806e-07,0.0,0.0,3.311369e-08,284.96445,286.96994,293.06674,290.21573,287.65753,282.27057,290.25626,284.70258,295.37857,289.54272,295.51547,285.59122,0.0026038778,0.0012457106,0.00029925242,0.0023704239,4.8361983,4.6539054,4.5497446,4.081881
Lisbon,38.716671,-9.13333,5.642573e-07,0.0,0.0,6.4902835e-08,285.0096,286.85587,292.53723,290.0389,287.59732,282.413,289.76782,284.64987,294.4694,289.05167,294.96582,285.7128,0.0027391168,0.0012923453,0.00033517941,0.002459521,5.22828,5.121343,5.086149,4.4796596
Cagliari,39.207378,9.13462,1.8424458e-06,0.0,0.0,7.285012e-08,283.96283,286.93845,296.11212,290.58554,286.17325,282.2084,290.86002,282.6268,300.0232,293.29175,296.29703,285.4374,0.0021417565,0.0014253537,0.00069760747,0.0016346003,3.8232582,3.7181456,3.2170234,3.3532116
Valencia,39.469749,-0.37739,2.4296178e-05,2.6226044e-07,0.0,4.67168e-06,283.60214,287.28897,296.08884,290.35806,286.00534,281.24826,291.05273,282.66116,298.6586,292.83203,296.2562,284.5709,0.0013350594,0.0014879147,0.0014333831,0.0021403579,3.7190359,3.3457887,2.7781284,3.0015914
Palma,39.569389,2.65024,3.149112e-07,9.934108e-10,0.0,8.8115536e-07,285.68045,287.4017,295.96185,291.91092,287.71262,283.90622,290.62463,284.01834,299.16736,292.78113,296.97437,286.92624,0.0015237152,0.0010890503,0.0012062073,0.0021432936,5.5645747,4.6017323,3.508351,4.517168
Toledo,39.858101,-4.02263,8.11855e-05,2.2053719e-06,0.0,4.667971e-05,279.3156,284.92743,295.97638,287.46988,281.97525,275.39508,290.79385,279.11264,299.31152,291.27182,296.22525,279.8881,0.0016865492,0.0016803159,0.00082784763,0.0016759528,2.8668935,2.8165517,2.5003214,2.4191105
Coimbra,40.205639,-8.41955,1.5482638e-05,7.285012e-09,0.0,6.8598324e-06,281.8445,285.14252,292.10666,287.85553,283.4321,278.49094,289.23593,282.02933,294.73178,287.90024,293.92007,282.47992,0.004947755,0.0026485312,0.0008576605,0.003717857,3.520492,3.2396326,3.008117,2.9352076
Lecce,40.357029,18.17202,3.3030908e-06,0.0,0.0,6.2584874e-08,284.74045,288.27277,297.1641,291.39856,286.31442,283.17593,292.89563,283.9064,299.95312,294.73608,296.87427,285.93594,0.0028621138,0.0011146108,0.0011615276,0.0028514424,5.229013,4.7284656,3.998382,4.581812
Madrid,40.4165,-3.70256,0.00018187232,1.5473366e-05,7.947286e-09,9.244548e-05,278.62103,284.31488,295.3865,286.84262,281.2736,274.94162,290.60864,278.45493,298.6919,290.7723,295.47476,279.378,0.0017897368,0.0018046432,0.00086781185,0.0018671433,2.6347015,2.6847098,2.4556844,2.3126051
Taranto,40.476109,17.229719,1.19385895e-05,0.0,0.0,2.0274408e-06,283.6319,287.34158,296.68964,290.51678,285.20627,281.9038,292.0291,282.61478,299.80667,294.30408,296.4608,284.80728,0.0024733685,0.0011603285,0.0010317907,0.002510756,4.523851,4.046902,3.357577,3.9594567
Alcalá de Henares,40.482052,-3.35996,0.00014480352,8.65327e-06,3.973643e-09,7.704761e-05,278.43567,284.0134,295.04645,286.51062,281.04977,274.89215,290.3746,278.21274,298.3431,290.4878,294.98453,279.16217,0.0018504619,0.0018858884,0.0009787347,0.0018857479,2.7302582,2.7316945,2.5056355,2.3732212
Thessaloníki,40.640282,22.94389,0.00026887158,1.1990468e-06,0.0,0.00013374389,279.52307,286.9929,296.9141,288.54456,283.4366,277.33197,292.65002,280.76282,298.62976,294.44385,295.99866,280.6514,0.002438565,0.00193277,0.0015587211,0.002369382,2.4470773,2.3393614,2.2695246,2.287488
Salerno,40.677971,14.76599,8.269151e-05,7.914172e-07,0.0,4.6767127e-05,282.7127,286.06766,294.76056,289.28625,284.48697,280.93677,290.49008,281.03256,297.67783,292.00073,294.96826,284.01004,0.0046215453,0.0024257393,0.0021102217,0.005235166,3.7749557,3.1737905,2.4463685,3.2190063
Napoli,40.833328,14.25,4.6102206e-05,1.1377865e-06,0.0,2.8573142e-05,283.00256,286.31104,294.99988,289.53732,284.77896,281.3082,290.45914,281.4634,297.9485,292.20596,295.1691,284.29355,0.0043691713,0.0022847971,0.0021164098,0.00502122,3.8327634,3.2107813,2.4930391,3.2172072
Salamanca,40.968819,-5.66388,0.00022672149,2.2450422e-05,1.0331472e-07,9.456078e-05,277.70215,282.44235,292.24942,284.97375,280.08575,274.05734,288.51474,277.43817,295.41992,287.4686,292.46207,278.05185,0.0019804053,0.0018379582,0.0008125623,0.0017139886,3.3652647,3.0640175,2.6068861,2.697583
Bari,41.117729,16.851179,3.0097366e-05,1.5894573e-08,0.0,8.634726e-06,283.3964,287.16257,296.20334,290.06497,284.91135,281.4572,291.65198,282.16055,299.27344,293.9348,295.98413,284.49503,0.002420819,0.0013579945,0.0012905359,0.0022902489,4.79834,4.3788853,3.7240357,4.235422
Porto,41.149609,-8.61099,8.953611e-06,2.587835e-07,0.0,2.1537146e-06,282.7778,285.4089,291.62216,288.1528,284.40854,280.14682,288.7213,282.6653,293.6173,288.13196,293.73376,283.2847,0.006263,0.003109928,0.0012571573,0.0047501544,4.4919176,4.1302595,3.8395529,3.6866646
Tirana,41.327499,19.81889,0.00058752,3.872017e-05,3.799796e-07,0.00025814076,278.75494,285.0778,294.0197,286.8625,281.98593,276.40863,290.4275,278.7875,296.53442,291.84033,293.51233,279.73135,0.0043349466,0.0034128467,0.002476732,0.004981796,2.5289752,2.108958,1.8619187,2.1850965
Barcelona,41.38879,2.15899,3.0427178e-05,3.8102269e-06,0.0,1.5625357e-05,282.34732,285.4691,294.17053,289.0125,283.93527,280.64462,289.1084,281.56363,296.74377,291.18787,294.79968,283.51266,0.0017405172,0.0025342286,0.0028685809,0.0023025235,3.7094913,3.3849947,2.836827,3.2097852
Braga,41.55032,-8.42005,0.00010495385,4.3352443e-06,0.0,1.766483e-05,280.56863,283.92026,291.0509,286.51694,282.3326,277.6793,287.8246,280.7816,293.7566,286.063,292.74915,280.6265,0.006894388,0.0035523137,0.0016539296,0.0051608365,3.1877673,2.9378293,2.6328049,2.6540713
Valladolid,41.655182,-4.72372,0.00015080505,1.0558632e-05,0.0,5.2458712e-05,277.96143,282.85812,292.77228,285.24103,280.402,274.4636,289.29385,277.82895,296.19638,287.97787,292.90805,278.6586,0.0017435948,0.0018685207,0.00085945654,0.0015774674,3.3936603,3.2693207,2.9681945,2.8475199
Zaragoza,41.656059,-0.87734,5.0825874e-05,4.3282907e-06,0.0,4.8050286e-05,279.81238,285.27066,294.91217,286.9834,282.8591,276.8563,290.76782,279.78116,298.33813,290.84778,294.79968,280.01117,0.0012257079,0.0019254823,0.0013968666,0.0012233972,3.7946234,4.111132,3.4814763,3.4767087
Rome,41.894741,12.4839,3.8921833e-05,2.9239388e-06,0.0,1.4438894e-05,281.7582,285.88025,294.9084,288.66913,283.6595,279.92456,290.56802,280.74042,298.1482,292.1953,294.70767,282.8619,0.003746793,0.0024474144,0.0022920342,0.0041008154,3.256806,3.0104578,2.5367973,2.831119
Skopje,42.001221,21.42878,0.0008889529,6.366968e-05,4.8100947e-06,0.000554453,274.13934,282.85547,292.3347,283.28522,278.87027,271.04385,289.2955,275.0425,294.52612,289.4956,291.5664,274.7397,0.0019689216,0.002903819,0.0019591278,0.002250001,1.6689341,1.7346181,1.6300571,1.6011623
Plovdiv,42.150002,24.75,0.0010179308,9.383626e-05,9.444024e-07,0.00048595402,273.86942,282.88385,292.10248,283.46368,278.98532,271.37296,288.7899,275.2181,293.94907,289.42838,290.8563,275.66855,0.0020486063,0.0034721242,0.0024802736,0.0018308348,1.8785275,1.9890655,1.79874,1.804195
Vigo,42.232819,-8.72264,9.427248e-06,2.1192763e-08,0.0,2.2058132e-06,282.39124,284.6803,290.76218,287.2873,283.9056,280.01437,287.4754,281.86462,292.89337,287.56873,291.72205,282.33832,0.00720413,0.003446367,0.001658143,0.005474931,4.6198545,4.218173,3.791385,3.7256343
Burgos,42.349998,-3.7,0.00060593185,9.649892e-05,1.9868216e-09,0.00021813413,276.82794,280.89676,289.7125,283.6069,279.33383,273.76694,285.71765,275.67215,292.57568,285.91125,290.43628,277.22137,0.0023301204,0.0027011791,0.0015065749,0.0018960814,3.6882553,3.368438,2.9359446,3.0550027
Sofia,42.69751,23.32415,0.0010590821,0.00016132096,2.2654733e-06,0.0005716284,272.47675,281.70758,290.4771,281.93604,277.8292,269.8292,287.85925,273.91528,292.38477,287.80908,289.39148,274.73404,0.0018118342,0.003517878,0.0025561214,0.00174944,1.9537388,1.9923948,1.7686158,1.8275647
Perpignan,42.697639,2.89541,0.00014980932,2.4921199e-05,0.0,9.396175e-05,280.6818,284.72324,293.6015,287.22668,282.75656,278.6804,289.2605,279.42178,295.82324,290.32153,293.30884,280.82867,0.0022357185,0.0029096862,0.002219236,0.0021908085,3.9172742,3.9436266,3.433161,3.663849
Pamplona,42.816872,-1.64323,0.0004373302,4.885445e-05,0.0,0.00013742447,278.55573,282.54044,290.769,284.95737,281.2889,276.1804,287.79443,277.2454,293.85352,287.25342,290.94812,278.5429,0.0034882287,0.0036508043,0.0027783355,0.0028378586,3.120452,3.0231833,2.6142762,2.8053641
Santiago de Compostela,42.88052,-8.54569,2.5398202e-05,3.8875476e-07,0.0,4.94851e-06,281.30164,283.65872,290.10086,286.51486,283.7298,278.62442,286.38583,280.611,292.52515,286.35342,291.00015,282.2325,0.005542779,0.003141382,0.001716582,0.004288835,4.2240095,3.8714528,3.4615386,3.457
Perugia,43.112202,12.38878,0.00025208693,2.8890372e-05,0.0,0.00013317764,278.27304,283.7933,293.58893,285.667,280.76865,275.70685,289.33862,277.59085,297.3888,290.7931,293.16516,278.32108,0.0027953605,0.0027402223,0.0023231069,0.0028499465,2.433352,2.4472272,2.1063821,2.281
Toulon,43.116669,5.93333,7.059673e-05,2.9007595e-06,0.0,1.5938282e-05,282.10013,285.58948,294.25592,288.43738,283.56918,280.0678,289.49487,280.92435,297.1709,291.33057,294.10498,283.41293,0.0031873207,0.0018040676,0.001200807,0.0030988872,5.6687756,5.1914887,4.410149,4.886514
Varna,43.216671,27.91667,0.0003971471,5.357795e-07,0.0,0.00011667278,276.2506,283.756,293.98956,286.0185,280.2438,272.80167,289.50073,276.8984,296.04623,291.75992,292.87094,279.08813,0.0015781085,0.0020940702,0.001709387,0.0015108745,4.3667326,3.588985,3.3653848,3.8947265
Bilbao,43.262711,-2.92528,0.00021874243,2.2963683e-05,0.0,4.8397644e-05,281.0797,283.4694,290.46262,286.60318,283.48257,278.55923,287.3195,279.23782,292.9318,287.1373,291.3042,281.6874,0.004059479,0.0038282422,0.002510018,0.0036899885,4.258682,3.682336,2.9137511,3.5247693
Marseille,43.296951,5.38107,4.1013296e-05,2.161662e-06,0.0,1.2542141e-05,281.904,285.68698,294.3417,288.34464,283.4461,279.83066,289.7001,280.87958,297.15372,291.31845,294.07065,283.10928,0.0029730399,0.0017854214,0.0013085312,0.003030173,5.9892306,5.489983,4.7226343,5.274355
Donostia / San Sebastián,43.312832,-1.97499,0.00021794505,2.3760398e-05,0.0,5.3278603e-05,281.5157,283.80978,290.86707,287.0898,283.659,279.4487,287.75455,279.5251,293.3732,287.51523,291.68994,281.87363,0.0045901006,0.0038417154,0.0030479643,0.0039502857,4.933072,4.2385983,3.4108162,4.073805
Oviedo,43.360291,-5.84476,0.0007294138,0.0001487131,2.4735928e-07,0.000293836,279.74228,282.1344,289.09467,285.33838,281.98117,277.2856,285.41638,278.433,291.23877,285.7793,290.0912,280.26117,0.0039544203,0.0038263719,0.0025936207,0.003755317,3.7768743,3.406886,2.8719468,3.2051613
Arezzo,43.461391,11.87691,0.00033709343,3.170305e-05,0.0,0.00020965868,277.83267,283.5298,293.26773,285.24954,280.39337,275.14316,288.83707,277.47366,296.989,290.46884,292.64273,277.87265,0.0030999235,0.0028519523,0.0024820645,0.0029892498,2.2685027,2.2945583,1.9827915,2.1121392
Santander,43.464722,-3.80444,0.00016863612,1.8505916e-05,0.0,4.7289002e-05,282.28937,284.13458,290.93854,287.62875,284.51944,280.11148,287.48892,280.45868,293.1559,287.68042,291.85483,283.15356,0.004145249,0.0038070916,0.0026000552,0.003991233,4.510907,4.0862303,3.42075,3.9186413
Split,43.508911,16.43915,0.00019421974,1.7621784e-05,0.0,0.00012346373,280.6295,285.48773,294.23126,287.66144,282.53043,277.79385,290.29453,279.4507,296.69687,292.02213,293.89713,282.28802,0.004237175,0.0029137186,0.0025778029,0.0047418354,4.132203,3.9025347,3.05318,3.7014601
Aix-en-Provence,43.528301,5.44973,9.1001726e-05,7.1412987e-06,0.0,2.4861762e-05,280.27695,285.1836,294.48642,287.19394,282.21097,277.9042,289.8358,279.69843,297.13632,291.29794,293.65982,281.29745,0.0028137313,0.0021065606,0.0015301069,0.0027983056,4.340602,4.203139,3.7562099,3.9525805
Gijón,43.535728,-5.66152,0.00039718286,8.8356595e-05,3.8411883e-08,0.00015534429,281.33984,283.30093,289.8605,286.58914,283.507,279.10562,286.41943,279.85092,291.8983,286.74088,290.83804,282.04794,0.0041833664,0.004059349,0.0027417978,0.004072009,4.119776,3.7178228,3.1946037,3.5523388
Livorno,43.542641,10.316,3.0295054e-05,1.5629662e-07,0.0,1.3664033e-05,282.1849,286.15228,295.01532,289.0482,283.97052,280.2351,290.14902,281.37924,297.96265,292.3204,294.7596,283.54745,0.0035019876,0.0023591598,0.00229507,0.0035051743,3.9968512,3.3866725,2.8006978,3.368505
Sochi,43.599171,39.725689,0.0015042318,6.339682e-05,1.809332e-06,0.00085371337,277.14368,283.3942,293.05878,286.44635,279.82208,272.9324,289.25757,277.23746,295.99863,289.93848,292.42236,279.58456,0.003930532,0.0033830774,0.0037066988,0.005050135,3.2013886,2.555034,2.2027323,2.690208
Toulouse,43.604259,1.44367,0.00012494624,1.6567112e-05,0.0,4.7214828e-05,279.6168,284.23175,292.79337,286.22415,282.43942,276.9946,289.8363,278.17032,295.46777,289.46045,292.62183,279.2696,0.0028284113,0.0031590322,0.0023226975,0.0021658798,3.2460737,3.3336189,2.7247534,2.9680555
Montpellier,43.61092,3.87723,0.00013183156,3.2002727e-06,9.934108e-10,5.6506196e-05,280.9219,285.0621,293.83054,287.34665,282.8157,278.44513,289.35706,279.98685,296.2074,290.73596,292.82764,281.6584,0.0035763602,0.0024892709,0.0022266784,0.0036684673,4.690741,4.4086585,3.825194,4.2154317
Nice,43.703129,7.26608,0.0009902831,0.00010352665,1.027849e-06,0.00039211026,278.96365,283.2118,292.2038,286.14807,280.34607,276.3819,287.71698,277.65906,295.0619,289.56482,291.93814,281.26062,0.0036870814,0.0029077423,0.0021298516,0.003395243,2.8935673,2.6983562,2.1881597,2.4224913
Pisa,43.71553,10.39659,0.00010994143,3.5471385e-06,0.0,5.776485e-05,281.027,285.39148,294.3097,288.00735,282.86636,278.86514,289.6503,280.4009,297.27188,291.6044,293.9435,282.41547,0.004187793,0.0030472623,0.0027374001,0.0041394974,3.300541,2.8600848,2.3684192,2.8005898
Firenze,43.76667,11.25,0.00026176948,1.5886624e-05,0.0,0.00019628384,278.16965,283.985,293.6626,285.66837,280.81064,275.30463,288.95242,278.27493,297.07187,290.65332,292.84662,278.29926,0.003295065,0.0026897783,0.002316807,0.003142332,2.1992314,2.2184768,1.9333808,2.0447822
Nîmes,43.833328,4.35,0.000116865835,2.0136436e-06,0.0,6.3856445e-05,280.46677,285.58112,294.86313,287.3299,282.58145,277.7115,290.46704,279.8799,297.526,291.57324,293.43457,281.31317,0.0033203044,0.0024814387,0.0022481123,0.0035087487,4.09706,3.8739653,3.5592341,3.826773
Lucca,43.843571,10.50585,0.0004890879,3.9172835e-05,0.0,0.00022866992,278.90295,284.0713,293.2648,286.23004,281.17868,276.3401,288.80118,278.42435,296.26718,290.59293,292.69385,280.17685,0.0042050495,0.0033973642,0.0030222626,0.004006569,2.5427887,2.3384044,1.9632283,2.225301
Sarajevo,43.84864,18.35644,0.0016489535,0.00032328913,9.896855e-06,0.0010276735,272.93292,280.6079,289.3942,281.19415,276.62387,269.617,287.29834,272.39932,291.85278,286.83813,289.11743,274.57764,0.0030810614,0.003888291,0.003201759,0.0031432111,1.8362395,1.956745,1.6456106,1.7494525
Prato,43.884251,11.09092,0.00044123532,2.8424958e-05,0.0,0.00028175116,277.90207,283.8659,293.52533,285.5173,280.67856,274.87006,288.86047,277.95157,296.8402,290.72534,292.62695,278.32352,0.0034776966,0.0028950633,0.0026884556,0.0032714882,2.123494,2.211961,1.9158808,1.998689
Avignon,43.948341,4.80892,0.00012438596,9.0872245e-06,0.0,5.7255227e-05,279.93277,285.36295,294.87094,286.99768,282.15277,277.2152,290.5658,279.4091,297.50134,291.5481,293.58862,280.66766,0.0027869681,0.002419005,0.0018803795,0.0028686523,3.9689448,3.8258872,3.5852377,3.7453256
Rimini,44.063332,12.58083,0.00015232762,1.0251006e-05,0.0,9.982188e-05,280.55923,285.63998,295.4452,288.03796,282.48862,277.8167,290.53308,279.99734,298.35583,293.13452,294.4768,281.62576,0.0025850574,0.0020659864,0.0026986122,0.0026055912,3.6618307,3.55282,3.1548305,3.4835432
La Spezia,44.110538,9.84339,0.0005133748,2.7689834e-05,0.0,0.00021045606,280.20172,284.38333,293.15045,287.11758,281.91306,277.63446,288.62097,279.3417,296.05225,290.4319,292.78345,282.31863,0.004924967,0.0034872333,0.0032986044,0.0047677974,3.3467417,2.9822152,2.3980205,2.8634067
Constanţa,44.183331,28.65,0.00033963125,3.7252903e-08,0.0,9.225706e-05,276.35657,283.76596,294.503,286.39996,279.6677,272.7796,289.9701,276.94293,296.70593,292.16492,293.32202,279.47034,0.001445651,0.0018538653,0.0017598192,0.0014311612,5.2564282,4.3579636,4.0798917,4.7047863
Ravenna,44.4175,12.20111,0.00014955335,8.903609e-06,0.0,0.000103380946,279.68054,285.82663,295.93625,287.6349,282.17,276.43857,291.0494,279.9224,298.89786,293.4269,294.71548,280.408,0.0025047276,0.0021732755,0.0028608004,0.002553333,2.9718604,3.0834022,2.7995899,2.8874447
Bucharest,44.432251,26.10626,0.000668938,4.986425e-06,0.0,0.0001690497,273.70596,284.80545,294.52582,284.65396,279.0405,270.41632,291.26184,276.5526,296.25208,291.93518,293.50146,276.70908,0.0014676909,0.00286027,0.0024688998,0.0013966918,2.8891168,2.8880806,2.4100535,2.709897
Bologna,44.493809,11.33875,0.00040094455,1.9148323e-05,0.0,0.00027939345,277.86884,285.22467,295.46173,286.30585,281.22812,273.46558,290.51602,278.82614,298.84366,292.68033,294.12027,278.36273,0.0028484105,0.002539579,0.0030798384,0.002645898,2.0252967,2.3348236,2.0728428,2.0022318
Modena,44.647831,10.92539,0.0006658107,3.6411486e-05,0.0,0.00035334725,277.07727,284.5838,294.58823,285.58218,280.456,272.57916,289.9176,278.19547,297.79382,292.04614,293.07886,277.78873,0.0032283564,0.003006808,0.0033726017,0.0028624039,1.8803914,2.1334558,1.8641266,1.8384864
Parma,44.802662,10.32898,0.0005997678,1.6427537e-05,0.0,0.00027008256,277.05768,284.92084,294.7837,285.70538,280.71783,272.4417,290.2251,278.66397,297.76782,292.31433,293.1383,277.73,0.003280165,0.003049346,0.0033372482,0.0028353154,1.8089776,2.0861442,1.8132838,1.7845798
Belgrade,44.804008,20.46513,0.00043405825,9.563234e-07,0.0,0.0001942714,275.3889,285.4018,294.16492,284.69876,280.51788,272.25632,292.34677,276.95914,296.4756,291.43375,292.7191,275.31082,0.0015283929,0.0025645944,0.0021194618,0.0016925574,3.1946092,3.0101194,2.5127575,2.7987528
Ferrara,44.826778,11.62071,0.00013358593,2.0037094e-06,0.0,9.7163516e-05,278.20682,286.08347,296.15652,286.89417,281.92963,273.99115,291.54065,279.8654,299.25012,293.4203,294.5658,278.65787,0.0025761386,0.0026491184,0.0030623276,0.0024917226,2.2845664,2.4599738,2.171349,2.1845298
Bordeaux,44.840439,-0.5805,1.9785763e-05,2.554059e-06,0.0,7.975102e-06,280.10883,284.66266,292.87012,286.53336,283.04575,276.5416,289.5724,278.9683,295.98926,288.7838,292.1659,280.33527,0.0026482781,0.002462385,0.0022764166,0.0020448745,3.3368182,3.1950376,2.7243505,2.8574913
Ploieşti,44.950001,26.01667,0.0008768417,5.605309e-05,9.236512e-07,0.0002768552,272.25516,282.81952,292.1434,282.6172,277.32648,268.1554,289.5368,275.09634,294.2212,289.67563,291.00308,274.68228,0.0016565181,0.0035951438,0.0030426802,0.0015640894,2.354874,2.464531,2.1192749,2.2704747
Krasnodar,45.044842,38.976028,0.0005715088,3.942737e-06,0.0,0.00020789217,273.4979,284.81183,295.40387,285.20584,279.545,262.5725,292.891,275.5199,298.5083,291.89313,294.18723,277.9974,0.0018362504,0.0022267587,0.0018241034,0.0024317354,3.877022,3.388415,3.0718882,3.3402066
Turin,45.070492,7.68682,0.0019302914,0.0004868393,5.201151e-05,0.0010036369,273.32974,280.99658,290.6291,282.1772,276.15106,269.23163,286.37012,274.26138,292.641,288.0288,289.21033,276.0596,0.004261319,0.004642582,0.0041435203,0.0038385412,1.3525268,1.4150702,1.330132,1.3337944
Grenoble,45.166672,5.71667,0.002549068,0.0005788532,3.2423603e-05,0.0012165362,272.5723,278.8486,288.3597,280.61267,275.60626,269.69717,284.73917,271.75882,290.6967,285.70776,287.3877,273.7841,0.004386703,0.004520623,0.003818316,0.0038080902,1.6913226,1.7330556,1.6751295,1.6582973
Novi Sad,45.251671,19.836941,0.00038357973,5.5631002e-08,0.0,0.00015782515,275.1185,285.17886,294.043,284.4361,279.9749,272.00388,292.17407,276.5566,296.45557,291.36264,292.58154,275.35312,0.0014992025,0.0024265794,0.002112749,0.0016536766,3.1016936,2.994171,2.5368156,2.7344313
Padova,45.415192,11.88181,0.00023437341,1.2757381e-05,0.0,9.270608e-05,277.58932,285.33386,294.81012,286.1907,281.0069,273.9964,290.53772,279.199,297.4292,292.18274,293.7489,278.68912,0.0030925155,0.0036263764,0.003481992,0.0030340056,2.2434785,2.3577797,2.0384078,2.1445162
Saint-Étienne,45.433331,4.4,0.000797835,0.00015029112,4.967054e-09,0.00033438703,275.83755,281.29636,290.19424,282.5997,278.96567,272.9333,286.95776,273.95706,292.6516,287.34912,288.73938,275.96002,0.002883351,0.0032737057,0.0031469106,0.00284911,3.0191157,3.0240862,2.546929,2.8343706
Verona,45.434189,10.99779,0.000564007,3.5363435e-05,0.0,0.00021362305,276.45905,284.44974,294.1091,285.34552,279.89102,272.05167,289.94482,278.0687,296.70044,291.44516,292.77457,278.0844,0.0030419058,0.0037201194,0.003593392,0.0028358856,1.7815474,1.9217167,1.6891189,1.7067666
Venezia,45.43861,12.32667,7.9042715e-05,2.1855037e-07,0.0,3.941357e-05,279.1881,285.73816,295.2172,287.44122,281.84857,276.28644,290.7716,280.0939,297.63904,292.6698,294.3706,280.9047,0.0031121532,0.0032065967,0.003319657,0.0031825365,3.128774,3.0855267,2.6469874,2.9816856
Milan,45.464272,9.18951,0.00061237154,1.6583337e-05,0.0,0.00019814968,276.3496,284.8233,294.27753,285.2792,279.99146,271.9651,290.29956,278.3607,296.42984,291.65396,292.5153,278.10117,0.0037136849,0.0042313603,0.0039964677,0.0035273738,1.7040708,1.9412053,1.750533,1.7148857
Mestre,45.49028,12.2425,0.000104413215,3.8853398e-07,0.0,4.8107573e-05,278.4747,285.56973,294.96613,286.86343,281.46176,275.37885,290.66193,279.7079,297.33704,292.39243,294.09207,280.0265,0.0032691567,0.003554549,0.0033968114,0.0032777467,2.6276667,2.6754882,2.2968402,2.51424
Brescia,45.52478,10.22727,0.0006680064,9.847394e-05,6.4284717e-07,0.0002583998,275.89435,283.75336,293.40594,284.84158,279.3439,271.63644,289.2113,277.2773,295.70206,290.8482,292.15024,278.05426,0.0031250424,0.0038683114,0.0038760714,0.0028677692,1.5618265,1.6923466,1.5249797,1.5308417
Trieste,45.648609,13.78,0.00045515562,4.907317e-05,1.3126268e-06,0.00021408267,277.64236,284.02765,293.2437,285.54294,280.42813,274.6101,289.28574,277.76755,295.62637,290.6455,292.68994,279.3038,0.0041003944,0.0047722817,0.004033221,0.004362448,2.90738,2.7520878,2.2732463,2.816735
Braşov,45.648609,25.606131,0.0010723143,0.00021210562,3.815691e-06,0.00061587396,270.0159,280.02734,288.81326,279.91245,274.69858,266.64325,286.53284,272.09625,290.80225,286.26,287.7152,272.04565,0.0015297214,0.004379219,0.0036546667,0.0016027152,2.135812,2.1832018,1.9149042,2.0287864
Bergamo,45.697979,9.66895,0.0011404912,0.00020231654,3.2514333e-06,0.00045951802,274.5752,282.7608,292.32794,283.6268,278.13678,270.3393,288.3899,276.1818,294.53052,289.88,290.9768,277.01004,0.0035146256,0.004695779,0.0045884014,0.0033171116,1.5830748,1.6824567,1.5521306,1.5571475
Lyon,45.748459,4.84671,0.00038187107,7.055866e-05,0.0,0.00015242366,276.76746,282.96188,291.86237,283.89804,280.30826,273.0424,288.98575,275.93216,294.7872,288.90454,290.3619,277.39706,0.0029994673,0.0029919466,0.0028249633,0.0028259703,2.7724729,2.855604,2.44509,2.666144
Timişoara,45.753719,21.22571,0.0003752461,3.691073e-07,0.0,0.00019895766,274.91998,284.89474,293.426,284.0831,279.6685,270.98596,291.76477,276.5217,295.96964,290.8796,291.9356,275.1697,0.0015933707,0.0028940025,0.0023496416,0.0017281073,2.518165,2.646806,2.2631118,2.416801
Clermont-Ferrand,45.779659,3.08628,0.00079649815,0.0001891825,1.6556845e-08,0.00042296384,275.68167,280.7482,289.39795,282.23715,278.89093,272.66446,286.27295,273.7357,291.94922,286.3728,288.14722,275.50967,0.0028024225,0.0032246006,0.0029456138,0.0027320914,3.1129303,2.9574075,2.354613,2.7359796
Como,45.809978,9.08744,0.001566118,0.00032940853,1.4025966e-05,0.00068889954,273.90475,281.4498,291.02118,282.68765,276.80182,270.07416,287.22534,274.913,292.93958,288.4348,289.6488,276.9114,0.0038144786,0.0051128585,0.004950782,0.0038436214,1.5080855,1.5362967,1.4681076,1.4631584
Zagreb,45.814442,15.97798,0.0006854402,4.5490266e-05,0.0,0.00035299992,274.7365,283.78214,292.82614,283.54718,279.30606,271.25366,290.01294,275.47818,294.8741,290.30273,291.61035,275.1811,0.002088764,0.0029496087,0.003021696,0.0023148088,1.9977576,2.3344316,1.8961271,2.009822
Limoges,45.831532,1.2578,0.00026340882,2.7330716e-05,0.0,8.642806e-05,277.7318,282.42673,290.88733,284.143,280.4002,274.8024,287.52573,276.52655,293.7562,287.0341,290.1395,277.77612,0.0034625768,0.0031420707,0.002703407,0.002859089,3.6324399,3.2880464,2.6926596,3.1509378
Ljubljana,46.051079,14.50513,0.0015089803,0.00027188062,1.0429488e-05,0.000777728,272.69708,280.78482,289.91785,281.38156,276.84512,268.6705,286.74487,273.63083,292.23575,287.35205,289.21274,274.47958,0.0031383408,0.004722574,0.004144584,0.0031492682,1.7455266,1.9583758,1.6208768,1.7643431
Pécs,46.083328,18.23333,0.0004372941,8.392995e-06,0.0,0.0002233545,274.6558,284.20197,293.08157,283.56396,278.9978,271.11923,291.16446,275.49216,295.24146,290.55957,291.76822,275.1829,0.0016028404,0.0023751683,0.0022628042,0.001840928,2.842514,2.8980927,2.5583062,2.65712
Szeged,46.252998,20.148239,0.00033966434,4.582935e-07,0.0,0.00018149747,274.8411,284.8138,293.72406,284.0104,279.41055,271.5607,292.16006,276.21808,296.20206,291.08072,292.21143,275.3121,0.0013902531,0.00234939,0.0019481764,0.0015311188,2.9265296,2.9545977,2.5761218,2.757308
Odessa,46.47747,30.73262,0.0004365073,4.5705724e-06,0.0,0.0001379225,273.4711,282.974,294.20087,284.50955,277.14612,267.07404,291.0405,275.17493,296.8273,291.82275,292.6754,277.2102,0.0012968134,0.0017653889,0.001781068,0.0013004091,5.09639,4.3903785,4.0502067,4.542428
Lausanne,46.515999,6.63282,0.0021755537,0.0005767167,2.5659137e-05,0.0012004216,273.00247,279.04755,288.32324,280.96207,275.77228,269.75986,284.7504,271.7868,290.81357,285.6674,287.41684,274.74893,0.004023099,0.00472286,0.0045313938,0.003975895,1.9128822,1.8352983,1.6285659,1.7971936
Cluj-Napoca,46.76667,23.6,0.0006765313,8.677906e-05,3.0345388e-06,0.00041498608,271.32266,281.79095,290.1537,281.0006,276.25485,267.17538,288.46054,273.62775,292.5848,287.68784,288.68784,273.33716,0.0014088287,0.0040037315,0.0032193554,0.0016214927,2.1891437,2.3236778,2.0117397,2.104747
Bern,46.94809,7.44744,0.0022904715,0.00090588233,0.00010375132,0.0015591681,271.58734,278.416,287.37445,279.62338,275.05563,267.8028,284.27124,270.8715,289.82288,284.57776,286.6704,273.5124,0.003740738,0.00488772,0.0047449786,0.0037884393,1.9697117,1.867706,1.6296993,1.7961637
Chişinău,47.005562,28.8575,0.000689692,3.0431484e-06,0.0,0.00027573374,271.6843,282.77695,292.87155,282.73032,276.04782,264.53802,291.0896,274.1854,295.3859,290.69272,291.54477,274.79108,0.0013093048,0.0022757768,0.0023829988,0.0012449026,3.267244,3.1220274,2.8416212,3.0173483
Graz,47.066669,15.45,0.0012752871,0.0002726843,5.7195625e-06,0.00074155926,271.20706,279.80676,288.76602,279.98727,275.03717,266.7979,286.60046,272.45474,290.69482,286.39148,288.1156,273.63452,0.001923585,0.0034716905,0.0035500447,0.0018612087,1.7601445,1.9964286,1.7723806,1.7242984
Oradea,47.066669,21.933331,0.00042758285,5.155305e-06,0.0,0.00027968784,274.28217,284.45917,293.04315,283.57614,279.13873,270.05246,291.58215,275.99115,295.74316,290.359,291.6599,274.91092,0.0015689413,0.0028274038,0.0024343808,0.0017752369,2.547126,2.707357,2.3710399,2.538223
Nantes,47.217251,-1.55336,3.7920476e-05,9.589725e-07,0.0,1.8486713e-05,279.07898,283.1411,290.90918,285.19693,282.01947,275.03134,287.5414,278.3934,294.20248,286.886,290.2535,280.24844,0.0024761385,0.001882773,0.0015852823,0.001978318,4.3091645,4.05336,3.4595947,3.705605
Besançon,47.248779,6.01815,0.00072814623,0.00015617478,4.4151587e-08,0.0003708292,275.90973,282.221,290.7822,283.08878,279.58255,271.6779,287.9225,275.2667,293.7227,287.79288,289.6676,276.76227,0.0036842558,0.003651446,0.003037375,0.0036790106,3.2224956,3.0188785,2.499099,2.8970544
Innsbruck,47.262661,11.39454,0.003033768,0.0020891023,0.00046831171,0.0025301694,267.04553,274.07666,283.1639,275.4276,270.46048,262.59122,279.9078,267.33694,285.87085,279.84854,283.66992,269.09726,0.003263357,0.0053058728,0.0060153804,0.0033152632,1.5481862,1.4448639,1.296877,1.4115566
Dijon,47.316669,5.01667,0.00035826364,5.0954688e-05,0.0,0.00013520586,276.12268,282.30872,290.98325,283.24493,279.46255,270.95468,287.8292,275.79086,294.40634,287.75107,289.9467,277.25043,0.0028975725,0.002733628,0.002589337,0.0027275193,3.4897707,3.3632376,2.7847114,3.1721053
Zürich,47.366669,8.55,0.0018776874,0.000663505,5.1056842e-05,0.0012127946,272.87808,279.67264,288.7062,280.92767,276.04745,268.79047,285.90845,272.2852,290.9723,285.93408,288.17236,275.10944,0.0033883154,0.004840958,0.004784465,0.0036267538,2.019536,2.023367,1.7631755,1.8876874
Tours,47.383331,0.68333,0.000105162464,2.4517378e-06,0.0,2.9030442e-05,278.03467,282.93588,291.2154,284.52924,280.8544,273.83575,287.98047,277.4379,294.5011,287.4214,290.5409,278.95892,0.0023497124,0.0022629697,0.0017368833,0.0018977424,3.9098542,3.71824,3.1146204,3.4317415
Angers,47.466671,-0.55,7.2697796e-05,1.1530188e-06,0.0,1.7348926e-05,278.42883,282.94315,290.9379,284.70746,281.33392,273.97876,287.7688,277.8563,294.3452,287.0294,290.11807,279.54892,0.002290641,0.002013898,0.001603561,0.0018116898,4.0160446,3.7960455,3.2015917,3.5047133
Budapest,47.498009,19.039909,0.00048466612,1.1243644e-05,0.0,0.00021873404,273.85587,283.622,292.52396,282.96933,278.2265,269.57025,290.69424,275.44226,294.8188,289.8972,290.89935,275.0369,0.0015017333,0.0023138647,0.0021327336,0.0015463511,2.9511466,2.9473965,2.7010348,2.8489316
Debrecen,47.533329,21.633329,0.0003696839,1.8146304e-06,0.0,0.00023248329,274.26297,284.69464,293.49332,283.69672,279.16968,270.21402,291.8998,276.11246,296.41177,290.68832,292.11084,275.1684,0.0013979806,0.002599687,0.0022874672,0.0015908745,2.7292397,2.9247386,2.5773914,2.7313652
Basel,47.558399,7.57327,0.0009673436,0.0002028649,0.0,0.0005208095,273.9943,281.18225,289.83838,281.75525,277.90622,269.7663,287.26,273.7332,292.52002,287.2882,288.7085,275.69037,0.0030972422,0.0039389133,0.0036419868,0.0031859537,2.3983448,2.3657556,1.9817011,2.1938043
Mulhouse,47.75,7.33333,0.00077844725,0.00014277232,0.0,0.00039696562,274.40494,281.48914,290.13943,282.03464,278.4793,270.1124,287.538,274.28354,293.05835,287.5354,288.91,275.92816,0.0029882244,0.00343789,0.0031310825,0.0030386476,2.524236,2.4857738,2.0676637,2.2998297
Salzburg,47.799412,13.04399,0.0024835304,0.0009554501,5.8907935e-05,0.0019466717,270.86456,278.0674,287.24753,279.03815,274.04163,265.97433,284.8082,271.24564,289.50156,283.59192,287.73572,272.82217,0.003399729,0.0054249377,0.005974932,0.003678064,1.8809626,1.8208613,1.6281002,1.7268269
Orléans,47.902889,1.90389,0.00017671983,3.2261014e-06,0.0,5.9400994e-05,277.444,282.672,291.01666,284.14236,280.4562,272.2912,287.91846,277.04483,294.33887,287.40125,290.48254,278.40692,0.0022585888,0.002328068,0.001806736,0.0019043883,3.9571078,3.7881274,3.1603227,3.5117805
Freiburg,47.995899,7.85222,0.0010151704,0.00019198524,0.0,0.0005907377,274.16376,281.2429,289.90955,281.85623,278.0633,269.7107,287.50854,273.93802,292.7898,287.2832,288.83823,275.8837,0.0031329182,0.0037917404,0.003155364,0.0033012787,2.594587,2.5241425,2.105846,2.3662875
Le Mans,48.0,0.2,0.00014146038,3.3809079e-06,0.0,3.1518935e-05,277.8086,282.5284,290.5205,284.1663,280.85297,272.66235,287.55054,277.3161,293.80225,286.75577,289.77075,279.05655,0.0023262845,0.0021500401,0.0016868379,0.0019134018,3.8835988,3.725587,3.13254,3.436857
Rennes,48.11198,-1.67429,0.00010230839,3.2017629e-06,0.0,2.3260713e-05,278.5988,282.56183,290.00345,284.63193,281.83316,273.6944,286.79932,278.16946,292.92395,286.1261,289.4049,280.06744,0.002464191,0.0021444221,0.0017990748,0.002055478,4.06961,3.8141055,3.235027,3.5653257
München,48.137428,11.57549,0.0011935065,0.0003535981,4.553795e-06,0.0007204652,272.85403,280.588,289.4701,281.07068,276.41013,268.3283,286.96143,272.9689,292.0631,286.8871,289.10986,275.0804,0.0023156027,0.004108024,0.004033327,0.0025191267,2.662834,2.6069756,2.2605708,2.4604678
Bratislava,48.148159,17.106741,0.00055627426,5.1335e-05,0.0,0.00020572146,274.2008,283.3877,292.55377,283.10138,278.09625,269.3725,290.07092,275.62515,295.05872,289.85913,291.72192,275.18997,0.0015462477,0.0021144769,0.0020563921,0.0015254518,3.5774827,3.4922905,3.2038934,3.409386
Vienna,48.208488,16.37208,0.00063456694,9.003017e-05,0.0,0.00024594596,273.8623,282.69998,291.82156,282.53647,277.65634,269.1669,289.0289,274.83646,294.47372,289.05127,291.16943,274.77957,0.0015846094,0.002239312,0.0022930356,0.0014745157,3.6414528,3.4808836,3.2026274,3.4130087
Augsburg,48.366669,10.88333,0.00084933935,0.00019673804,2.3742517e-07,0.0004623999,273.49225,281.18283,289.8985,281.5255,277.238,268.9666,287.38135,273.53348,292.98022,287.23242,289.3722,275.54996,0.0020713487,0.0034100392,0.0031741539,0.0022664566,3.0305583,2.9305794,2.4889674,2.7825382
Brest,48.400002,-4.48333,2.9887093e-05,1.0271867e-06,0.0,7.066462e-06,281.7756,282.86667,288.60693,286.3031,283.96268,279.17245,285.23495,280.4066,290.84976,285.29663,289.3439,283.59415,0.0037484276,0.0018339872,0.0016965017,0.0033597494,7.623796,6.484298,5.18915,6.368691
Strasbourg,48.58342,7.74296,0.00045289463,5.1945448e-05,0.0,0.00021435817,275.3487,282.3529,291.00775,282.9256,279.08005,270.41855,288.78458,275.6683,294.65927,288.33017,289.702,277.04453,0.0025194115,0.002982794,0.0025473805,0.0026887814,2.8926523,2.8019211,2.3396416,2.638256
Košice,48.713951,21.25808,0.0007241868,3.0519343e-05,2.1192763e-08,0.00049562275,271.47794,281.613,290.37296,280.90866,275.99017,267.8856,288.72595,272.83768,293.13635,287.54282,289.0198,274.1072,0.0014198304,0.002968269,0.0028263517,0.0016317721,2.2705414,2.5721617,2.3255665,2.343799
Stuttgart,48.782318,9.17702,0.00070226856,0.00013148785,0.0,0.0003960159,274.23593,281.3959,290.0259,281.91687,277.8914,269.3295,287.6674,274.21274,293.448,287.27686,289.21793,276.09125,0.002411445,0.0032451102,0.0026724816,0.002542938,3.019868,2.8514116,2.4004538,2.752092
Paris,48.853409,2.3488,0.00022915701,7.716318e-06,0.0,6.280939e-05,277.12283,282.22928,290.3267,283.7158,280.57437,271.97003,287.66736,276.80753,294.08264,286.8838,289.51746,278.42474,0.0021183153,0.0022853354,0.0018780152,0.0019317309,3.9843407,3.7774136,3.1607182,3.5576134
Karlsruhe,49.004719,8.38583,0.0004978551,6.624593e-05,0.0,0.00027590725,275.10556,282.17252,290.92877,282.80353,278.80902,269.55997,288.66382,275.46698,294.66446,288.194,289.7959,276.93857,0.0023971796,0.0029448748,0.00242557,0.0025972656,3.1055472,2.9733763,2.5518413,2.8634276
Regensburg,49.014999,12.09556,0.0006658501,8.764134e-05,0.0,0.0003578411,273.54623,281.54288,290.42392,281.65958,277.39935,268.44962,287.9182,274.06235,293.70206,287.70883,289.8662,275.13226,0.0018644943,0.002760434,0.0024981922,0.002003291,2.935908,2.9149513,2.5056458,2.7446587
Metz,49.11911,6.17269,0.00037202338,4.0611623e-05,0.0,0.00015267034,275.39056,281.60312,290.20734,282.59613,278.9507,269.9732,287.96313,275.40396,294.04065,287.18677,289.00708,276.82767,0.0024386228,0.0025147677,0.0022075097,0.0024236182,3.8893864,3.6138268,3.0997605,3.5088127
Brno,49.195221,16.60796,0.00069923303,8.902748e-05,2.3841858e-08,0.00027547378,273.31198,281.9891,291.03845,281.88428,277.06976,268.6624,288.65747,274.334,293.68005,288.51562,290.60437,274.72757,0.0015327216,0.0022736292,0.002094857,0.0014720897,3.4463954,3.3660443,2.9850967,3.2454329
Reims,49.25,4.03333,0.00024987856,1.9424933e-05,0.0,8.845329e-05,276.49786,281.97714,290.23495,283.26624,279.9767,271.15662,287.8876,276.16858,293.90085,287.0748,289.1726,277.84094,0.0022265117,0.0024642062,0.002085834,0.0022111363,3.9774377,3.6957085,3.1205428,3.5549157
Heidelberg,49.407681,8.69079,0.0003644486,3.2242635e-05,0.0,0.00020088354,275.22263,282.3276,291.20248,282.92493,279.10635,268.99457,288.89746,275.81876,295.12354,288.41748,289.98328,276.9302,0.0020915468,0.0024965843,0.002084764,0.0022783657,3.1266418,2.9910185,2.599275,2.8884141
Rouen,49.44313,1.09932,0.00025368234,9.582936e-06,0.0,5.654494e-05,277.33597,281.68146,289.34143,283.63528,280.96292,272.14423,286.5188,277.1099,293.0625,285.81934,288.59558,279.01166,0.0022612691,0.002394716,0.0019915143,0.0020694158,4.361317,4.008389,3.4019358,3.874327
Nürnberg,49.454208,11.07752,0.0006856176,0.0001184543,0.0,0.00036107434,273.72928,281.2978,290.21124,281.64304,277.47,268.06503,287.7068,274.04007,294.02695,287.31396,289.64957,275.54025,0.0020603365,0.0027579335,0.0023367086,0.0021876046,3.2740388,3.0999522,2.6671257,3.0178175
Le Havre,49.493801,0.10767,0.00019374026,6.066429e-06,0.0,3.853904e-05,278.79895,281.9377,289.0677,284.95984,282.12103,274.37637,285.9913,278.1546,291.82187,285.68237,289.1006,280.98657,0.0026767305,0.0023577001,0.0022647432,0.0029152764,5.7288294,5.084386,4.3221807,5.1792974
Mannheim,49.496712,8.47955,0.0003061171,1.704781e-05,0.0,0.0001659252,275.29196,282.39816,291.35205,283.0244,279.29095,268.75558,289.099,275.9976,295.26672,288.5763,290.035,276.99088,0.0019447574,0.0023036639,0.0019423519,0.0021436303,3.1134894,3.0002432,2.6234734,2.8903794
Plzeň,49.747471,13.37759,0.0007186241,0.00010820694,0.0,0.00038565267,272.42554,280.29996,289.3878,280.7239,276.87006,266.97388,286.4651,272.9406,292.42343,286.74692,288.96176,274.8466,0.0015044769,0.0025938458,0.002384101,0.0015937196,3.2991555,3.1216815,2.6973097,3.1338906
Trier,49.75565,6.63935,0.00054920913,6.557173e-05,0.0,0.0002659824,274.42276,280.7249,289.25018,281.68802,278.13275,268.31406,287.28735,274.5534,292.76816,286.41757,288.0083,276.23105,0.002370564,0.0025189451,0.0022302733,0.002434961,3.6933725,3.5028052,3.0204766,3.4015596
Ostrava,49.834648,18.28204,0.0009962453,0.00015489591,0.0,0.00053828827,272.58942,281.1368,289.84216,281.33582,276.65714,268.0984,288.22354,273.06345,292.04892,287.2479,289.42935,275.15698,0.0018670877,0.0029269855,0.0031274478,0.0020466303,3.6637306,3.3157156,2.804775,3.448546
L'viv,49.838261,24.023239,0.00084088644,3.839599e-05,0.0,0.0005464064,271.08408,281.1781,290.1382,280.95224,275.12183,265.1404,288.47354,271.62857,293.2889,287.65903,288.83252,274.14542,0.0014293618,0.0031559546,0.0030361016,0.0017702633,4.2410107,3.6220233,3.016959,3.8409326
Amiens,49.900002,2.3,0.00023551683,2.0512442e-05,0.0,8.136233e-05,276.9486,281.60934,289.42935,283.43927,280.70682,271.1275,286.87793,276.75803,293.08643,286.07117,288.4568,278.73907,0.0020801863,0.0022825678,0.0019352039,0.0019610266,4.3426557,4.0354133,3.4566066,3.8948505
Mainz,49.984192,8.2791,0.00034195936,2.2817541e-05,0.0,0.00018583404,274.78864,281.6702,290.56772,282.4263,279.02902,268.07352,288.40237,275.42532,294.49744,287.91287,289.336,276.7602,0.0017300253,0.00220623,0.0019652967,0.0018941385,3.1398838,3.065966,2.7032592,2.956084
Kraków,50.061432,19.936581,0.0010391364,0.00012444705,5.364418e-08,0.0005878518,271.6619,280.73434,289.6327,280.8584,275.65387,267.35468,288.0492,272.2774,291.98645,287.07666,288.97876,274.43564,0.0017433544,0.0029916107,0.003413705,0.0020233453,3.529388,3.2514203,2.8116477,3.3714912
Wiesbaden,50.082581,8.24932,0.00037764842,2.9141373e-05,0.0,0.00020325449,274.6557,281.45877,290.29086,282.23837,278.8782,268.038,288.14853,275.2458,294.17114,287.68375,289.1237,276.66595,0.001786216,0.002242189,0.002006748,0.0019452333,3.1935813,3.097028,2.7209616,2.9963737
Prague,50.088039,14.42076,0.00061336457,8.1066784e-05,0.0,0.00030798317,273.0658,280.99472,290.1166,281.3825,277.54227,267.53217,287.26697,273.68228,292.91895,287.53406,289.78833,275.5471,0.00138279,0.0024626234,0.002275022,0.0015985827,3.2909331,3.119005,2.7204428,3.146783
Frankfurt am Main,50.11552,8.68417,0.00036887327,2.4589895e-05,0.0,0.00020758311,274.76633,281.66916,290.56497,282.39975,278.93607,268.1413,288.36462,275.4161,294.547,287.88098,289.4513,276.74503,0.0018544158,0.0022768278,0.001967613,0.0020467797,3.2109213,3.0921543,2.7092307,3.0051892
Katowice,50.258419,19.02754,0.00093804114,0.000119968696,0.0,0.0004995505,272.35556,281.27756,290.1009,281.44034,276.50647,267.867,288.57663,273.02106,292.31863,287.5348,289.60226,275.15625,0.0018102787,0.0028113895,0.0032013506,0.002140031,3.9806993,3.5896592,3.0330787,3.7256594
Plymouth,50.371529,-4.14305,0.00012308956,3.1858683e-06,0.0,3.458758e-05,279.9904,281.6284,288.10406,284.86093,282.68008,276.79645,284.54346,278.60568,290.56384,284.38098,288.2577,281.56168,0.0032607734,0.0019188205,0.002041793,0.0029639443,6.5631967,5.5785456,4.68576,5.7752824
Kiev,50.454659,30.5238,0.00093038875,3.3783912e-05,7.258521e-07,0.0006050092,269.04446,281.29266,291.5317,280.53214,273.68167,261.4755,291.522,271.2914,295.12396,289.16385,289.38504,272.62173,0.0014259727,0.0020644506,0.0024934134,0.0017312827,3.9807336,3.4754448,3.1345482,3.7706501
Namur,50.4669,4.86746,0.00032115247,4.8577127e-05,0.0,0.0001435717,275.9631,281.16956,289.22928,282.71536,279.64188,269.48398,287.07822,275.38983,292.49277,286.45987,288.22314,277.45435,0.0022544994,0.002599904,0.0023185622,0.0021622896,4.5014973,3.9293997,3.357978,4.054574
Lille,50.632969,3.05858,0.00019579529,2.0371377e-05,0.0,7.212559e-05,277.08456,281.75876,289.61172,283.65775,280.95938,270.68744,287.00647,276.7701,293.04175,286.55444,288.49023,278.84494,0.0019875546,0.0021839181,0.0019380529,0.0019876559,4.333765,3.9925158,3.4481435,3.9357312
Liège,50.633732,5.56749,0.0004911562,7.800907e-05,0.0,0.00022408963,275.5023,280.91653,289.0919,282.37384,279.16202,269.23553,287.12952,274.8998,292.3711,286.40967,288.14734,277.0445,0.002439332,0.002680864,0.002382346,0.0023952425,4.3895206,3.7951913,3.276065,3.9777682
Bournemouth,50.720482,-1.8795,0.00013975831,2.9855305e-06,0.0,4.0739113e-05,279.3634,281.5938,288.60596,284.87018,282.3326,275.89673,285.02432,278.17184,291.22836,284.8274,288.49838,280.93106,0.0026798486,0.0017555396,0.0019511223,0.0025266516,6.160064,5.3455067,4.533159,5.553738
Bonn,50.734379,7.09548,0.00046344733,6.897052e-05,0.0,0.00022148291,275.22284,281.13193,289.56393,282.3825,279.11713,268.90356,287.6215,275.03305,293.1399,287.08755,288.59,277.2727,0.0023249069,0.002594373,0.0023468705,0.002420155,3.9153838,3.389627,2.940454,3.5498092
Eastbourne,50.768711,0.28453,0.00011555884,5.2045893e-06,0.0,5.798693e-05,279.46304,281.46594,288.31375,285.23785,282.33893,276.03577,284.855,278.01892,290.94058,285.0047,288.5741,281.40985,0.0024792284,0.0017115346,0.0019076878,0.0029382883,7.2844234,6.1938944,5.2503495,6.6140456
Aachen,50.776642,6.08342,0.0005432301,9.374221e-05,0.0,0.0002519369,275.38058,280.8535,289.12216,282.33838,279.053,269.281,287.1705,274.78763,292.42178,286.55234,288.264,277.03897,0.0023817273,0.0026733768,0.0023667018,0.0023290687,4.36392,3.7490008,3.2656324,3.989708
Brighton,50.828381,-0.13947,0.00013092757,6.2490503e-06,0.0,5.756418e-05,279.11725,281.45184,288.47678,284.83832,282.09537,275.55914,285.11707,277.83432,291.14807,285.05994,288.37036,280.8899,0.0023873767,0.0017834107,0.001879716,0.0026768248,6.5732284,5.682527,4.801818,5.9695687
Chemnitz,50.833328,12.91667,0.00088529784,0.00015359123,7.947286e-08,0.0006064425,273.00714,280.13132,289.2296,281.06967,277.20255,267.716,286.8141,272.96503,292.17358,286.56653,289.0974,275.11496,0.0019260506,0.002902339,0.002616501,0.0023717603,3.67928,3.2925215,2.848461,3.4976032
Maastricht,50.848331,5.68889,0.00035850605,5.028546e-05,0.0,0.0001561602,276.00418,281.38345,289.5724,282.86795,279.77872,269.56903,287.57593,275.4988,292.85168,286.90808,288.65613,277.66388,0.0022922636,0.0025465032,0.002283744,0.0022376617,4.245374,3.7023761,3.2188888,3.8735116
Brussels,50.850449,4.34878,0.00020126998,2.5131305e-05,0.0,8.730392e-05,276.64688,281.68768,289.69238,283.35226,280.51224,269.90045,287.38013,276.24136,292.98804,286.87964,288.63806,278.4372,0.002064111,0.0023916583,0.002136898,0.0020558436,4.354468,3.896854,3.3611517,3.9501584
Leuven,50.879589,4.70093,0.0002191358,2.8468503e-05,0.0,9.527339e-05,276.48248,281.6279,289.68268,283.2246,280.33817,269.74405,287.4568,276.02963,292.97192,286.90894,288.68765,278.22046,0.002107533,0.0024693967,0.0022166995,0.002073113,4.324008,3.836827,3.3130746,3.9245813
Southampton,50.90395,-1.40428,0.00015221536,5.17716e-06,0.0,4.9070517e-05,279.02255,281.52115,288.672,284.6009,282.0806,275.38947,285.2738,277.9471,291.34082,284.91125,288.3192,280.53107,0.0025061509,0.0018200417,0.0019313653,0.002444166,5.914246,5.222262,4.439176,5.356977
Köln,50.933331,6.95,0.0004433165,6.6876906e-05,0.0,0.00019930402,275.4352,281.21158,289.6151,282.55927,279.3018,269.1208,287.63928,275.15408,293.13977,287.15564,288.688,277.4323,0.0023198961,0.002603384,0.0023731908,0.0023358783,4.063772,3.5045881,3.0501363,3.6993105
Erfurt,50.978699,11.03283,0.0006060742,7.9458725e-05,0.0,0.00032180327,273.4382,280.27585,289.3376,281.33038,277.8402,267.61908,286.92908,273.75192,292.73224,286.86398,288.80844,275.62173,0.0016356256,0.0024627896,0.0020789253,0.0017381563,3.5416694,3.2667036,2.8153162,3.4066634
Leverkusen,51.0303,6.98432,0.0004080543,5.3334235e-05,0.0,0.0001752977,275.6585,281.49402,289.9113,282.81033,279.53445,269.24625,287.9575,275.49695,293.52087,287.4496,288.96338,277.69348,0.0024681233,0.002601924,0.0023992748,0.0025357353,4.0212765,3.457042,3.0103962,3.6430705
Gent,51.049999,3.71667,0.00017693838,1.9134417e-05,0.0,7.068493e-05,276.99716,281.8253,289.7433,283.65665,280.9509,270.45132,287.23505,276.786,293.0202,286.82825,288.62875,278.8075,0.0019852284,0.0022559732,0.0020455113,0.0020596965,4.336219,3.9635806,3.437865,3.9605997
Dresden,51.050892,13.73832,0.0007346193,0.00011448662,0.0,0.0004533887,273.16895,280.58566,289.7906,281.3884,277.62216,268.02548,287.386,273.4059,292.67163,287.06137,289.4829,275.3277,0.0017119328,0.0026213832,0.0024611207,0.0021684833,3.628321,3.2481308,2.844235,3.434259
Wrocław,51.099998,17.033331,0.00059567956,6.900165e-05,0.0,0.00029276608,273.32657,281.37003,290.5634,281.90125,277.2278,268.3523,288.43384,273.7254,293.0214,287.95523,290.32944,275.81076,0.0013881789,0.0023638937,0.0025623692,0.0018754165,3.8057175,3.4966013,3.0754068,3.6311285
Neuß,51.198071,6.68504,0.00033564965,3.8806596e-05,0.0,0.00013168255,275.96,281.62735,290.00897,283.05487,279.90616,269.4477,287.97375,275.70242,293.46594,287.51697,289.13245,277.9887,0.002259769,0.0024405539,0.002257955,0.0022227247,4.0727363,3.5390882,3.093837,3.7273343
Brugge,51.20892,3.22424,0.0001755997,1.0044487e-05,0.0,6.473683e-05,277.68536,281.62405,289.39374,284.41687,281.44287,272.25647,286.17813,277.1962,292.3616,286.4344,288.89047,279.8713,0.002058997,0.0020003954,0.0021251184,0.0024934663,5.621035,5.0412607,4.428774,5.2654347
Antwerpen,51.219891,4.40346,0.00017283625,1.759794e-05,0.0,7.183022e-05,276.867,281.8513,289.87485,283.61398,280.8808,270.14267,287.43677,276.56107,293.14233,287.00024,288.82748,278.7971,0.0019938124,0.002285144,0.002116823,0.0020845572,4.3350916,3.9308367,3.4254243,3.9666219
Düsseldorf,51.221722,6.77616,0.0003270379,3.1952506e-05,0.0,0.00012457106,276.00754,281.75482,290.1733,283.15512,279.97302,269.37213,288.16345,275.847,293.6925,287.6703,289.2802,278.11295,0.0023408607,0.002431866,0.0022887124,0.0023344925,4.0504184,3.5387902,3.096106,3.704177
Lublin,51.25,22.566669,0.0008087807,4.915264e-05,0.0,0.00043270455,271.38846,280.95078,290.25412,280.89664,275.72086,265.09824,288.54385,272.0659,294.0293,287.56152,288.90347,274.17682,0.0013774183,0.0025904893,0.0027418085,0.0018076419,3.9275599,3.4944375,2.964205,3.7203841
Wuppertal,51.270271,7.16755,0.00049774116,6.833142e-05,0.0,0.00021454095,275.4659,281.31726,289.75967,282.66205,279.31097,269.01,287.84415,275.30942,293.34384,287.3015,288.85547,277.50967,0.0026219792,0.0027305444,0.0025384056,0.0026973274,4.14634,3.5887022,3.1296237,3.783431
Kassel,51.316669,9.5,0.0005676773,7.210241e-05,0.0,0.00026808315,274.07315,280.46506,289.19138,281.5744,278.1855,268.26944,286.9602,274.2891,292.49698,286.9227,288.37173,276.33,0.0018372907,0.0025426836,0.0021153502,0.0019217597,3.5930471,3.2415228,2.799412,3.3919244
Krefeld,51.339211,6.58615,0.0003147751,2.8872986e-05,0.0,0.00011514624,276.05673,281.7486,290.1519,283.18097,280.074,269.4035,288.13123,275.86404,293.5885,287.64185,289.25403,278.18353,0.0022579054,0.002381011,0.0022509375,0.002243354,4.027812,3.5515301,3.1109529,3.6996853
Leipzig,51.339619,12.37129,0.00048109592,3.228734e-05,0.0,0.00022001565,274.3678,281.33932,290.6026,282.3921,278.87833,268.91095,288.07068,274.27716,293.85754,287.8579,290.203,276.72726,0.0015646716,0.002229631,0.0020558476,0.0018711408,3.5890355,3.2952929,2.8565679,3.4564395
Hagen,51.360809,7.47168,0.0006210208,9.569592e-05,0.0,0.00028788514,275.03625,280.92435,289.41013,282.26993,278.8603,268.74423,287.5082,274.84085,292.9257,286.99863,288.52133,277.0769,0.002643773,0.0028517512,0.0026345095,0.002751226,4.1598725,3.609566,3.1402235,3.8234305
Bath,51.377949,-2.35907,0.000250569,8.7668495e-06,0.0,4.553894e-05,278.06686,281.234,288.47992,283.53024,281.5983,273.633,285.53076,277.36557,291.62427,284.64954,287.68994,279.28302,0.002464237,0.0019896526,0.001997141,0.0020618716,4.59278,4.3189487,3.6724162,4.154352
Duisburg,51.432468,6.76516,0.0003273156,3.178848e-05,0.0,0.0001215895,276.00015,281.73724,290.16348,283.1519,279.99863,269.35703,288.15942,275.83353,293.63745,287.65894,289.25342,278.13892,0.0023018173,0.002404544,0.0022841136,0.002302167,4.0377307,3.548318,3.1067314,3.7022812
Mülheim (Ruhr),51.433331,6.88333,0.00037208598,4.146894e-05,0.0,0.00014493466,275.84525,281.61496,290.0536,283.0134,279.80936,269.25885,288.07007,275.68484,293.5559,287.56128,289.1399,277.9671,0.0023760856,0.0024914842,0.0023529967,0.0024002392,4.067977,3.5639107,3.1176193,3.7284763
Eindhoven,51.44083,5.47778,0.00022137562,2.0716589e-05,0.0,8.1949765e-05,276.47443,281.80795,290.01633,283.36725,280.5136,269.73706,287.91788,276.154,293.26968,287.33096,289.12466,278.48462,0.002079847,0.002342534,0.0021485488,0.0020506913,4.0706854,3.6526344,3.2032504,3.746632
Bristol,51.455231,-2.59665,0.00025641388,8.224778e-06,0.0,4.3059717e-05,278.16647,281.3118,288.52737,283.63165,281.74066,273.7473,285.53345,277.5174,291.5668,284.73364,287.75674,279.53442,0.0025166802,0.001958884,0.0020346853,0.0021695348,4.6183653,4.3517385,3.7120264,4.2001047
Reading,51.456249,-0.97113,0.00024337415,1.5189913e-05,0.0,6.1052815e-05,277.74216,281.13336,288.61627,283.3847,281.21262,273.33566,285.97107,277.07272,291.81058,284.85452,287.6287,278.9899,0.002084153,0.0019878212,0.0017951259,0.0019075535,4.5716467,4.3122945,3.6547847,4.194597
Essen,51.45657,7.01228,0.00039786584,4.7132704e-05,0.0,0.00015146821,275.74313,281.51944,289.9796,282.9364,279.6972,269.18875,288.00003,275.58438,293.56018,287.51013,289.0745,277.87338,0.0024062193,0.0025661716,0.0024356348,0.0024283868,4.135728,3.6192372,3.1660132,3.7980516
Oberhausen,51.47311,6.88074,0.00037259262,4.104045e-05,0.0,0.00013896493,275.84576,281.59207,290.03534,283.021,279.83035,269.25888,288.04257,275.67514,293.58755,287.55624,289.12955,277.9869,0.00235721,0.0025061448,0.0023899185,0.0023655335,4.102403,3.6045122,3.1550322,3.7694662
Cardiff,51.48,-3.18,0.0002937688,9.381771e-06,0.0,4.854864e-05,278.32172,281.17432,288.27838,283.78912,281.76297,274.2527,285.07446,277.60577,290.96225,284.46265,287.77408,280.07837,0.0029549836,0.0020466964,0.002372127,0.0027566936,5.086136,4.6530337,4.0099034,4.6624575
Bochum,51.481651,7.21648,0.0004762049,6.5362896e-05,0.0,0.00019282941,275.4619,281.2723,289.75143,282.67682,279.36908,268.9919,287.78387,275.29944,293.31885,287.31308,288.86682,277.55002,0.0024837106,0.0027077957,0.002539246,0.0025262833,4.1857133,3.6430311,3.1790974,3.8520348
Gelsenkirchen,51.5075,7.12283,0.00043782394,5.6322417e-05,0.0,0.000173076,275.60532,281.39505,289.86337,282.8094,279.54178,269.09042,287.885,275.4434,293.4274,287.4122,288.97168,277.71768,0.0024346698,0.0026271872,0.0024818154,0.0024635447,4.153917,3.6264474,3.1679015,3.8205001
London,51.50853,-0.12574,0.00020038817,1.4026297e-05,0.0,6.418096e-05,277.7794,281.24823,288.8309,283.55756,281.20096,273.5416,286.18808,276.83298,291.88882,285.26114,287.82748,278.96133,0.0019468918,0.001952672,0.0017324343,0.0018522633,4.522596,4.2802377,3.6515105,4.176324
Dortmund,51.514938,7.466,0.00054341776,8.176432e-05,0.0,0.00023569708,275.22742,281.05258,289.54947,282.46066,279.1065,268.86084,287.58163,275.02863,293.06537,287.15097,288.69644,277.2881,0.0024855086,0.002767824,0.0025740094,0.002539278,4.185037,3.6292126,3.1573799,3.8632598
Tilburg,51.555511,5.0913,0.00021081467,2.211829e-05,0.0,7.912218e-05,276.55774,281.69846,289.83087,283.4191,280.6829,269.8228,287.53723,276.2819,293.14612,287.05664,288.9027,278.72604,0.0020412386,0.002320532,0.0021645585,0.0020957848,4.238317,3.837403,3.3624299,3.890521
Breda,51.586559,4.77596,0.00019390849,2.170139e-05,0.0,7.780525e-05,276.70773,281.68558,289.755,283.52188,280.83783,270.09204,287.29062,276.41733,293.00098,286.90112,288.78223,278.83047,0.002015082,0.0022850435,0.002162091,0.0021328954,4.3697557,3.9693723,3.4760506,4.0139103
Łódź,51.75,19.466669,0.0007665793,0.000104933315,0.0,0.00039467105,272.10983,280.85272,290.1487,281.18698,276.3918,267.2856,288.4692,272.4631,293.10748,287.5133,289.56146,274.92178,0.0014620428,0.0023818086,0.0026103903,0.0019435917,4.3408527,3.8540068,3.299871,4.0641785
Oxford,51.75222,-1.25596,0.0002731288,1.6865906e-05,0.0,6.299902e-05,277.63464,281.00827,288.4717,283.25537,281.14383,273.0948,285.87643,276.9703,291.71835,284.77444,287.4935,278.848,0.0020674423,0.0019899544,0.0017686915,0.0018594319,4.6650553,4.383008,3.71461,4.303093
Nijmegen,51.842499,5.85278,0.00026594102,2.2030374e-05,0.0,8.751949e-05,276.25058,281.5918,289.86133,283.27066,280.4495,269.48553,287.69202,276.04715,293.4358,287.23975,289.00464,278.57083,0.002068478,0.0022667884,0.0021733602,0.0020890057,4.191545,3.7876258,3.3197312,3.8641458
Luton,51.879669,-0.41748,0.00023916164,1.622041e-05,0.0,5.907913e-05,277.67535,281.149,288.745,283.43903,281.19766,273.26593,286.09912,276.67184,292.0337,285.23523,287.72925,278.86365,0.0019171715,0.0019563376,0.001726369,0.0017989993,4.620712,4.3544207,3.703379,4.3107533
Cork,51.897968,-8.47061,0.00014018615,1.0311603e-06,0.0,1.626677e-05,279.6644,281.52545,287.5413,284.2076,282.16708,276.97745,284.62363,278.6433,289.7274,284.12344,288.11264,280.3807,0.003044221,0.001865999,0.0021067567,0.0029955704,5.710574,4.9407134,4.219937,5.1639833
Rotterdam,51.922501,4.47917,0.00019247002,1.8991363e-05,0.0,7.623169e-05,276.9941,281.48505,289.50818,283.8711,281.06976,270.99585,286.5813,276.6685,292.84244,286.61972,288.80045,279.36417,0.0020312574,0.0021242672,0.002245103,0.0024202664,5.048625,4.550634,4.0019994,4.7153797
Münster,51.96236,7.62571,0.0003682428,3.4055443e-05,0.0,0.00013503498,275.56824,281.40076,289.9679,282.84885,279.7348,269.2395,287.92734,275.5661,293.6006,287.57578,288.97803,277.92065,0.0020811611,0.0023653614,0.002273496,0.002144326,3.9949534,3.5917742,3.1477973,3.7465703
Arnhem,51.98,5.91111,0.00027195745,2.3349789e-05,0.0,8.839899e-05,276.2091,281.51193,289.77533,283.23782,280.43158,269.44522,287.5665,276.03012,293.4064,287.14706,288.91684,278.54257,0.002062469,0.0022582822,0.0021822823,0.0021060838,4.248366,3.8437688,3.367085,3.9162564
Bielefeld,52.033329,8.53333,0.00047576692,5.3040185e-05,0.0,0.0001977638,275.07074,281.05017,289.73337,282.47012,279.22153,269.02142,287.63153,275.15125,293.13483,287.47842,288.85095,277.4211,0.0021166415,0.0024239575,0.0023333938,0.0022866498,4.0262456,3.5704741,3.1242971,3.7764916
The Hague,52.076672,4.29861,0.00018842884,1.42018e-05,0.0,6.604195e-05,277.6122,281.16272,289.06418,284.58557,281.37396,272.62964,285.42017,276.83478,292.40707,286.24976,289.06738,280.48184,0.0021232474,0.0018757131,0.00238888,0.0029605043,6.4479036,5.657957,4.976329,6.1473722
Utrecht,52.090832,5.12222,0.0002284666,2.1907686e-05,0.0,7.71751e-05,276.61935,281.43378,289.5435,283.55826,280.79727,270.32465,286.8921,276.40848,293.08447,286.7699,288.76013,279.0493,0.0020089508,0.002164473,0.0022189696,0.002233843,4.7250237,4.2928004,3.7638931,4.379811
Magdeburg,52.127731,11.62916,0.00048344035,2.9047827e-05,0.0,0.00016848644,274.53235,281.21158,290.4583,282.42572,279.17545,269.16083,287.88745,274.50616,293.59644,287.90076,289.7124,276.7314,0.0014903982,0.002001375,0.001861612,0.001642559,3.6338174,3.3686297,2.9732218,3.5134962
Amersfoort,52.154999,5.3875,0.00024308464,2.3435552e-05,0.0,8.097191e-05,276.46387,281.44928,289.60806,283.42957,280.66275,270.00726,287.1062,276.28885,293.21545,286.8717,288.7915,278.88583,0.002023228,0.002207307,0.0022084275,0.0021735926,4.557387,4.1434426,3.6322224,4.209047
Cambridge,52.200001,0.11667,0.0002296408,1.616213e-05,0.0,4.800293e-05,277.6757,281.1699,288.8355,283.52975,281.2325,273.27432,286.07803,276.32355,292.29135,285.53183,287.84018,278.73007,0.0018319394,0.0019020742,0.0017311837,0.0017641518,4.7215257,4.425829,3.7735493,4.463351
Apeldoorn,52.209999,5.96944,0.0002825366,2.6264015e-05,0.0,9.334176e-05,276.12003,281.36664,289.6323,283.1874,280.3949,269.39685,287.33878,276.00128,293.3503,287.01532,288.8004,278.49686,0.002039814,0.0022625674,0.0022233962,0.0021253126,4.372184,3.960934,3.4656987,4.040088
Warsaw,52.229771,21.01178,0.00076029386,7.128892e-05,0.0,0.00036643876,271.74283,280.94308,290.4545,281.0931,276.35507,265.77844,289.0317,272.6059,293.77112,287.85944,289.1715,274.824,0.0014159662,0.0022646552,0.0026118527,0.00187083,3.8929842,3.5438929,3.0278513,3.7292466
Northampton,52.25,-0.88333,0.00029520856,1.7244285e-05,0.0,6.535186e-05,277.48834,280.92426,288.47717,283.19107,281.0875,272.865,285.91153,276.5838,291.83838,284.99942,287.47998,278.7833,0.0019741296,0.0019524362,0.0017614311,0.0017762238,4.805892,4.511437,3.837458,4.5024433
Braunschweig,52.265942,10.52673,0.0005789863,5.3200896e-05,0.0,0.00022164451,274.41272,280.8239,289.8041,282.15475,278.83307,268.82568,287.45316,274.42947,293.063,287.4801,289.01352,276.75912,0.0017470147,0.0023044199,0.002104194,0.0019318864,3.8387518,3.4922607,3.0515864,3.6894698
Osnabrück,52.27264,8.0498,0.00039334473,3.383778e-05,0.0,0.00014872375,275.39957,281.29648,289.90668,282.75247,279.6356,269.25037,287.9015,275.42883,293.54303,287.61407,288.9098,277.85535,0.002019038,0.0023259975,0.0022577075,0.0021478443,3.9739385,3.5988913,3.160872,3.7474794
Hoofddorp,52.302502,4.68889,0.00021106402,1.688103e-05,0.0,6.641149e-05,277.33932,281.10406,289.06598,284.33435,281.19754,272.20258,285.57825,276.61798,292.5066,286.31396,288.9215,280.22043,0.0020699282,0.0018903454,0.0023911993,0.0027952571,6.1659994,5.454337,4.7812176,5.8648086
Hannover,52.370522,9.73322,0.0005046209,4.0011273e-05,0.0,0.00018602212,274.7881,281.03207,289.86575,282.40073,279.17767,268.96786,287.61612,274.68063,293.1481,287.71323,288.99414,277.2779,0.0018163681,0.0023170472,0.0022007094,0.001979788,3.8700783,3.4807668,3.042568,3.6780136
Amsterdam,52.374031,4.88969,0.00022229552,1.9852321e-05,0.0,7.0744754e-05,277.0296,281.19592,289.23105,284.0201,281.02652,271.51593,286.02747,276.50983,292.76013,286.47314,288.8152,279.75644,0.00203711,0.0019928752,0.0023511846,0.00257803,5.6173015,5.02938,4.41274,5.3007817
Haarlem,52.38084,4.63683,0.00021106402,1.688103e-05,0.0,6.641149e-05,277.33932,281.10406,289.06598,284.33435,281.19754,272.20258,285.57825,276.61798,292.5066,286.31396,288.9215,280.22043,0.0020699282,0.0018903454,0.0023911993,0.0027952571,6.1659994,5.454337,4.7812176,5.8648086
Potsdam,52.398861,13.06566,0.0004835834,3.896008e-05,0.0,0.00021783808,274.17526,281.29562,290.71838,282.30096,278.76614,268.5498,288.17798,274.3853,293.57715,288.03845,289.9408,276.0024,0.0014322519,0.002022167,0.0018991153,0.001782763,3.7331517,3.4980807,3.060791,3.6044488
Coventry,52.406559,-1.51217,0.00031128194,1.7992656e-05,0.0,6.462998e-05,277.4955,280.87665,288.3276,283.09723,281.10165,272.83017,285.85458,276.7586,291.59482,284.80933,287.29672,278.781,0.0020887507,0.0019963821,0.0018099943,0.0018220266,4.7477136,4.4550076,3.7978163,4.421626
Poznań,52.406921,16.92993,0.00053539075,6.154428e-05,0.0,0.00028770964,272.94635,280.931,290.54294,281.64532,277.05307,267.57166,288.63074,273.201,293.68713,287.80066,290.02612,275.61816,0.0012833615,0.0020518363,0.0022401332,0.0018569191,4.0200424,3.7296512,3.253478,3.862839
Birmingham,52.481419,-1.89983,0.0003213207,1.8096633e-05,0.0,6.1019262e-05,277.54572,280.91226,288.295,283.08954,281.20062,272.88077,285.89478,276.8885,291.50024,284.77335,287.24844,278.91837,0.0021495156,0.0020349184,0.0018704733,0.0018651935,4.5771914,4.298352,3.670173,4.260808
Berlin,52.524368,13.41053,0.00048397513,4.4992237e-05,0.0,0.0002273904,274.02847,281.185,290.65466,282.21457,278.61014,268.30722,288.11694,274.21432,293.3981,287.98438,289.8353,275.84543,0.0014156952,0.0020300415,0.0018974993,0.0017790556,3.7898428,3.557307,3.1127717,3.6669974
Wolverhampton,52.585468,-2.12296,0.000348258,1.9151468e-05,0.0,6.583333e-05,277.48264,280.8253,288.13177,282.98117,281.1531,272.84528,285.77112,276.8635,291.2976,284.6278,287.0569,278.9649,0.0022252977,0.002080669,0.0019487063,0.0019396127,4.5309296,4.2356896,3.6167414,4.211513
Norwich,52.627831,1.29834,0.00020710098,1.8077428e-05,0.0,3.4888584e-05,277.98904,280.73688,288.23877,284.0552,281.01865,274.25626,284.58115,276.76056,291.38687,285.4086,288.03198,279.4,0.0018666293,0.00174542,0.0018106248,0.0021020202,6.0222964,5.3862176,4.5031466,5.7346787
Leicester,52.638599,-1.13169,0.00032517512,1.7913182e-05,0.0,6.608268e-05,277.43137,280.84238,288.34753,283.09454,281.06656,272.7868,285.8191,276.51608,291.68323,284.9497,287.31946,278.79138,0.0020307382,0.0019637705,0.0018122753,0.0017829399,4.857561,4.5474524,3.8858147,4.562304
Luimneach,52.664719,-8.62306,0.00017418564,2.014637e-06,0.0,2.454718e-05,278.55496,281.17218,287.3542,283.30954,281.68546,275.2143,284.75513,277.7403,289.56018,283.8053,287.46667,278.85794,0.0029768168,0.002208519,0.0024476568,0.0028919398,4.2122946,3.8384383,3.363801,3.9377077
Derby,52.922771,-1.47663,0.0004319191,3.135403e-05,0.0,9.395282e-05,277.19077,280.5703,287.96652,282.79605,280.81635,272.58032,285.54517,276.39304,291.2394,284.62247,286.9069,278.67944,0.0022508912,0.0021117448,0.001992798,0.0019534933,4.8173895,4.499809,3.8593953,4.5175066
Nottingham,52.953602,-1.15047,0.00036748117,2.1050373e-05,0.0,7.169511e-05,277.40182,280.80338,288.27588,283.0737,281.04794,272.80917,285.73135,276.4959,291.62534,284.99765,287.24887,278.7789,0.0020797094,0.0019902785,0.0018656784,0.0018145031,4.8763967,4.5453568,3.895752,4.606462
Toruń,53.013748,18.598141,0.0006363365,8.693735e-05,0.0,0.00034420888,272.14255,280.43997,290.0255,281.19003,276.69986,266.9545,288.37637,272.44302,293.40738,287.56152,289.2526,275.01715,0.0012855504,0.0021799298,0.002396149,0.0019098653,4.1680765,3.844,3.257983,3.9875062
Bremen,53.075161,8.80777,0.00041314363,3.5371384e-05,0.0,0.00015654763,275.1631,281.07013,289.6672,282.6798,279.6061,268.87653,287.4347,274.89337,293.114,287.6361,288.71326,277.70773,0.0018660823,0.002227984,0.002318577,0.0021049876,4.0213985,3.6830406,3.2306392,3.8151808
Bydgoszcz,53.123501,18.00762,0.00061333843,8.941823e-05,0.0,0.00034796793,272.19992,280.2581,289.8951,281.12314,276.68942,266.7714,288.05527,272.37936,293.16504,287.46304,289.20132,274.91837,0.0012597349,0.0021162538,0.0023726835,0.0018503348,4.172976,3.8677135,3.3266385,4.032869
Groningen,53.21917,6.56667,0.00031341182,2.9660594e-05,0.0,0.00011608071,276.07352,280.7279,288.99017,283.41464,280.3437,270.17944,285.5616,275.5732,292.69986,286.48404,288.5184,278.9503,0.0019981887,0.0022156767,0.0025948894,0.002568237,5.4539285,4.9072757,4.3033605,5.196635
Dublin,53.333061,-6.24889,0.00017646022,1.3688537e-05,0.0,3.2884545e-05,278.85495,281.10153,287.4474,283.597,281.49994,275.64804,284.79517,277.78848,289.2583,284.2898,287.55942,279.3931,0.0026212507,0.0020279407,0.0022376485,0.0026136928,5.62672,4.823212,4.055023,5.172864
Sheffield,53.382969,-1.4659,0.0005525099,4.498826e-05,0.0,0.00012401078,276.9714,280.3296,287.65414,282.5846,280.57675,272.3331,285.19785,276.2451,290.96387,284.4812,286.64648,278.41724,0.0023918736,0.0021962775,0.0021580749,0.0020870103,4.8071094,4.4466524,3.834607,4.5521846
Liverpool,53.41058,-2.97794,0.00029270517,1.3145473e-05,0.0,5.3584576e-05,278.14978,280.95798,287.8739,283.56982,281.5582,274.0432,285.35474,277.31216,290.68784,284.6101,287.2391,279.85733,0.0027347512,0.0023194314,0.0028315438,0.0030055654,5.425715,4.7213855,4.0813136,5.117697
Szczecin,53.42894,14.55302,0.0005488356,6.401787e-05,0.0,0.00028719107,273.40262,280.3144,290.02914,281.9136,277.7781,267.6665,287.17847,273.17487,292.5337,287.42737,289.26282,275.9708,0.0014313578,0.0020596643,0.0021152773,0.0019520521,4.3934073,3.98418,3.5338094,4.282651
Manchester,53.480949,-2.23743,0.0005320655,4.1045965e-05,0.0,0.00011323823,276.95663,280.2909,287.34192,282.3966,280.46957,272.14056,285.1388,276.2494,290.4408,284.09387,286.36438,278.4298,0.0028816224,0.0025009015,0.0028104358,0.0028368032,4.6559453,4.278892,3.6675742,4.338191
Hamburg,53.575321,10.01534,0.0004874428,5.524821e-05,0.0,0.00020889177,274.55716,280.55008,289.5041,282.2717,279.09286,268.78506,287.02774,274.14615,293.09018,287.42578,288.6045,277.11823,0.0017784993,0.0021543344,0.0022355346,0.002069566,4.075919,3.7809107,3.3127835,3.9070306
Hull,53.744598,-0.33525,0.00030127898,1.4050139e-05,0.0,3.8639704e-05,277.74753,280.71213,287.97366,283.45718,280.92,273.6578,284.77628,276.93863,291.31363,285.00552,287.3558,278.89087,0.0020201444,0.0019303348,0.0018857585,0.0019931158,5.554664,5.047027,4.2375107,5.284267
Preston,53.76667,-2.71667,0.0003315537,1.689593e-05,0.0,5.8695125e-05,277.94467,280.80658,287.69174,283.38678,281.24994,273.6549,285.1477,277.05472,290.59555,284.4782,287.03098,279.68796,0.0031443664,0.0024304497,0.0032915047,0.0036168098,5.5732512,4.8252616,4.1615005,5.2698226
Olsztyn,53.779949,20.49416,0.0008419284,9.24596e-05,0.0,0.00046190157,270.90714,279.54974,289.38126,280.40878,275.75525,265.54822,287.8299,271.2309,292.89676,286.87415,288.3171,274.1989,0.0014203106,0.0022630515,0.0026427375,0.0020115145,4.3913617,3.8985107,3.3162384,4.2243276
Bradford,53.793911,-1.75206,0.00068182236,6.55757e-05,0.0,0.00016197981,276.62384,279.92038,287.11545,282.17596,280.15445,271.7712,284.65616,275.9653,290.41217,284.02185,286.16992,278.01794,0.0026462907,0.0022774271,0.0024414698,0.0024025918,4.745562,4.35537,3.7632082,4.5124516
Leeds,53.796478,-1.54785,0.00056318176,4.8239144e-05,0.0,0.00012607574,276.99188,280.3115,287.59946,282.5897,280.57916,272.20892,285.0377,276.37393,290.96295,284.5407,286.64105,278.32217,0.0023640564,0.002108394,0.0021609694,0.002071151,4.7265067,4.353188,3.7549276,4.511466
Blackpool,53.816669,-3.05,0.00026907126,1.3725459e-05,9.934108e-10,4.5271714e-05,278.46518,280.76843,287.52682,283.9609,281.42752,274.85577,284.54895,277.33945,290.25818,284.3579,287.42688,280.46902,0.0033301155,0.0023719033,0.003464222,0.0041324873,6.7622204,5.5883403,4.863592,6.467515
Lübeck,53.868931,10.68729,0.0005200903,6.193469e-05,0.0,0.00022349755,274.4692,280.1756,289.4467,282.29922,278.95792,269.12274,286.1089,274.01556,292.9359,287.15918,288.7367,277.11728,0.0016994854,0.001980108,0.0021116375,0.0019724348,4.603496,4.2115197,3.7164154,4.4452486
York,53.95763,-1.08271,0.00041879152,3.2809046e-05,0.0,8.354452e-05,277.30197,280.5773,287.8926,282.9015,280.73904,272.559,285.0831,276.7477,291.36377,284.8641,286.97037,278.41397,0.0020859719,0.001947909,0.0019747098,0.0018835068,4.7776494,4.43322,3.7737365,4.576823
Harrogate,53.99078,-1.5373,0.00055303046,5.19832e-05,0.0,0.00012842285,276.96545,280.2411,287.51025,282.5197,280.4984,272.057,284.85104,276.4206,290.8946,284.47818,286.5523,278.20175,0.002295791,0.0020038392,0.0021040456,0.0020113592,4.701548,4.333109,3.7168427,4.5006785
Rostock,54.088699,12.14049,0.00058117707,8.424222e-05,0.0,0.00023843348,274.30716,279.77106,289.4875,282.37646,278.7045,269.52435,285.24133,273.79587,292.65588,286.98877,289.00146,276.9354,0.0016183297,0.0018674512,0.0021405022,0.002012056,5.348238,4.795879,4.2932677,5.2478304
Kiel,54.321331,10.13489,0.0005377531,6.485085e-05,0.0,0.00022313495,274.69257,279.7413,289.18652,282.51874,278.8914,269.51434,284.8557,273.98386,292.61328,286.81543,288.51758,277.57947,0.0018683374,0.0019049029,0.0021526576,0.0022560516,5.122506,4.6348257,4.1102414,4.944278
Gdańsk,54.352051,18.64637,0.0007113834,8.8636574e-05,0.0,0.0003655503,272.62354,278.96854,289.15982,281.58563,276.53537,267.65906,285.28345,271.94806,292.29553,285.7041,289.27917,275.68823,0.0014407635,0.0020421485,0.0026709079,0.0022120993,5.5700126,4.780849,4.2394986,5.426819
Gdynia,54.51889,18.531879,0.00073229644,9.158276e-05,0.0,0.0003763817,272.67526,278.79523,289.01694,281.58258,276.53336,267.76035,285.0624,271.82248,292.11182,285.40637,289.2177,275.68936,0.00146158,0.0020245446,0.0026940664,0.002219804,5.732349,4.8840957,4.3574343,5.579059
Belfast,54.583328,-5.93333,0.0001548489,1.2800594e-05,0.0,3.1647087e-05,278.89703,280.80267,286.69058,283.50638,281.2319,275.9666,284.15564,277.61176,288.51746,283.81726,287.0293,279.6862,0.002843539,0.0021397015,0.0026180507,0.0030410052,6.3157187,5.2164874,4.380171,5.798869
Vilnius,54.689159,25.2798,0.0010122908,7.771254e-05,2.5292238e-06,0.00072012347,268.8796,278.95224,289.40347,279.24887,273.85953,261.9542,287.86954,269.84525,293.03384,286.3387,287.78824,273.00998,0.0014609124,0.0022563087,0.0026893723,0.0021837156,4.213799,3.6942809,3.192393,4.088883
Kaliningrad,54.70649,20.51095,0.000760882,6.659561e-05,0.0,0.00037023757,271.93787,279.41556,289.5528,281.29456,276.33966,266.40936,286.48093,271.8787,293.11984,286.4338,289.1997,275.44748,0.0015236043,0.0020552953,0.0029060082,0.0023291518,4.6425476,4.0800195,3.5590274,4.616499
Kaunas,54.900002,23.9,0.0008839796,7.016808e-05,4.341205e-07,0.0005529294,269.83417,279.3417,289.7191,279.9318,274.86813,263.2978,287.51758,270.3471,293.495,286.5752,288.08875,273.81247,0.0014102856,0.00212124,0.0025939862,0.0021086275,3.971514,3.568448,3.1034703,3.914731
Newcastle upon Tyne,54.973282,-1.61396,0.0004926337,5.2357384e-05,0.0,0.00012406641,277.3905,280.0528,287.05765,282.67465,280.53824,273.08456,283.81845,276.48087,290.20703,284.09277,286.3856,278.6088,0.0021912523,0.0019249492,0.0021012041,0.0020484473,5.511233,4.788095,3.9987679,5.197404
Malmö,55.605869,13.00073,0.0006970816,9.017255e-05,0.0,0.00025259523,273.90903,278.85178,288.96445,281.85562,277.84692,268.8934,284.01846,272.75925,292.22916,286.7788,288.20737,276.30966,0.0017068122,0.0017116308,0.0020209895,0.0021247414,5.449922,4.8184824,4.255113,5.306319
Copenhagen,55.675941,12.56553,0.00066491665,8.515418e-05,0.0,0.00023949743,274.13675,279.00836,289.11804,282.0845,278.02386,269.27164,283.9923,273.002,292.3921,286.93005,288.3601,276.7074,0.0016967913,0.0017104626,0.0020151257,0.0020956853,5.622612,4.910715,4.365744,5.467214
Moscow,55.75222,37.615559,0.0011330551,0.00016127495,6.55916e-06,0.0011864344,264.7479,278.23044,289.8905,277.33725,271.50262,257.1085,289.64786,268.0915,295.32437,286.5708,286.40268,269.11905,0.0013081498,0.0020545006,0.0024108994,0.0022251208,3.9440835,3.5091028,3.0983033,3.8859143
Glasgow,55.86515,-4.25763,0.0007913656,5.594558e-05,5.2981908e-09,0.0002588219,276.3729,279.69244,286.2979,281.60464,279.91843,271.82803,283.8146,275.6075,289.00992,283.34546,285.59653,277.2357,0.0034885912,0.002584264,0.003064288,0.0038143902,4.2315373,3.855672,3.388748,4.085294
Edinburgh,55.952061,-3.19648,0.00054606464,5.1502386e-05,9.271834e-09,0.00015767018,276.89816,279.92917,286.6579,282.08322,280.4059,272.70288,283.54932,276.09482,289.4463,283.91342,286.0179,277.7912,0.0023113622,0.0020150847,0.0023007605,0.0022993856,4.913449,4.339401,3.785232,4.725163
Århus,56.156738,10.21076,0.0007445918,7.998546e-05,0.0,0.00025831859,274.62006,279.1247,288.7429,282.38632,278.1303,270.13675,283.9821,273.42624,292.056,286.56186,287.69223,277.29648,0.0018390443,0.0016901069,0.001970503,0.002286209,5.9560614,5.0922194,4.6788116,5.7600694
Riga,56.945999,24.10589,0.0008600891,9.162376e-05,1.0167558e-06,0.00058248243,269.7943,278.26843,289.55008,280.1274,275.03925,262.90707,286.12622,270.05072,293.3114,286.06885,288.33264,273.72906,0.0013145487,0.0019721726,0.003012069,0.0023542186,4.618506,4.0815096,3.663156,4.659199
Aberdeen,57.143688,-2.09814,0.00037337543,5.3539872e-05,0.0,8.618633e-05,277.7669,279.64474,285.7997,282.61697,280.82736,274.99747,282.76575,276.58063,288.29297,283.0995,285.83142,278.93396,0.0023679317,0.001799345,0.0021990896,0.0022988776,6.6982226,5.6371446,4.5055118,6.247214
Yaroslavl',57.629871,39.87368,0.0012096881,0.00023780813,1.9106268e-05,0.0012007018,263.52536,277.36472,289.45306,276.5222,271.1026,254.84032,288.97217,267.80496,294.74756,286.265,285.39014,269.08228,0.0013413429,0.0020879607,0.0024563393,0.0020802517,3.89334,3.5399194,3.1276133,3.8373811
Göteborg,57.707161,11.96679,0.000871676,0.00010744201,0.0,0.0003810547,272.87152,278.8077,288.78503,281.11444,277.3418,266.50644,284.64636,272.24304,291.87982,287.04437,286.86877,275.30157,0.0018890699,0.0019874042,0.0028432,0.002785499,4.624131,4.032032,3.7365391,4.713769
Stockholm,59.332581,18.064899,0.0009810497,0.00015112906,0.0,0.00044499437,271.12515,277.02615,288.55276,279.89902,276.73578,262.96793,282.9198,270.3636,292.00964,286.25,287.01074,272.47046,0.0013604522,0.0013353825,0.0023468733,0.0018632809,4.7462125,4.091442,3.6863458,4.7731223
Tallinn,59.436958,24.753531,0.0010345485,0.00016815464,2.8742684e-06,0.00073726574,268.971,276.4175,288.58203,279.24417,275.90805,262.841,284.06958,268.62433,292.28906,285.45605,287.12305,272.8689,0.0013590812,0.0017847961,0.0030029244,0.0022434075,5.086574,4.3857856,3.9787774,5.164889
Saint Petersburg,59.89444,30.26417,0.0011110677,0.00021919938,1.8801954e-06,0.00095228356,266.19635,276.50223,288.7679,277.46707,274.1994,258.4501,285.45566,268.14667,293.58594,284.64307,285.9476,270.7063,0.0012914314,0.0017920707,0.002874528,0.0020145336,4.0003557,3.5183356,3.191325,3.9446254
Oslo,59.912731,10.74609,0.0017301812,0.0003144079,4.5577685e-06,0.001247459,268.2949,277.13687,288.6097,278.57132,274.1989,259.3768,283.92783,269.88507,291.4082,286.56656,285.12793,270.83633,0.002077749,0.002163887,0.002932522,0.0026335875,2.675556,2.5507557,2.5377524,2.8343527
Helsinki,60.169521,24.93545,0.0012997498,0.00019284437,1.6053517e-06,0.0007982413,269.09357,275.74036,288.37256,279.19077,276.18903,263.2111,282.938,268.70587,292.3042,284.8656,286.92175,272.70422,0.0015829385,0.0015526335,0.0028639038,0.0024113993,5.6471725,4.7000756,4.3836336,5.762752
Espoo,60.2052,24.652201,0.0013895074,0.00021679136,2.433194e-06,0.00081953476,268.5642,275.74557,288.44012,278.74033,275.88168,262.30328,283.30786,268.06656,292.42496,285.5542,286.55777,271.85913,0.001636884,0.0015647729,0.0028972677,0.0023423354,4.997912,4.2258,3.9579012,5.0936284
Vantaa,60.29414,25.040991,0.0013633799,0.00020161647,1.8720274e-06,0.0008217494,268.61752,275.9297,288.52762,278.7574,275.85916,262.5496,283.49814,268.4273,292.5044,285.56165,286.61682,271.86884,0.0016196992,0.0015645203,0.0028495789,0.0023095165,5.110076,4.3320837,4.0278506,5.160463
Bergen,60.39299,5.32415,0.0022271702,0.00043677687,5.7970483e-06,0.0015562574,273.33112,277.51138,285.67535,279.76117,276.96735,269.24957,282.74878,272.7407,288.5083,283.4972,283.97693,274.1548,0.005709253,0.00408683,0.0071639298,0.009463308,4.464861,3.6280205,3.4767008,4.4069424
Turku,60.451481,22.26869,0.0012496948,0.00022746105,2.2676254e-06,0.0005498339,269.0636,276.1484,288.54755,278.69043,275.97635,261.6143,283.7681,267.29993,292.58722,285.7348,286.38895,271.38663,0.0015713975,0.0016104628,0.0029821112,0.0020299698,4.234517,3.667136,3.4260032,4.2653565
Tampere,61.499111,23.787121,0.0012359477,0.00032840128,1.2265311e-06,0.0008809867,266.63156,275.50403,288.23456,277.18533,274.36047,258.55676,283.95993,266.34702,292.34436,285.2463,284.9562,269.65225,0.0013679399,0.0016895471,0.0030253658,0.001798877,3.523217,3.2014313,2.9298427,3.59721
Reykjavík,64.135483,-21.895411,0.0016535034,0.00039060015,1.9620855e-05,0.0011897365,271.5767,275.7706,282.15164,276.61606,275.3897,267.55667,280.63794,268.16925,284.01282,279.23816,281.20642,269.9319,0.0045032324,0.003481676,0.0035787702,0.0047686817,5.495787,4.7175665,4.0459757,4.8004436
Oulu,65.01236,25.468161,0.0012153308,0.00033192016,5.3688336e-06,0.0010879358,264.71762,273.84564,287.3322,275.20734,273.72482,256.3495,281.9991,264.00192,292.3576,283.9336,284.0697,266.78223,0.001323382,0.0016096185,0.0025401008,0.0017502855,4.055342,3.4127467,3.1866205,3.996918
